{
    "version": 0.6,
    "generator": "Overpass API 0.7.62.1 084b4234",
    "osm3s": {
        "timestamp_osm_base": "2024-10-08T11:42:30Z",
        "timestamp_areas_base": "2024-10-08T10:29:11Z",
        "copyright": "The data included in this document is from www.openstreetmap.org. The data is made available under ODbL."
    },
    "elements": [
        {
            "type": "node",
            "id": 148550514,
            "lat": -37.8812376,
            "lon": 145.1647793,
            "tags": {
                "addr:city": "Glen Waverley",
                "addr:housenumber": "285-287",
                "addr:postcode": "3150",
                "addr:street": "Springvale Road",
                "amenity": "cinema",
                "brand": "Village",
                "brand:wikidata": "Q7930631",
                "brand:wikipedia": "en:Village Cinemas",
                "name": "Village Cinemas Century City"
            }
        },
        {
            "type": "node",
            "id": 176729780,
            "lat": -37.815497,
            "lon": 144.967598,
            "tags": {
                "addr:city": "Melbourne",
                "addr:housenumber": "191",
                "addr:postcode": "3000",
                "addr:street": "Collins Street",
                "amenity": "theatre",
                "name": "Regent Theatre",
                "operator": "Marriner Group",
                "website": "https://www.marrinergroup.com.au/theatre-regent.php",
                "wikidata": "Q7308110"
            }
        },
        {
            "type": "node",
            "id": 188795650,
            "lat": -37.8675559,
            "lon": 144.976061,
            "tags": {
                "amenity": "theatre",
                "name": "Palais Theatre",
                "website": "http://www.palaistheatre.net.au/"
            }
        },
        {
            "type": "node",
            "id": 188795670,
            "lat": -37.8668729,
            "lon": 144.9809316,
            "tags": {
                "amenity": "theatre",
                "name": "National Theatre",
                "wikidata": "Q6978920"
            }
        },
        {
            "type": "node",
            "id": 251156393,
            "lat": -37.0221851,
            "lon": 147.2402639,
            "tags": {
                "amenity": "restaurant",
                "created_by": "JOSM"
            }
        },
        {
            "type": "node",
            "id": 261346373,
            "lat": -37.8534257,
            "lon": 145.1605621,
            "tags": {
                "amenity": "restaurant",
                "name": "Sofia",
                "website": "https://sofiaburwood.com.au/"
            }
        },
        {
            "type": "node",
            "id": 265971579,
            "lat": -37.9095392,
            "lon": 145.3520899,
            "tags": {
                "addr:housenumber": "1628",
                "addr:street": "Burwood Highway",
                "addr:suburb": "Belgrave",
                "amenity": "cinema",
                "name": "Cameo Belgrave",
                "phone": "+61 3 9754 7844",
                "website": "https://www.cameocinemas.com.au",
                "wikidata": "Q47000812"
            }
        },
        {
            "type": "node",
            "id": 268181318,
            "lat": -37.7826422,
            "lon": 144.8311326,
            "tags": {
                "amenity": "cinema",
                "brand": "Village",
                "brand:wikidata": "Q7930631",
                "brand:wikipedia": "en:Village Cinemas",
                "name": "Village Cinemas",
                "website": "https://www.villagecinemas.com.au/",
                "wikidata": "Q47001174"
            }
        },
        {
            "type": "node",
            "id": 270424603,
            "lat": -37.0645715,
            "lon": 144.2162886,
            "tags": {
                "addr:housenumber": "16",
                "addr:postcode": "3450",
                "addr:street": "Lyttleton Street",
                "amenity": "restaurant",
                "name": "Edda's Cafe and Restaurant",
                "name:en": "Tandoori Cuizine",
                "phone": "+61 3 5472 1122"
            }
        },
        {
            "type": "node",
            "id": 273082915,
            "lat": -36.7076113,
            "lon": 145.1987098,
            "tags": {
                "amenity": "restaurant",
                "name": "Wahring's Restaurant and Playground"
            }
        },
        {
            "type": "node",
            "id": 280435190,
            "lat": -37.7826613,
            "lon": 145.1628389,
            "tags": {
                "addr:housenumber": "239",
                "addr:postcode": "3109",
                "addr:street": "Blackburn Road",
                "amenity": "restaurant",
                "cuisine": "chinese",
                "name": "Taipan Restaurant",
                "website": "http://www.taipanrestaurant.com.au/"
            }
        },
        {
            "type": "node",
            "id": 291210034,
            "lat": -37.8100694,
            "lon": 144.9634038,
            "tags": {
                "addr:postcode": "3000",
                "amenity": "cinema",
                "brand": "Hoyts",
                "brand:wikidata": "Q5922976",
                "brand:wikipedia": "en:Hoyts",
                "floor": "3",
                "name": "Hoyts Melbourne Central",
                "website": "https://www.hoyts.com.au",
                "wheelchair": "yes"
            }
        },
        {
            "type": "node",
            "id": 294964802,
            "lat": -37.8429484,
            "lon": 144.9959858,
            "tags": {
                "amenity": "cinema",
                "brand": "Village",
                "brand:wikidata": "Q7930631",
                "name": "Village Cinemas",
                "website": "https://www.villagecinemas.com.au/",
                "wheelchair": "yes",
                "wikidata": "Q47001168"
            }
        },
        {
            "type": "node",
            "id": 299026704,
            "lat": -37.804543,
            "lon": 145.0107596,
            "tags": {
                "amenity": "restaurant",
                "name": "Boulevard Restaurant"
            }
        },
        {
            "type": "node",
            "id": 299027983,
            "lat": -37.801382,
            "lon": 145.0077832,
            "tags": {
                "addr:housenumber": "1",
                "addr:street": "Boathouse Road",
                "amenity": "restaurant",
                "name": "Studley Park Boathouse",
                "phone": "+61 3 9853 1828",
                "website": "https://www.studleyparkboathouse.com.au/"
            }
        },
        {
            "type": "node",
            "id": 302129361,
            "lat": -37.7978092,
            "lon": 144.9680124,
            "tags": {
                "addr:housenumber": "380",
                "addr:postcode": "3053",
                "addr:state": "VIC",
                "addr:street": "Lygon Street",
                "addr:suburb": "Carlton",
                "air_conditioning": "yes",
                "amenity": "cinema",
                "check_date": "2022-10-02",
                "name": "Cinema Nova",
                "screen": "16",
                "start_date": "1992-08-29",
                "website": "https://www.cinemanova.com.au/",
                "wheelchair": "yes",
                "wikidata": "Q47000853"
            }
        },
        {
            "type": "node",
            "id": 302559944,
            "lat": -37.7977034,
            "lon": 144.9687111,
            "tags": {
                "addr:housenumber": "349",
                "addr:street": "Drummond Street",
                "alt_name": "La Mama Courthouse",
                "amenity": "theatre",
                "name": "Courthouse Theatre",
                "phone": "+61 3 9347 6948",
                "website": "https://lamama.com.au/venues/la-mama-courthouse/"
            }
        },
        {
            "type": "node",
            "id": 302755274,
            "lat": -37.859552,
            "lon": 144.978283,
            "tags": {
                "addr:housenumber": "135",
                "addr:street": "Fitzroy Street",
                "amenity": "cinema",
                "name": "Palace George",
                "phone": "+61 3 9534 6952",
                "source": "Collected via KeypadMapper",
                "website": "https://www.palacecinemas.com.au/venue.asp"
            }
        },
        {
            "type": "node",
            "id": 304169365,
            "lat": -37.8217162,
            "lon": 144.9683971,
            "tags": {
                "amenity": "theatre",
                "created_by": "Potlatch 0.10e",
                "name": "Playhouse Theatre",
                "wheelchair": "limited"
            }
        },
        {
            "type": "node",
            "id": 308435480,
            "lat": -37.833506,
            "lon": 144.966913,
            "tags": {
                "addr:city": "South Melbourne",
                "addr:housenumber": "118",
                "addr:postcode": "3205",
                "addr:street": "Park Street",
                "amenity": "restaurant",
                "created_by": "Potlatch 0.10f",
                "cuisine": "indian",
                "name": "Bedi's Indian Restaurant",
                "outdoor_seating": "no",
                "phone": "+61 3 9696 8484",
                "smoking": "no",
                "takeaway": "yes"
            }
        },
        {
            "type": "node",
            "id": 312967833,
            "lat": -37.8165887,
            "lon": 144.8894117,
            "tags": {
                "addr:city": "Yarraville",
                "addr:housenumber": "65",
                "addr:postcode": "3013",
                "addr:street": "Anderson Street",
                "amenity": "restaurant",
                "name": "Coracle",
                "website": "https://coracleyarraville.com.au"
            }
        },
        {
            "type": "node",
            "id": 323355702,
            "lat": -37.7982994,
            "lon": 144.9768502,
            "tags": {
                "addr:housenumber": "62",
                "addr:street": "Johnston Street",
                "amenity": "bar",
                "description": "Tiki bar",
                "name": "Vaud d'vile Drag Cabaret Restaurant",
                "phone": "+61 3 9417 5447"
            }
        },
        {
            "type": "node",
            "id": 323914661,
            "lat": -37.8417824,
            "lon": 144.9672735,
            "tags": {
                "addr:postcode": "3206",
                "addr:street": "Aquatic Drive",
                "amenity": "restaurant",
                "name": "The Point Restaurant",
                "website": "http://www.thepointalbertpark.com.au/index.php"
            }
        },
        {
            "type": "node",
            "id": 330382737,
            "lat": -37.2843014,
            "lon": 142.934307,
            "tags": {
                "addr:housenumber": "250",
                "addr:postcode": "3377",
                "addr:state": "VIC",
                "addr:street": "Barkly Street",
                "addr:suburb": "Ararat",
                "amenity": "cinema",
                "name": "Astor Cinema",
                "phone": "+61 3 5352 2616",
                "website": "https://araratcinema.com.au",
                "wikidata": "Q47000688"
            }
        },
        {
            "type": "node",
            "id": 331165028,
            "lat": -37.7990994,
            "lon": 144.9676917,
            "tags": {
                "addr:housenumber": "205",
                "addr:postcode": "3053",
                "addr:street": "Faraday Street",
                "amenity": "theatre",
                "name": "La Mama Theatre",
                "website": "https://lamama.com.au/",
                "wikidata": "Q6463660"
            }
        },
        {
            "type": "node",
            "id": 335580997,
            "lat": -38.051588,
            "lon": 145.2886263,
            "tags": {
                "addr:city": "Narre Warren South",
                "addr:housenumber": "Shop 10, 101",
                "addr:postcode": "3805",
                "addr:state": "VIC",
                "addr:street": "Seebeck Drive",
                "amenity": "restaurant",
                "building": "yes",
                "cuisine": "indian",
                "name": "Arya Indian Restaurant",
                "phone": "+61 3 9705 8305",
                "website": "https://www.arya.com.au/"
            }
        },
        {
            "type": "node",
            "id": 339275287,
            "lat": -37.8350108,
            "lon": 145.171523,
            "tags": {
                "amenity": "restaurant",
                "created_by": "Potlatch 0.10f",
                "cuisine": "japanese",
                "name": "Lazy Moe's",
                "name:en": "Isshin Japanese Buffet"
            }
        },
        {
            "type": "node",
            "id": 358923419,
            "lat": -38.0768828,
            "lon": 145.4930077,
            "tags": {
                "amenity": "restaurant",
                "name": "Chives Bar & Bistro"
            }
        },
        {
            "type": "node",
            "id": 364875775,
            "lat": -37.959618,
            "lon": 145.0546178,
            "tags": {
                "amenity": "cinema",
                "brand": "Village",
                "brand:wikidata": "Q7930631",
                "brand:wikipedia": "en:Village Cinemas",
                "level": "0;1",
                "level:ref": "1",
                "name": "Village Cinemas",
                "toilets:wheelchair": "yes",
                "website": "https://www.villagecinemas.com.au/",
                "wheelchair": "yes",
                "wikidata": "Q47000880"
            }
        },
        {
            "type": "node",
            "id": 364878387,
            "lat": -38.1509074,
            "lon": 145.1670586,
            "tags": {
                "amenity": "cinema",
                "brand": "Village",
                "brand:wikidata": "Q7930631",
                "brand:wikipedia": "en:Village Cinemas",
                "name": "Village Cinemas",
                "operator": "Village Cinemas",
                "website": "https://www.villagecinemas.com.au/"
            }
        },
        {
            "type": "node",
            "id": 365206796,
            "lat": -37.835313,
            "lon": 144.961919,
            "tags": {
                "addr:housenumber": "345",
                "addr:street": "Clarendon Street",
                "amenity": "bar",
                "name": "Honey",
                "phone": "+61 3 9686 3311",
                "website": "http://www.honeybar.com.au/"
            }
        },
        {
            "type": "node",
            "id": 365778869,
            "lat": -37.8350109,
            "lon": 144.9617178,
            "tags": {
                "addr:city": "South Melbourne",
                "addr:housenumber": "343",
                "addr:postcode": "3205",
                "addr:street": "Clarendon Street",
                "amenity": "bar",
                "name": "Fishers Craft Beer Bar",
                "website": "https://www.fishers.com.au/"
            }
        },
        {
            "type": "node",
            "id": 368391288,
            "lat": -37.7901129,
            "lon": 144.9765303,
            "tags": {
                "addr:city": "Fitzroy North",
                "addr:housenumber": "414",
                "addr:postcode": "3068",
                "addr:street": "Nicholson Street",
                "amenity": "restaurant",
                "cuisine": "tapas/wine bar",
                "name": "Fireflies"
            }
        },
        {
            "type": "node",
            "id": 368393200,
            "lat": -37.8035056,
            "lon": 144.9706364,
            "tags": {
                "amenity": "cinema",
                "check_date": "2022-10-02",
                "name": "IMAX Melbourne",
                "operator": "Melbourne museum",
                "payment:mastercard": "yes",
                "payment:visa": "yes",
                "phone": "+61 3 9663 5454",
                "screen": "1",
                "website": "https://imaxmelbourne.com.au/",
                "wikidata": "Q47000854"
            }
        },
        {
            "type": "node",
            "id": 368393559,
            "lat": -37.7882441,
            "lon": 144.9723001,
            "tags": {
                "addr:housenumber": "392",
                "addr:street": "Rathdowne Street",
                "amenity": "restaurant",
                "cuisine": "italian",
                "name": "La Porchetta",
                "opening_hours": "Mo,Tu 17:00-21:00; We-Su 12:00-22:00",
                "phone": "+61 3 9347 8906",
                "takeaway": "yes",
                "website": "https://laporchetta.com.au/",
                "wheelchair": "limited"
            }
        },
        {
            "type": "node",
            "id": 368394229,
            "lat": -37.7958574,
            "lon": 144.9790602,
            "tags": {
                "addr:housenumber": "380",
                "addr:postcode": "3065",
                "addr:state": "VIC",
                "addr:street": "Brunswick Street",
                "addr:suburb": "Fitzroy",
                "amenity": "restaurant",
                "contact:instagram": "https://www.instagram.com/vegiebar/",
                "diet:gluten_free": "yes",
                "diet:vegan": "only",
                "drink:beer": "yes",
                "drink:coffee": "yes",
                "drink:tea": "yes",
                "drink:wine": "yes",
                "drinking_water": "yes",
                "name": "Vegie Bar",
                "phone": "+61 3 9417 6935",
                "reservation": "yes",
                "website": "https://www.vegiebar.com.au"
            }
        },
        {
            "type": "node",
            "id": 369689143,
            "lat": -37.9877436,
            "lon": 145.2147467,
            "tags": {
                "amenity": "theatre",
                "name": "Drum Theatre",
                "website": "www.drumtheatre.com.au"
            }
        },
        {
            "type": "node",
            "id": 377546873,
            "lat": -37.8361936,
            "lon": 144.9622636,
            "tags": {
                "addr:housenumber": "375",
                "addr:street": "Clarendon Street",
                "amenity": "restaurant",
                "cuisine": "mexican",
                "name": "Taco Bill",
                "phone": "+61 3 9690 2077",
                "website": "https://www.tacobill.com.au/"
            }
        },
        {
            "type": "node",
            "id": 385040567,
            "lat": -37.6987884,
            "lon": 144.7751651,
            "tags": {
                "addr:postcode": "3038",
                "amenity": "cinema",
                "brand": "Hoyts",
                "brand:wikidata": "Q5922976",
                "brand:wikipedia": "en:Hoyts",
                "contact:facebook": "hoytsaustralia",
                "name": "Hoyts",
                "opening_hours": "Mo-Tu,Th 10:00-24:00, We 10:00-25:00, Fr-Su 10:00-24:30",
                "phone": "+61 3 9027 1510",
                "website": "https://www.hoyts.com.au/",
                "wikidata": "Q47000769"
            }
        },
        {
            "type": "node",
            "id": 385593379,
            "lat": -38.0515435,
            "lon": 145.2882882,
            "tags": {
                "amenity": "restaurant",
                "cuisine": "pizza",
                "name": "Pizza"
            }
        },
        {
            "type": "node",
            "id": 390666502,
            "lat": -37.7979061,
            "lon": 144.9756259,
            "tags": {
                "addr:housenumber": "15-17",
                "addr:street": "Johnston Street",
                "amenity": "restaurant",
                "cuisine": "thai",
                "name": "Chilli Lili",
                "phone": "+61 3 8415 1680",
                "takeaway": "yes"
            }
        },
        {
            "type": "node",
            "id": 390715486,
            "lat": -37.8062207,
            "lon": 144.9825807,
            "tags": {
                "addr:housenumber": "243-245",
                "addr:street": "Gertrude Street",
                "amenity": "bar",
                "food": "yes",
                "name": "The Fitzroy Beer Garden",
                "old_name": "Sentido Funf",
                "outdoor_seating": "yes",
                "phone": "+61 3 9416 2689",
                "smoking": "outside",
                "website": "http://thefitzroybeergarden.com"
            }
        },
        {
            "type": "node",
            "id": 395212055,
            "lat": -37.8693846,
            "lon": 145.2435869,
            "tags": {
                "amenity": "restaurant",
                "name": "The Barbarian"
            }
        },
        {
            "type": "node",
            "id": 395212113,
            "lat": -37.8693438,
            "lon": 145.2425605,
            "tags": {
                "amenity": "restaurant",
                "cuisine": "fusion",
                "name": "Switch"
            }
        },
        {
            "type": "node",
            "id": 396951893,
            "lat": -37.8005067,
            "lon": 144.9838413,
            "tags": {
                "addr:housenumber": "281",
                "addr:street": "Smith Street",
                "amenity": "restaurant",
                "brand": "Nando's",
                "brand:wikidata": "Q3472954",
                "brand:wikipedia": "en:Nando's",
                "cuisine": "chicken;portuguese",
                "name": "Nando's",
                "opening_hours": "Mo-Su 11:00-22:00",
                "outdoor_seating": "yes",
                "phone": "+61 3 9416 0266",
                "takeaway": "yes",
                "website": "https://www.nandos.com.au/",
                "wheelchair": "limited"
            }
        },
        {
            "type": "node",
            "id": 396987047,
            "lat": -37.83062,
            "lon": 145.0554461,
            "tags": {
                "addr:housenumber": "200",
                "addr:postcode": "3123",
                "addr:state": "VIC",
                "addr:street": "Camberwell Road",
                "addr:suburb": "Hawthorn East",
                "air_conditioning": "yes",
                "amenity": "cinema",
                "brand": "Village",
                "brand:wikidata": "Q7930631",
                "brand:wikipedia": "en:Village Cinemas",
                "name": "Village Rivoli",
                "payment:cash": "yes",
                "payment:coins": "yes",
                "payment:contactless": "yes",
                "payment:credit_cards": "yes",
                "payment:debit_cards": "yes",
                "payment:mastercard": "yes",
                "payment:notes": "yes",
                "payment:visa": "yes",
                "website": "https://villagecinemas.com.au/cinemas/rivoli",
                "wikidata": "Q16864824",
                "wikipedia": "en:Rivoli Cinemas"
            }
        },
        {
            "type": "node",
            "id": 409389539,
            "lat": -38.0708122,
            "lon": 145.4769997,
            "tags": {
                "addr:housenumber": "110 - 112",
                "addr:street": "Princes Highway",
                "amenity": "restaurant",
                "cuisine": "regional",
                "name": "Pakenham Inn"
            }
        },
        {
            "type": "node",
            "id": 411155022,
            "lat": -38.6057353,
            "lon": 145.5921844,
            "tags": {
                "addr:housenumber": "90-98",
                "addr:postcode": "3995",
                "addr:state": "VIC",
                "addr:street": "Graham Street",
                "addr:suburb": "Wonthaggi",
                "amenity": "cinema",
                "check_date": "2022-09-16",
                "name": "Wonthaggi Union Community Arts Centre",
                "opening_hours": "\"Check website for each day\"",
                "phone": "+61 3 5672 2211",
                "website": "https://www.basscoast.vic.gov.au/cinema"
            }
        },
        {
            "type": "node",
            "id": 415276361,
            "lat": -37.818113,
            "lon": 144.948094,
            "tags": {
                "amenity": "restaurant",
                "name": "Capricho"
            }
        },
        {
            "type": "node",
            "id": 415515184,
            "lat": -38.1437562,
            "lon": 145.1234612,
            "tags": {
                "amenity": "restaurant",
                "brand": "Nando's",
                "brand:wikidata": "Q3472954",
                "brand:wikipedia": "en:Nando's",
                "cuisine": "chicken;portuguese",
                "name": "Nando's",
                "website": "https://www.nandos.com.au/"
            }
        },
        {
            "type": "node",
            "id": 416887036,
            "lat": -38.2369835,
            "lon": 146.4286083,
            "tags": {
                "amenity": "cinema",
                "brand": "Village",
                "brand:wikidata": "Q7930631",
                "brand:wikipedia": "en:Village Cinemas",
                "name": "Village 8",
                "website": "https://villagecinemas.com.au/cinemas/morwell"
            }
        },
        {
            "type": "node",
            "id": 428291701,
            "lat": -36.3345857,
            "lon": 141.6752669,
            "tags": {
                "amenity": "restaurant",
                "cuisine": "australian",
                "name": "Nhill Road House"
            }
        },
        {
            "type": "node",
            "id": 436014724,
            "lat": -37.8343635,
            "lon": 145.1667724,
            "tags": {
                "amenity": "restaurant"
            }
        },
        {
            "type": "node",
            "id": 439923451,
            "lat": -37.874639,
            "lon": 145.1275621,
            "tags": {
                "amenity": "theatre",
                "name": "Mt Waverley Youth Centre"
            }
        },
        {
            "type": "node",
            "id": 443264062,
            "lat": -37.8188275,
            "lon": 145.0002311,
            "tags": {
                "addr:housenumber": "278",
                "addr:postcode": "3121",
                "addr:street": "Bridge Road",
                "amenity": "restaurant",
                "brand": "Nando's",
                "brand:wikidata": "Q3472954",
                "brand:wikipedia": "en:Nando's",
                "cuisine": "chicken;portuguese",
                "name": "Nando's",
                "website": "https://www.nandos.com.au/"
            }
        },
        {
            "type": "node",
            "id": 443540185,
            "lat": -37.8251672,
            "lon": 144.9946615,
            "tags": {
                "amenity": "bar",
                "name": "Wild Oscar's"
            }
        },
        {
            "type": "node",
            "id": 443540187,
            "lat": -37.8250663,
            "lon": 144.9935844,
            "tags": {
                "addr:housenumber": "79",
                "addr:postcode": "3121",
                "addr:state": "VIC",
                "addr:street": "Swan Street",
                "addr:suburb": "Richmond",
                "amenity": "restaurant",
                "cuisine": "vietnamese",
                "name": "New Quarter - Hannoi Hannah"
            }
        },
        {
            "type": "node",
            "id": 445206217,
            "lat": -37.797392,
            "lon": 144.978818,
            "tags": {
                "addr:housenumber": "328",
                "addr:street": "Brunswick Street",
                "amenity": "restaurant",
                "cuisine": "asian",
                "name": "Noodle Palace",
                "opening_hours": "Su-Th 12:00-22:00; Fr-Sa 12:00-22:30",
                "phone": "+61 3 9416 4328",
                "takeaway": "yes"
            }
        },
        {
            "type": "node",
            "id": 446516607,
            "lat": -37.8135412,
            "lon": 145.0115728,
            "tags": {
                "amenity": "cinema",
                "brand": "Hoyts",
                "brand:wikidata": "Q5922976",
                "brand:wikipedia": "en:Hoyts",
                "layer": "2",
                "name": "Hoyts Victoria Gardens",
                "website": "https://www.hoyts.com.au/cinemas/locations/victoria_gardens.aspx",
                "wikidata": "Q47001109"
            }
        },
        {
            "type": "node",
            "id": 448079442,
            "lat": -37.8009521,
            "lon": 144.9782174,
            "tags": {
                "addr:housenumber": "222",
                "addr:postcode": "3065",
                "addr:state": "VIC",
                "addr:street": "Brunswick Street",
                "addr:suburb": "Fitzroy",
                "amenity": "restaurant",
                "cuisine": "tex-mex",
                "name": "El Camino Cantina",
                "opening_hours": "Su-Th 12:00-22:00; Fr-Sa 12:00-23:00",
                "phone": "+61 3 9417 5500",
                "website": "https://elcaminocantina.com.au"
            }
        },
        {
            "type": "node",
            "id": 448170790,
            "lat": -37.6535944,
            "lon": 145.3044196,
            "tags": {
                "amenity": "theatre",
                "name": "Blue Wren Theatre"
            }
        },
        {
            "type": "node",
            "id": 448185435,
            "lat": -37.7869462,
            "lon": 144.9937722,
            "tags": {
                "addr:city": "Fitzroy North",
                "addr:housenumber": "201",
                "addr:postcode": "3068",
                "addr:street": "Queens Parade",
                "amenity": "restaurant",
                "cuisine": "nepalese",
                "name": "Rocketman"
            }
        },
        {
            "type": "node",
            "id": 454357332,
            "lat": -37.4203522,
            "lon": 144.5620745,
            "tags": {
                "amenity": "theatre",
                "name": "Mountview Theatre"
            }
        },
        {
            "type": "node",
            "id": 457815795,
            "lat": -37.8007255,
            "lon": 144.9651678,
            "tags": {
                "amenity": "restaurant",
                "name": "Rice Bar"
            }
        },
        {
            "type": "node",
            "id": 462236816,
            "lat": -35.3346732,
            "lon": 143.5572215,
            "tags": {
                "addr:housenumber": "17",
                "addr:postcode": "3585",
                "addr:street": "Beveridge Street",
                "amenity": "restaurant",
                "cuisine": "thai",
                "name": "Java Spice",
                "website": "https://javaspice.com.au/",
                "wheelchair": "yes"
            }
        },
        {
            "type": "node",
            "id": 462236822,
            "lat": -35.3388706,
            "lon": 143.5597141,
            "tags": {
                "amenity": "bar",
                "name": "Peachy's Bar"
            }
        },
        {
            "type": "node",
            "id": 463300063,
            "lat": -37.8328036,
            "lon": 144.9456317,
            "tags": {
                "addr:city": "Port Melbourne",
                "addr:country": "AU",
                "addr:housenumber": "192",
                "addr:postcode": "3207",
                "addr:state": "VIC",
                "addr:street": "Station Street",
                "amenity": "restaurant",
                "cuisine": "seafood",
                "name": "Rubira's at Swallows",
                "outdoor_seating": "yes",
                "smoking": "no",
                "toilets:wheelchair": "no",
                "website": "http://www.swallows.com.au/",
                "wheelchair": "limited"
            }
        },
        {
            "type": "node",
            "id": 463468361,
            "lat": -37.8301951,
            "lon": 144.9562392,
            "tags": {
                "addr:housenumber": "68",
                "addr:postcode": "3205",
                "addr:street": "Cecil Street",
                "amenity": "bar",
                "name": "Kittens",
                "website": "https://www.kittens.com.au/south-melbourne.html"
            }
        },
        {
            "type": "node",
            "id": 465186401,
            "lat": -37.7869237,
            "lon": 145.125873,
            "tags": {
                "addr:housenumber": "619",
                "addr:street": "Doncaster Road",
                "amenity": "restaurant",
                "brand": "TGI Fridays",
                "brand:wikidata": "Q1524184",
                "brand:wikipedia": "en:TGI Fridays",
                "cuisine": "american",
                "level": "2",
                "name": "TGI Fridays",
                "opening_hours": "Su-We 11:30-21:00; Th 11:30-21:30; Fr-Sa 11:30-22:00",
                "phone": "+61 3 9848 8111",
                "takeaway": "no",
                "website": "https://www.tgifridays.com.au/"
            }
        },
        {
            "type": "node",
            "id": 469458742,
            "lat": -37.8759032,
            "lon": 145.045494,
            "tags": {
                "amenity": "restaurant",
                "name": "Racecourse Hotel",
                "source": "nearmap",
                "website": "https://www.racecoursehotel.com.au/"
            }
        },
        {
            "type": "node",
            "id": 471824832,
            "lat": -37.7798322,
            "lon": 144.9970613,
            "tags": {
                "addr:housenumber": "98-100",
                "addr:street": "High Street",
                "amenity": "restaurant",
                "cuisine": "italian",
                "name": "Ferdinand",
                "phone": "+61 3 9042 7247",
                "source": "mapillary",
                "website": "https://ferdinand.com.au/"
            }
        },
        {
            "type": "node",
            "id": 471856031,
            "lat": -37.7812933,
            "lon": 145.163063,
            "tags": {
                "addr:housename": "Shop 1",
                "addr:housenumber": "261-265",
                "addr:postcode": "3109",
                "addr:street": "Blackburn Road",
                "amenity": "restaurant",
                "cuisine": "chinese",
                "name": "Ho Mei"
            }
        },
        {
            "type": "node",
            "id": 472236670,
            "lat": -37.800873,
            "lon": 144.9667047,
            "tags": {
                "amenity": "restaurant",
                "cuisine": "italian",
                "name": "Borsari Ristorante",
                "phone": "+61 3 9349 1444",
                "website": "http://www.borsari.com.au/"
            }
        },
        {
            "type": "node",
            "id": 474109593,
            "lat": -36.7582542,
            "lon": 144.2485259,
            "tags": {
                "amenity": "restaurant"
            }
        },
        {
            "type": "node",
            "id": 478709636,
            "lat": -38.1403783,
            "lon": 144.3627755,
            "tags": {
                "addr:street": "Cunningham Pier",
                "addr:suburb": "Geelong",
                "amenity": "restaurant",
                "capacity": "200",
                "cuisine": "asian",
                "name": "Wah Wah Gee",
                "opening_hours": "Su-Th 12:00-22:00; Fr-Sa 12:00-23:00",
                "outdoor_seating": "yes",
                "phone": "+61 3 5222 6377",
                "takeaway": "yes",
                "website": "https://wahwahgee.com.au"
            }
        },
        {
            "type": "node",
            "id": 492905319,
            "lat": -37.6528004,
            "lon": 145.0201794,
            "tags": {
                "amenity": "cinema",
                "name": "Reading Epping Cinema",
                "website": "https://www.readingcinemas.com.au/",
                "wikidata": "Q47000916"
            }
        },
        {
            "type": "node",
            "id": 493891507,
            "lat": -37.7919981,
            "lon": 145.1697896,
            "tags": {
                "amenity": "restaurant",
                "cuisine": "chinese",
                "name": "Sino Kitchen",
                "phone": "+61 3 8821 4377"
            }
        },
        {
            "type": "node",
            "id": 493891509,
            "lat": -37.7918926,
            "lon": 145.1698212,
            "tags": {
                "amenity": "restaurant",
                "cuisine": "asian",
                "microbrewery": "no",
                "name": "East Alley",
                "outdoor_seating": "yes",
                "reservation": "yes",
                "takeaway": "yes",
                "toilets": "yes"
            }
        },
        {
            "type": "node",
            "id": 493891511,
            "lat": -37.7918243,
            "lon": 145.1698353,
            "tags": {
                "amenity": "restaurant",
                "cuisine": "chinese",
                "name": "Perfect Eatery",
                "phone": "+61 3 9842 3131"
            }
        },
        {
            "type": "node",
            "id": 493891580,
            "lat": -37.790936,
            "lon": 145.1723452,
            "tags": {
                "amenity": "restaurant",
                "cuisine": "asian",
                "opening_hours": "Tu-Su 11:00-21:00"
            }
        },
        {
            "type": "node",
            "id": 496943527,
            "lat": -37.8242677,
            "lon": 144.9577541,
            "tags": {
                "addr:city": "Southbank",
                "addr:housenumber": "8",
                "addr:postcode": "3006",
                "addr:street": "Whiteman Street",
                "addr:unit": "Shop 50",
                "amenity": "cinema",
                "brand": "Village",
                "brand:wikidata": "Q7930631",
                "name": "Village Cinemas Crown",
                "toilets:wheelchair": "yes",
                "website": "https://villagecinemas.com.au/cinemas/crown",
                "wheelchair": "yes"
            }
        },
        {
            "type": "node",
            "id": 518260719,
            "lat": -37.8392617,
            "lon": 144.9970194,
            "tags": {
                "amenity": "cinema",
                "brand": "Palace Cinemas",
                "brand:wikidata": "Q7126164",
                "brand:wikipedia": "en:Palace Cinemas (Australia)",
                "name": "Palace Cinemas",
                "wheelchair": "yes"
            }
        },
        {
            "type": "node",
            "id": 518260801,
            "lat": -38.1002564,
            "lon": 144.0590441,
            "tags": {
                "amenity": "restaurant",
                "name": "Matilda's of Inverleigh"
            }
        },
        {
            "type": "node",
            "id": 520954650,
            "lat": -37.839288,
            "lon": 144.995485,
            "tags": {
                "addr:housenumber": "257",
                "addr:street": "Toorak Road",
                "amenity": "restaurant",
                "cuisine": "burger",
                "name": "Soda Rock",
                "website": "http://www.sodarock.com.au/"
            }
        },
        {
            "type": "node",
            "id": 529776532,
            "lat": -37.8692181,
            "lon": 145.2433342,
            "tags": {
                "amenity": "restaurant",
                "cuisine": "asian",
                "name": "Nudle"
            }
        },
        {
            "type": "node",
            "id": 529776731,
            "lat": -37.869089,
            "lon": 145.2429399,
            "tags": {
                "amenity": "restaurant",
                "cuisine": "japanese",
                "description": "Japanese Crepes",
                "name": "Harajuku",
                "source": "survey"
            }
        },
        {
            "type": "node",
            "id": 529776732,
            "lat": -37.8691816,
            "lon": 145.2432242,
            "tags": {
                "amenity": "restaurant",
                "cuisine": "thai",
                "name": "Lemon Leaf"
            }
        },
        {
            "type": "node",
            "id": 529776733,
            "lat": -37.8691504,
            "lon": 145.243127,
            "tags": {
                "amenity": "restaurant",
                "cuisine": "japanese",
                "name": "Sakura House"
            }
        },
        {
            "type": "node",
            "id": 529842830,
            "lat": -37.8386539,
            "lon": 144.9895676,
            "tags": {
                "amenity": "restaurant",
                "cuisine": "italian",
                "name": "La Porchetta"
            }
        },
        {
            "type": "node",
            "id": 530289453,
            "lat": -37.8340315,
            "lon": 144.9805291,
            "tags": {
                "amenity": "restaurant",
                "cuisine": "french;steak_house",
                "name": "Entrec\u00f4te"
            }
        },
        {
            "type": "node",
            "id": 530542805,
            "lat": -37.8555503,
            "lon": 145.2162249,
            "tags": {
                "amenity": "restaurant",
                "cuisine": "sri_lankan",
                "name": "Mooju"
            }
        },
        {
            "type": "node",
            "id": 533627421,
            "lat": -37.8341668,
            "lon": 144.9816512,
            "tags": {
                "addr:housenumber": "169",
                "addr:street": "Domain Road",
                "amenity": "restaurant",
                "name": "The Botanical",
                "phone": "+61 3 9820 7888",
                "website": "https://www.thebotanical.com.au/"
            }
        },
        {
            "type": "node",
            "id": 533627423,
            "lat": -37.8342833,
            "lon": 144.9823458,
            "tags": {
                "addr:housenumber": "123",
                "addr:street": "Park Street",
                "amenity": "restaurant",
                "cuisine": "thai",
                "name": "The Golden Triangle",
                "phone": "+61 3 9820 3633"
            }
        },
        {
            "type": "node",
            "id": 534016282,
            "lat": -37.8210302,
            "lon": 144.9985229,
            "tags": {
                "addr:housenumber": "316",
                "addr:street": "Church Street",
                "amenity": "restaurant",
                "cuisine": "brazilian",
                "name": "Rio's",
                "phone": "+61 3 9428 9787",
                "website": "http://www.riosmelbourne.com/"
            }
        },
        {
            "type": "node",
            "id": 535183333,
            "lat": -38.0720858,
            "lon": 145.48082,
            "tags": {
                "amenity": "restaurant",
                "name": "Taco Bill"
            }
        },
        {
            "type": "node",
            "id": 536296836,
            "lat": -37.8442389,
            "lon": 144.9887757,
            "tags": {
                "amenity": "restaurant",
                "name": "The Argo"
            }
        },
        {
            "type": "node",
            "id": 541334786,
            "lat": -37.8446368,
            "lon": 144.9993834,
            "tags": {
                "amenity": "theatre",
                "name": "Cromwell Street Theatre"
            }
        },
        {
            "type": "node",
            "id": 545538042,
            "lat": -37.8005148,
            "lon": 144.9636576,
            "tags": {
                "amenity": "restaurant",
                "name": "China Style"
            }
        },
        {
            "type": "node",
            "id": 550880815,
            "lat": -37.8309126,
            "lon": 144.9598544,
            "tags": {
                "addr:housenumber": "209",
                "addr:postcode": "3205",
                "addr:street": "Clarendon Street",
                "amenity": "bar",
                "name": "The Clarendon",
                "website": "https://www.theclarendon.com.au/"
            }
        },
        {
            "type": "node",
            "id": 551387511,
            "lat": -37.5803878,
            "lon": 144.7291015,
            "tags": {
                "amenity": "restaurant",
                "cuisine": "italian",
                "name": "Mystic Pizza"
            }
        },
        {
            "type": "node",
            "id": 560607102,
            "lat": -37.5603216,
            "lon": 143.8578169,
            "tags": {
                "addr:housenumber": "49",
                "addr:street": "Lydiard Street North",
                "amenity": "cinema",
                "contact:facebook": "https://www.facebook.com/regentballarat",
                "contact:instagram": "regentballarat",
                "contact:twitter": "regentballarat",
                "name": "Regent Cinemas",
                "phone": "+61 3 5330 5555",
                "website": "https://www.regentballarat.com.au/",
                "wikidata": "Q47000694"
            }
        },
        {
            "type": "node",
            "id": 560607613,
            "lat": -37.5627248,
            "lon": 143.8578531,
            "tags": {
                "addr:city": "Ballarat",
                "addr:housenumber": "17",
                "addr:postcode": "3350",
                "addr:state": "VIC",
                "addr:street": "Lydiard Street South",
                "amenity": "theatre",
                "name": "Her Majesty's Theatre",
                "website": "https://hermaj.com/",
                "wheelchair": "limited",
                "wikidata": "Q47000692"
            }
        },
        {
            "type": "node",
            "id": 565826511,
            "lat": -38.1975078,
            "lon": 144.316534,
            "tags": {
                "addr:city": "Waurn Ponds",
                "addr:housenumber": "132",
                "addr:postcode": "3216",
                "addr:street": "Colac Road",
                "addr:unit": "Shop 3",
                "amenity": "restaurant",
                "cuisine": "indian",
                "name": "Deccan Indian Kitchen",
                "phone": "+61 3 5241 6900"
            }
        },
        {
            "type": "node",
            "id": 565826521,
            "lat": -38.197381,
            "lon": 144.316418,
            "tags": {
                "addr:city": "Waurn Ponds",
                "addr:housenumber": "132",
                "addr:postcode": "3216",
                "addr:street": "Colac Road",
                "addr:unit": "Shop 1",
                "amenity": "restaurant",
                "cuisine": "chinese",
                "drive_through": "no",
                "name": "qilin hot pot \u706b\u9505\u5e97",
                "phone": "+61 3 4227 1545"
            }
        },
        {
            "type": "node",
            "id": 566508826,
            "lat": -37.834451,
            "lon": 144.963597,
            "tags": {
                "addr:housenumber": "190",
                "addr:street": "Park Street",
                "amenity": "restaurant",
                "cuisine": "japanese",
                "name": "Kuu Cafe + Japanese Kitchen",
                "opening_hours": "Mo-Fr 11:30-14:30",
                "outdoor_seating": "no",
                "phone": "+61 3 9699 4574",
                "smoking": "no",
                "takeaway": "yes"
            }
        },
        {
            "type": "node",
            "id": 566872408,
            "lat": -37.8432511,
            "lon": 144.9466689,
            "tags": {
                "amenity": "theatre",
                "name": "Gasworks Theatre"
            }
        },
        {
            "type": "node",
            "id": 568977569,
            "lat": -38.1993794,
            "lon": 144.3168299,
            "tags": {
                "addr:housenumber": "Shop 406",
                "addr:street": "Waurn Ponds Shopping Centre",
                "amenity": "restaurant",
                "cuisine": "pizza;pasta",
                "name": "Town & Country Pizza & Pasta",
                "phone": "+61 3 5244 3955"
            }
        },
        {
            "type": "node",
            "id": 570482521,
            "lat": -37.8479868,
            "lon": 145.0036656,
            "tags": {
                "amenity": "restaurant",
                "name": "Bistro Thierry"
            }
        },
        {
            "type": "node",
            "id": 570698950,
            "lat": -37.8590039,
            "lon": 144.9772792,
            "tags": {
                "addr:housenumber": "60a",
                "addr:street": "Fitzroy Street",
                "amenity": "restaurant",
                "name": "Pizza e Birra;Stop 132: St Kilda Station",
                "network": "PTV - Metropolitan Trams",
                "network:wikidata": "Q7257648",
                "operator": "Keolis Downer",
                "operator:wikidata": "Q6328065",
                "public_transport": "stop_position",
                "railway": "tram_stop",
                "ref": "132",
                "tram": "yes",
                "wikidata": "Q7593919",
                "wikipedia": "en:St Kilda railway station"
            }
        },
        {
            "type": "node",
            "id": 571104504,
            "lat": -37.8741655,
            "lon": 144.9764133,
            "tags": {
                "amenity": "restaurant",
                "name": "St. Marina",
                "website": "https://www.stmarina.com.au/"
            }
        },
        {
            "type": "node",
            "id": 571104584,
            "lat": -37.8754199,
            "lon": 144.9750296,
            "tags": {
                "amenity": "restaurant",
                "name": "Riva",
                "website": "www.rivastkilda.com.au"
            }
        },
        {
            "type": "node",
            "id": 571324809,
            "lat": -37.867644,
            "lon": 144.9743042,
            "tags": {
                "amenity": "restaurant",
                "name": "The Stokehouse",
                "website": "https://stokehouse.com.au/"
            }
        },
        {
            "type": "node",
            "id": 571429856,
            "lat": -37.8599162,
            "lon": 144.9766543,
            "tags": {
                "addr:housenumber": "52",
                "addr:street": "Fitzroy Street",
                "amenity": "restaurant",
                "name": "United Kitchen",
                "opening_hours": "07:00-19:00",
                "phone": "+61 3 8598 9555",
                "website": "https://www.cacao.com.au/"
            }
        },
        {
            "type": "node",
            "id": 571786303,
            "lat": -37.8621794,
            "lon": 144.9739677,
            "tags": {
                "amenity": "restaurant",
                "name": "ASC",
                "shop": "alcohol",
                "source:name": "survey",
                "source:shop": "survey"
            }
        },
        {
            "type": "node",
            "id": 571786314,
            "lat": -37.8625012,
            "lon": 144.974299,
            "tags": {
                "amenity": "restaurant",
                "name": "Malaysian Hawker Bar"
            }
        },
        {
            "type": "node",
            "id": 572835358,
            "lat": -37.7985086,
            "lon": 144.9789458,
            "tags": {
                "addr:housenumber": "120",
                "addr:street": "Johnston Street",
                "amenity": "bar",
                "name": "George's Bar",
                "phone": "+61 3 9416 4385",
                "website": "https://www.georgesbar.com.au",
                "wheelchair": "no"
            }
        },
        {
            "type": "node",
            "id": 572849502,
            "lat": -37.800459,
            "lon": 144.977913,
            "tags": {
                "addr:city": "Fitzroy",
                "addr:housenumber": "231",
                "addr:postcode": "3065",
                "addr:street": "Brunswick Street",
                "amenity": "restaurant",
                "cuisine": "french",
                "name": "Madame SouSou",
                "name:ko": "\ub9c8\ub2f4\uc3d8\uc3d8 \ud2f0\ubcf8\uc2a4\ud14c\uc774\ud06c",
                "phone": "+61 3 9417 0400",
                "wheelchair": "limited"
            }
        },
        {
            "type": "node",
            "id": 573023460,
            "lat": -37.801146,
            "lon": 144.974592,
            "tags": {
                "addr:housenumber": "144",
                "addr:street": "Nicholson Street",
                "amenity": "restaurant",
                "cuisine": "french",
                "name": "Mon Ami Paris Grill",
                "opening_hours": "Tu-Sa 17:00-22:00",
                "outdoor_seating": "yes",
                "phone": "+61 3 9417 3220",
                "website": "https://www.monamirestaurant.com.au/"
            }
        },
        {
            "type": "node",
            "id": 573779773,
            "lat": -37.7968516,
            "lon": 144.9785347,
            "tags": {
                "addr:city": "Fitzroy",
                "addr:housenumber": "347",
                "addr:postcode": "3065",
                "addr:street": "Brunswick Street",
                "amenity": "bar",
                "name": "Damask Bar",
                "opening_hours": "Fr-Sa 17:00-01:00, Su 17:00-24:00",
                "phone": "+61 3 9417 4578",
                "website": "http://www.damaskbar.com.au"
            }
        },
        {
            "type": "node",
            "id": 575417952,
            "lat": -37.8330238,
            "lon": 144.969881,
            "tags": {
                "addr:housenumber": "19",
                "addr:postcode": "3205",
                "addr:state": "VIC",
                "addr:street": "Park Street",
                "addr:suburb": "South Melbourne",
                "amenity": "restaurant",
                "cuisine": "italian",
                "name": "The Olive Tree Bistro",
                "outdoor_seating": "no",
                "phone": "+61 3 9699 9152",
                "smoking": "no",
                "website": "https://theolivetree.com.au/"
            }
        },
        {
            "type": "node",
            "id": 575675813,
            "lat": -37.8647259,
            "lon": 144.9655744,
            "tags": {
                "amenity": "restaurant",
                "name": "Little Blue restaurant",
                "name:en": "Little Blue restaurant"
            }
        },
        {
            "type": "node",
            "id": 577449602,
            "lat": -37.839629,
            "lon": 144.996116,
            "tags": {
                "addr:housenumber": "264-266",
                "addr:street": "Toorak Road",
                "amenity": "restaurant",
                "cuisine": "japanese",
                "name": "Kagu Ra Zaka",
                "phone": "+61 3 9827 2608",
                "wheelchair": "limited"
            }
        },
        {
            "type": "node",
            "id": 577449989,
            "lat": -37.839663,
            "lon": 144.996381,
            "tags": {
                "addr:city": "South Yarra",
                "addr:housenumber": "268",
                "addr:postcode": "3141",
                "addr:street": "Toorak Road",
                "amenity": "restaurant",
                "name": "A La Bouffe Bar and Bistro",
                "phone": "+61 3 9077 2856",
                "website": "http://alabouffe.com.au/",
                "wheelchair": "no"
            }
        },
        {
            "type": "node",
            "id": 577451075,
            "lat": -37.8382457,
            "lon": 144.9869545,
            "tags": {
                "addr:city": "South Yarra",
                "addr:housenumber": "11-13",
                "addr:postcode": "3141",
                "addr:street": "Toorak Road",
                "amenity": "restaurant",
                "cuisine": "french",
                "name": "France-Soir"
            }
        },
        {
            "type": "node",
            "id": 577493240,
            "lat": -37.8655585,
            "lon": 144.9720338,
            "tags": {
                "amenity": "restaurant",
                "email": "info@republica.net.au",
                "name": "Republica",
                "phone": "+61 3 8598 9055",
                "website": "https://republica.net.au/"
            }
        },
        {
            "type": "node",
            "id": 577493638,
            "lat": -37.8685652,
            "lon": 144.9750841,
            "tags": {
                "amenity": "restaurant",
                "name": "Donovans",
                "website": "http://www.donovanshouse.com.au/"
            }
        },
        {
            "type": "node",
            "id": 577498558,
            "lat": -37.8626802,
            "lon": 144.9729231,
            "tags": {
                "amenity": "restaurant",
                "name": "One Fitzroy Street"
            }
        },
        {
            "type": "node",
            "id": 578813477,
            "lat": -37.830502,
            "lon": 144.969977,
            "tags": {
                "addr:housenumber": "19",
                "addr:street": "Dorcas Street",
                "amenity": "restaurant",
                "cuisine": "japanese",
                "internet_access": "wlan",
                "name": "August Restaurant",
                "outdoor_seating": "yes",
                "phone": "+61 3 9690 3050",
                "takeaway": "yes"
            }
        },
        {
            "type": "node",
            "id": 578831855,
            "lat": -37.8313658,
            "lon": 144.9710043,
            "tags": {
                "amenity": "restaurant",
                "cuisine": "sushi",
                "delivery": "yes",
                "internet_access": "wlan",
                "name": "Sushi Genzo",
                "opening_hours": "Mo-Sa 10:00-16:00",
                "outdoor_seating": "yes",
                "takeaway": "yes",
                "wheelchair": "yes"
            }
        },
        {
            "type": "node",
            "id": 578895437,
            "lat": -37.832148,
            "lon": 144.969752,
            "tags": {
                "addr:city": "South Melbourne",
                "addr:housenumber": "196",
                "addr:postcode": "3205",
                "addr:state": "VIC",
                "addr:street": "Wells Street",
                "addr:suburb": "South Melbourne",
                "amenity": "restaurant",
                "cuisine": "indonesian",
                "delivery": "yes",
                "name": "Kedai Satay",
                "opening_hours": "Mo-Fr 11:00-20:30",
                "outdoor_seating": "yes",
                "phone": "+61 3 7015 9153",
                "smoking": "no",
                "takeaway": "yes"
            }
        },
        {
            "type": "node",
            "id": 578895454,
            "lat": -37.831928,
            "lon": 144.969691,
            "tags": {
                "addr:city": "South Melbourne",
                "addr:housenumber": "190",
                "addr:postcode": "3205",
                "addr:street": "Wells Street",
                "amenity": "restaurant",
                "cuisine": "taiwanese",
                "name": "Peko Peko",
                "outdoor_seating": "yes",
                "takeaway": "yes",
                "wheelchair": "no"
            }
        },
        {
            "type": "node",
            "id": 578895459,
            "lat": -37.831831,
            "lon": 144.969664,
            "tags": {
                "addr:city": "South Melbourne",
                "addr:housenumber": "1",
                "addr:postcode": "3205",
                "addr:state": "VIC",
                "addr:street": "Bank Street",
                "addr:suburb": "South Melbourne",
                "amenity": "restaurant",
                "cuisine": "korean",
                "name": "Gamasot K BBQ",
                "outdoor_seating": "yes",
                "phone": "+61 493 503 238",
                "takeaway": "yes",
                "wheelchair": "yes"
            }
        },
        {
            "type": "node",
            "id": 580269524,
            "lat": -37.835125,
            "lon": 144.975373,
            "tags": {
                "addr:city": "Melbourne",
                "addr:housenumber": "379",
                "addr:postcode": "3004",
                "addr:street": "St Kilda Road",
                "amenity": "bar",
                "food": "yes",
                "name": "The Amberoom"
            }
        },
        {
            "type": "node",
            "id": 580269528,
            "lat": -37.8352395,
            "lon": 144.9754723,
            "tags": {
                "amenity": "restaurant",
                "name": "dish"
            }
        },
        {
            "type": "node",
            "id": 580629187,
            "lat": -37.8642745,
            "lon": 144.9822662,
            "tags": {
                "amenity": "restaurant",
                "name": "Mr Wolf"
            }
        },
        {
            "type": "node",
            "id": 580716626,
            "lat": -37.8024384,
            "lon": 144.9775568,
            "tags": {
                "addr:housenumber": "171-173",
                "addr:street": "Brunswick Street",
                "amenity": "restaurant",
                "cuisine": "italian",
                "delivery": "yes",
                "name": "Umago",
                "opening_hours": "Su-Th 11:00-22:30; Fr-Sa 11:00-23:30",
                "outdoor_seating": "yes",
                "phone": "+61 3 9417 4664",
                "smoking": "outside",
                "takeaway": "yes",
                "website": "https://umago.com.au/",
                "wheelchair": "no"
            }
        },
        {
            "type": "node",
            "id": 580720129,
            "lat": -37.802243,
            "lon": 144.977606,
            "tags": {
                "addr:city": "Fitzroy",
                "addr:housenumber": "175",
                "addr:postcode": "3065",
                "addr:street": "Brunswick Street",
                "amenity": "restaurant",
                "contact:instagram": "https://www.instagram.com/smithanddaughters/",
                "contact:website": "https://www.smithanddaughters.com",
                "diet:vegan": "only",
                "name": "Smith & Daughters"
            }
        },
        {
            "type": "node",
            "id": 582304781,
            "lat": -37.7887273,
            "lon": 144.997757,
            "tags": {
                "addr:city": "Clifton Hill",
                "addr:housenumber": "43",
                "addr:postcode": "3068",
                "addr:street": "Spensley Street",
                "amenity": "restaurant",
                "cuisine": "wine",
                "diet:vegetarian": "yes",
                "name": "Spensley\u2019s",
                "outdoor_seating": "yes",
                "website": "https://www.spensleys.com.au/"
            }
        },
        {
            "type": "node",
            "id": 582740754,
            "lat": -39.0309926,
            "lon": 146.3199072,
            "tags": {
                "amenity": "cinema"
            }
        },
        {
            "type": "node",
            "id": 582776020,
            "lat": -37.8345441,
            "lon": 144.9693405,
            "tags": {
                "addr:housenumber": "322",
                "addr:street": "Kings Way",
                "amenity": "restaurant",
                "cuisine": "chinese",
                "delivery": "yes",
                "name": "Long Dragon Dumpling House",
                "phone": "+61 3 9686 8988"
            }
        },
        {
            "type": "node",
            "id": 582845252,
            "lat": -37.7992342,
            "lon": 144.9781506,
            "tags": {
                "addr:housenumber": "273",
                "addr:street": "Brunswick Street",
                "amenity": "restaurant",
                "check_date": "2022-07-20",
                "cuisine": "japanese;chinese",
                "level": "0",
                "name": "Sushi Link",
                "phone": "+61 3 8415 0188"
            }
        },
        {
            "type": "node",
            "id": 583067218,
            "lat": -37.8917007,
            "lon": 145.1427291,
            "tags": {
                "amenity": "cinema",
                "name": "showbiz cinemas",
                "toilets": "yes",
                "toilets:access": "customers",
                "website": "http://www.waverleycinema.com/",
                "wikidata": "Q47001056"
            }
        },
        {
            "type": "node",
            "id": 583067220,
            "lat": -37.893465,
            "lon": 145.1439503,
            "tags": {
                "amenity": "restaurant",
                "name": "Clancy's Restaurant",
                "operator": "Hotel Bruce County",
                "phone": "+61 3 8805 8400",
                "website": "https://clancysrestaurant.com.au/"
            }
        },
        {
            "type": "node",
            "id": 583076142,
            "lat": -37.8326346,
            "lon": 144.9602239,
            "tags": {
                "addr:housenumber": "270-272",
                "addr:street": "Clarendon Street",
                "amenity": "restaurant",
                "brand": "Nando's",
                "brand:wikidata": "Q3472954",
                "brand:wikipedia": "en:Nando's",
                "cuisine": "chicken;portuguese",
                "name": "Nando's",
                "website": "https://www.nandos.com.au/"
            }
        },
        {
            "type": "node",
            "id": 584384873,
            "lat": -37.8344156,
            "lon": 144.9610011,
            "tags": {
                "addr:housenumber": "332-334",
                "addr:street": "Clarendon Street",
                "amenity": "restaurant",
                "name": "Wood 'n Chimney"
            }
        },
        {
            "type": "node",
            "id": 585344628,
            "lat": -37.814989,
            "lon": 144.965733,
            "tags": {
                "amenity": "theatre",
                "name": "RMIT Capitol Theatre",
                "operator": "RMIT University"
            }
        },
        {
            "type": "node",
            "id": 585711348,
            "lat": -37.9474012,
            "lon": 145.0803989,
            "tags": {
                "addr:housenumber": "6 - 14",
                "addr:street": "Arco Lane",
                "amenity": "restaurant",
                "name": "Arco Cafe / Restaurant",
                "website": "https://www.arcorestaurant.com.au/"
            }
        },
        {
            "type": "node",
            "id": 587753799,
            "lat": -37.8637536,
            "lon": 144.9810828,
            "tags": {
                "amenity": "restaurant",
                "cuisine": "Middle-eastern",
                "name": "Bedouin Kitchen",
                "source": "survey"
            }
        },
        {
            "type": "node",
            "id": 588149767,
            "lat": -37.770361,
            "lon": 144.905088,
            "tags": {
                "amenity": "restaurant",
                "cuisine": "indian",
                "name": "Indian Star"
            }
        },
        {
            "type": "node",
            "id": 588367445,
            "lat": -37.798329,
            "lon": 144.977002,
            "tags": {
                "addr:housenumber": "72",
                "addr:street": "Johnston Street",
                "amenity": "restaurant",
                "cuisine": "spanish",
                "name": "Colmao Flamenco",
                "phone": "+61 3 9417 4131",
                "website": "http://www.colmaoflamenco.com/"
            }
        },
        {
            "type": "node",
            "id": 588369503,
            "lat": -37.798217,
            "lon": 144.975971,
            "tags": {
                "addr:housenumber": "34",
                "addr:street": "Johnston Street",
                "amenity": "restaurant",
                "cuisine": "mexican",
                "name": "Los Amates",
                "phone": "+61 3 9417 0441",
                "website": "http://www.losamates.com.au"
            }
        },
        {
            "type": "node",
            "id": 588371530,
            "lat": -37.79824,
            "lon": 144.976186,
            "tags": {
                "addr:city": "Fitzroy",
                "addr:housenumber": "42",
                "addr:postcode": "3065",
                "addr:street": "Johnston Street",
                "amenity": "bar",
                "name": "Vice",
                "phone": "+61 3 9415 8088"
            }
        },
        {
            "type": "node",
            "id": 588372181,
            "lat": -37.7982439,
            "lon": 144.976241,
            "tags": {
                "addr:housenumber": "44",
                "addr:street": "Johnston Street",
                "amenity": "restaurant",
                "cuisine": "indian",
                "delivery": "yes",
                "name": "Fitz Curry Cafe",
                "phone": "+61 3 9465 6119",
                "takeaway": "yes"
            }
        },
        {
            "type": "node",
            "id": 588402315,
            "lat": -37.798246,
            "lon": 144.9762881,
            "tags": {
                "addr:city": "Fitzroy",
                "addr:housenumber": "46",
                "addr:postcode": "3065",
                "addr:street": "Johnston Street",
                "amenity": "bar",
                "cuisine": "spanish",
                "name": "La Sangria",
                "phone": "+61 3 9419 8503",
                "website": "http://www.lasangriabar.com/"
            }
        },
        {
            "type": "node",
            "id": 588402317,
            "lat": -37.798262,
            "lon": 144.976572,
            "tags": {
                "addr:city": "Fitzroy",
                "addr:housenumber": "58",
                "addr:postcode": "3065",
                "addr:street": "Johnston Street",
                "amenity": "restaurant",
                "cuisine": "vietnamese",
                "delivery": "yes",
                "name": "Cafe 58",
                "phone": "+61 3 9417 7455",
                "takeaway": "yes"
            }
        },
        {
            "type": "node",
            "id": 589175911,
            "lat": -37.811183,
            "lon": 144.972166,
            "tags": {
                "addr:city": "Melbourne",
                "addr:housenumber": "20-30",
                "addr:postcode": "3000",
                "addr:street": "Bourke Street",
                "amenity": "theatre",
                "fax": "+61 3 9650 3225",
                "name": "Palace Theatre",
                "phone": "+61 3 9650 0180",
                "website": "http://www.palace.com.au/",
                "wikidata": "Q7126198"
            }
        },
        {
            "type": "node",
            "id": 589559267,
            "lat": -37.877538,
            "lon": 145.12917,
            "tags": {
                "addr:housenumber": "4",
                "addr:street": "The Highway",
                "amenity": "restaurant",
                "cuisine": "japanese",
                "name": "Nuts-Chan",
                "opening_hours": "Mo-Sa 11:30-15:00,17:00-21:00",
                "phone": "+61 3 9830 8015",
                "takeaway": "yes"
            }
        },
        {
            "type": "node",
            "id": 591284647,
            "lat": -37.8231279,
            "lon": 144.9575576,
            "tags": {
                "addr:housenumber": "8",
                "addr:postcode": "3205",
                "addr:street": "Whiteman Street",
                "amenity": "restaurant",
                "cuisine": "chinese",
                "name": "Lucky Chan",
                "toilets:wheelchair": "yes",
                "website": "http://www.crowncasino.com.au/lucky-chan",
                "wheelchair": "yes"
            }
        },
        {
            "type": "node",
            "id": 591372262,
            "lat": -37.8175372,
            "lon": 144.9665144,
            "tags": {
                "addr:city": "Melbourne",
                "addr:housenumber": "238",
                "addr:postcode": "3000",
                "addr:street": "Flinders Street",
                "addr:unit": "2",
                "amenity": "restaurant",
                "cuisine": "indian",
                "name": "Flora",
                "wheelchair": "yes"
            }
        },
        {
            "type": "node",
            "id": 591428652,
            "lat": -37.8757632,
            "lon": 145.12759,
            "tags": {
                "addr:street": "Hamilton Place",
                "amenity": "restaurant",
                "building": "yes",
                "cuisine": "chinese",
                "description": "Seafood BBQ Chinese Resaurant",
                "name": "Golden Ocean",
                "phone": "+61 3 9807 0555",
                "takeaway": "yes"
            }
        },
        {
            "type": "node",
            "id": 592841898,
            "lat": -37.816038,
            "lon": 144.96938,
            "tags": {
                "amenity": "bar",
                "name": "Ondergronds Bar",
                "phone": "+61 3 9650 3708",
                "website": "http://www.ondergronds.com.au/"
            }
        },
        {
            "type": "node",
            "id": 593990782,
            "lat": -37.8156596,
            "lon": 144.9692274,
            "tags": {
                "addr:city": "Melbourne",
                "addr:housenumber": "150",
                "addr:postcode": "3000",
                "addr:street": "Flinders Lane",
                "amenity": "bar",
                "name": "Yak Bar and Food",
                "source": "survey"
            }
        },
        {
            "type": "node",
            "id": 594773184,
            "lat": -37.8124553,
            "lon": 144.9657759,
            "tags": {
                "amenity": "restaurant",
                "cuisine": "korean",
                "name": "Dae Jang Geum"
            }
        },
        {
            "type": "node",
            "id": 594777050,
            "lat": -37.8123759,
            "lon": 144.9661687,
            "tags": {
                "addr:city": "Melbourne",
                "addr:housenumber": "209",
                "addr:postcode": "3000",
                "addr:street": "Little Bourke Street",
                "amenity": "restaurant",
                "cuisine": "chinese",
                "name": "Spicy Fish Restaurant"
            }
        },
        {
            "type": "node",
            "id": 594798517,
            "lat": -37.812254,
            "lon": 144.9666308,
            "tags": {
                "addr:housenumber": "203",
                "addr:postcode": "3000",
                "addr:street": "Little Bourke Street",
                "amenity": "restaurant",
                "cuisine": "chinese",
                "name": "Dragon Boat Restaurant",
                "website": "http://www.dragonboat.com.au/"
            }
        },
        {
            "type": "node",
            "id": 594819685,
            "lat": -37.8123424,
            "lon": 144.9672583,
            "tags": {
                "addr:city": "Melbourne",
                "addr:housenumber": "200",
                "addr:postcode": "3000",
                "addr:street": "Bourke Street",
                "amenity": "cinema",
                "name": "Chinatown Cinema",
                "website": "https://www.heroic-cinema.com/chinatown/"
            }
        },
        {
            "type": "node",
            "id": 595572866,
            "lat": -37.1452594,
            "lon": 142.521999,
            "tags": {
                "amenity": "restaurant",
                "cuisine": "indian",
                "name": "Spirit Of Punjab"
            }
        },
        {
            "type": "node",
            "id": 595590572,
            "lat": -37.6489108,
            "lon": 142.3402089,
            "tags": {
                "amenity": "restaurant",
                "name": "Royal Mail Hotel"
            }
        },
        {
            "type": "node",
            "id": 595590573,
            "lat": -37.6493547,
            "lon": 142.3398927,
            "tags": {
                "addr:city": "Dunkeld",
                "addr:country": "AU",
                "addr:housenumber": "109",
                "addr:postcode": "3294",
                "addr:street": "Parker Street",
                "amenity": "restaurant",
                "name": "Sturgeon View"
            }
        },
        {
            "type": "node",
            "id": 595789347,
            "lat": -37.810374,
            "lon": 144.9693613,
            "tags": {
                "addr:housenumber": "250",
                "addr:postcode": "3000",
                "addr:street": "Elizabeth Street",
                "amenity": "restaurant",
                "building": "retail",
                "name": "Curry Bowl"
            }
        },
        {
            "type": "node",
            "id": 595868477,
            "lat": -37.8123538,
            "lon": 145.2302551,
            "tags": {
                "addr:housenumber": "171-175",
                "addr:postcode": "3134",
                "addr:state": "VIC",
                "addr:street": "Maroondah Highway",
                "addr:suburb": "Ringwood",
                "addr:unit": "Level 3",
                "amenity": "cinema",
                "brand": "Hoyts",
                "brand:wikidata": "Q5922976",
                "brand:wikipedia": "en:Hoyts",
                "layer": "2",
                "name": "Hoyts",
                "website": "https://www.hoyts.com.au/",
                "wikidata": "Q47001120"
            }
        },
        {
            "type": "node",
            "id": 597178567,
            "lat": -38.3881095,
            "lon": 142.2401258,
            "tags": {
                "amenity": "restaurant",
                "name": "Merrijig Inn",
                "wheelchair": "no",
                "wikidata": "Q56501485"
            }
        },
        {
            "type": "node",
            "id": 597178612,
            "lat": -38.3878722,
            "lon": 142.2408919,
            "tags": {
                "amenity": "restaurant",
                "cuisine": "seafood",
                "name": "The Wharf Commons",
                "opening_hours": "Mo-Tu,Fr-Su 10:00-20:00",
                "outdoor_seating": "yes",
                "takeaway": "yes",
                "wheelchair": "yes"
            }
        },
        {
            "type": "node",
            "id": 597205870,
            "lat": -38.3856907,
            "lon": 142.2364619,
            "tags": {
                "amenity": "restaurant",
                "name": "The Stag",
                "wheelchair": "no"
            }
        },
        {
            "type": "node",
            "id": 597205876,
            "lat": -38.3840894,
            "lon": 142.2367435,
            "tags": {
                "amenity": "restaurant",
                "cuisine": "chinese",
                "name": "Four Seasons Chinese Restaurant"
            }
        },
        {
            "type": "node",
            "id": 597205880,
            "lat": -38.3847264,
            "lon": 142.2370414,
            "tags": {
                "addr:housenumber": "43",
                "addr:street": "Sackville Street",
                "amenity": "restaurant",
                "cuisine": "mexican",
                "name": "West Beach Cantina",
                "opening_hours": "Mo, Fr-Su 11:00-20:00"
            }
        },
        {
            "type": "node",
            "id": 597592130,
            "lat": -37.800766,
            "lon": 144.977878,
            "tags": {
                "addr:housenumber": "223",
                "addr:street": "Brunswick Street",
                "alt_name": "Red Chilli",
                "amenity": "restaurant",
                "cuisine": "thai",
                "delivery": "yes",
                "name": "Ziamese",
                "phone": "+61 3 9419 2095",
                "takeaway": "yes"
            }
        },
        {
            "type": "node",
            "id": 597597456,
            "lat": -37.801195,
            "lon": 144.9840011,
            "tags": {
                "addr:housenumber": "270",
                "addr:street": "Smith Street",
                "amenity": "restaurant",
                "cuisine": "korean",
                "name": "Goon Korean BBQ",
                "phone": "+61 3 9417 1882",
                "takeaway": "yes",
                "website": "https://www.goonbbq.com"
            }
        },
        {
            "type": "node",
            "id": 597923767,
            "lat": -37.811867,
            "lon": 144.969217,
            "tags": {
                "addr:housenumber": "17",
                "addr:street": "Market Lane",
                "amenity": "restaurant",
                "building": "retail",
                "cuisine": "chinese",
                "name": "Flower Drum",
                "phone": "+61 3 9662 3655",
                "website": "http://www.flower-drum.com/"
            }
        },
        {
            "type": "node",
            "id": 598035322,
            "lat": -37.8144174,
            "lon": 144.9668304,
            "tags": {
                "addr:housenumber": "215",
                "addr:postcode": "3000",
                "addr:street": "Little Collins Street",
                "amenity": "restaurant",
                "building": "retail",
                "level": "0",
                "name": "Mister Munro",
                "wheelchair": "yes"
            }
        },
        {
            "type": "node",
            "id": 598049995,
            "lat": -37.8147584,
            "lon": 144.9678809,
            "tags": {
                "addr:housenumber": "162",
                "addr:postcode": "3000",
                "addr:street": "Collins Street",
                "amenity": "bar",
                "name": "The Longroom",
                "website": "http://www.thelongroom.com.au"
            }
        },
        {
            "type": "node",
            "id": 598056712,
            "lat": -37.812003,
            "lon": 144.970078,
            "tags": {
                "addr:city": "Melbourne",
                "addr:housenumber": "98",
                "addr:postcode": "3000",
                "addr:street": "Bourke Street",
                "amenity": "restaurant",
                "cuisine": "indian",
                "internet_access": "wlan",
                "name": "Jaisalmer Palace"
            }
        },
        {
            "type": "node",
            "id": 598108466,
            "lat": -37.799138,
            "lon": 144.969991,
            "tags": {
                "addr:housenumber": "323",
                "addr:street": "Rathdowne Street",
                "amenity": "restaurant",
                "cuisine": "chinese",
                "name": "East Imperial Chinese Restaurant",
                "opening_hours": "Tu-Su 12:00-15:00,18:00+",
                "phone": "+61 3 9347 3322",
                "website": "https://www.eastimperial.com.au/"
            }
        },
        {
            "type": "node",
            "id": 598115614,
            "lat": -37.79754,
            "lon": 144.9672651,
            "tags": {
                "addr:housenumber": "333-335",
                "addr:street": "Lygon Street",
                "amenity": "restaurant",
                "name": "Jimmy Watson's"
            }
        },
        {
            "type": "node",
            "id": 598134087,
            "lat": -37.7993081,
            "lon": 144.9676983,
            "tags": {
                "amenity": "restaurant",
                "cuisine": "italian",
                "name": "Cafe Italia"
            }
        },
        {
            "type": "node",
            "id": 598377897,
            "lat": -37.813,
            "lon": 144.968423,
            "tags": {
                "addr:housenumber": "142",
                "addr:street": "Russell Street",
                "amenity": "restaurant",
                "building": "retail",
                "cuisine": "mexican",
                "name": "Taco Bill",
                "phone": "+61 3 9654 3369",
                "website": "https://www.tacobill.com.au/"
            }
        },
        {
            "type": "node",
            "id": 598377898,
            "lat": -37.813054,
            "lon": 144.968449,
            "tags": {
                "addr:housenumber": "138",
                "addr:street": "Russell Street",
                "amenity": "restaurant",
                "building": "retail",
                "cuisine": "japanese",
                "name": "Edoya",
                "opening_hours": "Mo-Su 11:30-23:00",
                "phone": "+61 3 9654 7358"
            }
        },
        {
            "type": "node",
            "id": 598431062,
            "lat": -37.8161679,
            "lon": 145.0367493,
            "tags": {
                "amenity": "restaurant",
                "brand": "Nando's",
                "brand:wikidata": "Q3472954",
                "brand:wikipedia": "en:Nando's",
                "cuisine": "chicken;portuguese",
                "name": "Nando's"
            }
        },
        {
            "type": "node",
            "id": 598434336,
            "lat": -37.8132863,
            "lon": 145.0236573,
            "tags": {
                "amenity": "restaurant",
                "name": "Barkers"
            }
        },
        {
            "type": "node",
            "id": 599175043,
            "lat": -37.79954,
            "lon": 144.978091,
            "tags": {
                "addr:city": "Fitzroy",
                "addr:housenumber": "263",
                "addr:postcode": "3065",
                "addr:street": "Brunswick Street",
                "amenity": "restaurant",
                "check_date": "2022-07-20",
                "cuisine": "thai",
                "level": "0",
                "name": "Madam Saigon",
                "takeaway": "yes"
            }
        },
        {
            "type": "node",
            "id": 599176995,
            "lat": -37.796409,
            "lon": 144.978609,
            "tags": {
                "addr:housenumber": "363",
                "addr:postcode": "3065",
                "addr:state": "VIC",
                "addr:street": "Brunswick Street",
                "addr:suburb": "Fitzroy",
                "amenity": "restaurant",
                "cuisine": "vietnamese",
                "name": "Viet Rose",
                "phone": "+61 3 9417 7415"
            }
        },
        {
            "type": "node",
            "id": 599177117,
            "lat": -37.796035,
            "lon": 144.978659,
            "tags": {
                "addr:housenumber": "371",
                "addr:street": "Brunswick Street",
                "amenity": "restaurant",
                "cuisine": "thai",
                "name": "Patee Thai"
            }
        },
        {
            "type": "node",
            "id": 600245644,
            "lat": -37.7995405,
            "lon": 144.9784568,
            "tags": {
                "addr:city": "Fitzroy",
                "addr:housenumber": "262",
                "addr:postcode": "3065",
                "addr:street": "Brunswick Street",
                "amenity": "restaurant",
                "cuisine": "chinese",
                "name": "Rize BBQ Chinese Restaurant",
                "opening_hours": "Mo-Th 11:30-22:30; Fr-Sa 11:00-23:00; Su 11:00-22:30"
            }
        },
        {
            "type": "node",
            "id": 600329018,
            "lat": -37.7981225,
            "lon": 144.978682,
            "tags": {
                "addr:city": "Fitzroy",
                "addr:housenumber": "302",
                "addr:postcode": "3065",
                "addr:street": "Brunswick Street",
                "amenity": "bar",
                "internet_access": "wlan",
                "name": "Baxter's Lot",
                "outdoor_seating": "yes"
            }
        },
        {
            "type": "node",
            "id": 600329019,
            "lat": -37.7980678,
            "lon": 144.9786893,
            "tags": {
                "addr:housenumber": "304",
                "addr:street": "Brunswick Street",
                "amenity": "bar",
                "name": "Black Pearl",
                "opening_hours": "Mo-Su 17:00-03:00",
                "phone": "+61 3 9417 0455",
                "website": "https://www.blackpearlbar.com.au/"
            }
        },
        {
            "type": "node",
            "id": 600598691,
            "lat": -38.2843684,
            "lon": 144.4956262,
            "tags": {
                "addr:street": "Jetty Road",
                "amenity": "restaurant",
                "cuisine": "contemporary",
                "microbrewery": "no",
                "name": "At The Heads",
                "opening_hours": "Mo-Fr 10:00-20:00; Sa-Su 08:00-22:00",
                "phone": "+61 3 5254 1298",
                "source": "nearmap",
                "website": "https://attheheads.com.au/"
            }
        },
        {
            "type": "node",
            "id": 600621364,
            "lat": -38.2813302,
            "lon": 144.4915664,
            "tags": {
                "amenity": "bar",
                "name": "Bakery Bar Lounge"
            }
        },
        {
            "type": "node",
            "id": 600744880,
            "lat": -37.8110551,
            "lon": 144.9670923,
            "tags": {
                "addr:city": "Melbourne",
                "addr:housenumber": "177-183",
                "addr:postcode": "3000",
                "addr:street": "Lonsdale Street",
                "amenity": "restaurant",
                "capacity": "60",
                "cuisine": "greek",
                "diet:vegetarian": "yes",
                "name": "Stalactites",
                "opening_hours": "24/7",
                "website": "http://www.stalactites.com.au/"
            }
        },
        {
            "type": "node",
            "id": 600744881,
            "lat": -37.8117457,
            "lon": 144.965405,
            "tags": {
                "addr:housenumber": "27-29",
                "addr:postcode": "3000",
                "addr:street": "Tattersalls Lane",
                "amenity": "bar",
                "name": "Section 8 Container Bar",
                "name:ko": "\uc139\uc1588 \uc8fc\ucc28\uc7a5 \ub77c\uc6b4\uc9c0",
                "website": "http://www.section8.com.au/"
            }
        },
        {
            "type": "node",
            "id": 600746441,
            "lat": -37.8118709,
            "lon": 144.9661938,
            "tags": {
                "addr:city": "Melbourne",
                "addr:housenumber": "15",
                "addr:postcode": "3000",
                "addr:street": "Celestial Avenue",
                "amenity": "restaurant",
                "cuisine": "chinese;cantonese",
                "name": "Supper Inn",
                "opening_hours": "Mo-Su 17:30-02:30",
                "outdoor_seating": "no",
                "smoking": "no"
            }
        },
        {
            "type": "node",
            "id": 600747172,
            "lat": -37.8112149,
            "lon": 144.9665492,
            "tags": {
                "addr:city": "Melbourne",
                "addr:housenumber": "197",
                "addr:postcode": "3000",
                "addr:street": "Lonsdale Street",
                "amenity": "restaurant",
                "cuisine": "greek",
                "name": "Tsindos Greek Restaurant"
            }
        },
        {
            "type": "node",
            "id": 600747425,
            "lat": -37.8112024,
            "lon": 144.9666038,
            "tags": {
                "addr:city": "Melbourne",
                "addr:housenumber": "195",
                "addr:postcode": "3000",
                "addr:street": "Lonsdale Street",
                "amenity": "restaurant",
                "cuisine": "thai",
                "name": "Kra Ta Ron"
            }
        },
        {
            "type": "node",
            "id": 600747753,
            "lat": -37.8115275,
            "lon": 144.9655203,
            "tags": {
                "addr:city": "Melbourne",
                "addr:housenumber": "233",
                "addr:postcode": "3000",
                "addr:street": "Lonsdale Street",
                "amenity": "restaurant",
                "cuisine": "mexican",
                "name": "Touch\u00e9 Hombre",
                "note": "More of a tequila bar with a great bar food than an actual restaurant.",
                "website": "https://www.touchehombre.com.au/"
            }
        },
        {
            "type": "node",
            "id": 600759717,
            "lat": -37.81114,
            "lon": 144.9671016,
            "tags": {
                "addr:city": "Melbourne",
                "addr:housenumber": "235",
                "addr:postcode": "3000",
                "addr:street": "Russell Street",
                "amenity": "restaurant",
                "cuisine": "chinese",
                "name": "China Bar"
            }
        },
        {
            "type": "node",
            "id": 600777872,
            "lat": -37.8122542,
            "lon": 144.9656641,
            "tags": {
                "addr:housenumber": "242",
                "addr:postcode": "3000",
                "addr:street": "Little Bourke Street",
                "amenity": "bar",
                "name": "Shanghai Club"
            }
        },
        {
            "type": "node",
            "id": 600781691,
            "lat": -37.8122552,
            "lon": 144.9657912,
            "tags": {
                "amenity": "restaurant",
                "cuisine": "japanese",
                "name": "Rice Workshop"
            }
        },
        {
            "type": "node",
            "id": 600781697,
            "lat": -37.8122261,
            "lon": 144.9659098,
            "tags": {
                "amenity": "restaurant",
                "cuisine": "malaysian",
                "name": "Sambal Kampung"
            }
        },
        {
            "type": "node",
            "id": 601410841,
            "lat": -37.8302678,
            "lon": 144.9595331,
            "tags": {
                "addr:housenumber": "191",
                "addr:postcode": "3205",
                "addr:street": "Clarendon Street",
                "amenity": "restaurant",
                "name": "Sushi Chef"
            }
        },
        {
            "type": "node",
            "id": 601754644,
            "lat": -37.8112805,
            "lon": 144.9663097,
            "tags": {
                "addr:city": "Melbourne",
                "addr:housenumber": "205-207",
                "addr:postcode": "3000",
                "addr:street": "Lonsdale Street",
                "amenity": "restaurant",
                "cuisine": "greek",
                "name": "Dion Restaurant and Bar"
            }
        },
        {
            "type": "node",
            "id": 601754759,
            "lat": -37.8113484,
            "lon": 144.9661059,
            "tags": {
                "addr:city": "Melbourne",
                "addr:housenumber": "213",
                "addr:postcode": "3000",
                "addr:street": "Lonsdale Street",
                "amenity": "restaurant",
                "cuisine": "chinese",
                "name": "Pacific BBQ Cafe"
            }
        },
        {
            "type": "node",
            "id": 602480374,
            "lat": -37.7436481,
            "lon": 145.067105,
            "tags": {
                "amenity": "theatre",
                "name": "Heidelberg Theatre Company"
            }
        },
        {
            "type": "node",
            "id": 603998919,
            "lat": -37.8888712,
            "lon": 145.1573487,
            "tags": {
                "amenity": "restaurant",
                "name": "Curry Malinda"
            }
        },
        {
            "type": "node",
            "id": 605209406,
            "lat": -37.9066204,
            "lon": 145.1436067,
            "tags": {
                "amenity": "restaurant",
                "cuisine": "malaysian",
                "name": "Miah's Sambalicious"
            }
        },
        {
            "type": "node",
            "id": 605209407,
            "lat": -37.9066288,
            "lon": 145.1437059,
            "tags": {
                "amenity": "restaurant",
                "cuisine": "indian",
                "name": "Phantom India"
            }
        },
        {
            "type": "node",
            "id": 605209409,
            "lat": -37.9066352,
            "lon": 145.1437891,
            "tags": {
                "amenity": "restaurant",
                "brand": "Nando's",
                "brand:wikidata": "Q3472954",
                "brand:wikipedia": "en:Nando's",
                "cuisine": "chicken;portuguese",
                "name": "Nando's"
            }
        },
        {
            "type": "node",
            "id": 606295708,
            "lat": -37.7783493,
            "lon": 144.9879101,
            "tags": {
                "addr:city": "Fitzroy North",
                "addr:country": "AU",
                "addr:housenumber": "393",
                "addr:postcode": "3068",
                "addr:state": "VIC",
                "addr:street": "St Georges Road",
                "amenity": "restaurant",
                "cuisine": "pizza",
                "name": "La Sera Pizza",
                "website": "https://www.lasera.com.au/"
            }
        },