{
    "version": 0.6,
    "generator": "Overpass API 0.7.62.1 084b4234",
    "osm3s": {
        "timestamp_osm_base": "2024-10-08T11:41:23Z",
        "timestamp_areas_base": "2024-10-08T10:29:11Z",
        "copyright": "The data included in this document is from www.openstreetmap.org. The data is made available under ODbL."
    },
    "elements": [
        {
            "type": "node",
            "id": 89090066,
            "lat": -37.7882544,
            "lon": 145.1578704,
            "tags": {
                "addr:housenumber": "979",
                "addr:street": "Doncaster Road",
                "amenity": "police",
                "name": "Doncaster Police Station",
                "opening_hours": "24/7",
                "phone": "+61 3 8841 3999",
                "postal_code": "3109",
                "wikidata": "Q28927045"
            }
        },
        {
            "type": "node",
            "id": 256218806,
            "lat": -37.8534566,
            "lon": 145.0981599,
            "tags": {
                "addr:housenumber": "25",
                "addr:postcode": "3125",
                "addr:state": "VIC",
                "addr:street": "Highbury Road",
                "addr:suburb": "Burwood",
                "alt_name": "Burwood Fire Station",
                "amenity": "fire_station",
                "name": "Fire Station No. 23",
                "operator": "Fire Rescue Victoria",
                "operator:wikidata": "Q30640483",
                "ref": "23"
            }
        },
        {
            "type": "node",
            "id": 311890554,
            "lat": -37.874021,
            "lon": 145.4053316,
            "tags": {
                "amenity": "fire_station",
                "created_by": "Potlatch 0.10f",
                "name": "Monbulk CFA"
            }
        },
        {
            "type": "node",
            "id": 321890071,
            "lat": -36.8705713,
            "lon": 144.5009584,
            "tags": {
                "amenity": "fire_station",
                "name": "Mosquito Creek CFA"
            }
        },
        {
            "type": "node",
            "id": 330382767,
            "lat": -37.2882485,
            "lon": 142.9321135,
            "tags": {
                "amenity": "fire_station",
                "name": "Ararat Fire Brigade"
            }
        },
        {
            "type": "node",
            "id": 331732994,
            "lat": -37.36917,
            "lon": 142.9384244,
            "tags": {
                "amenity": "fire_station",
                "name": "Former Langi Logan Fire Station",
                "wikidata": "Q28926147"
            }
        },
        {
            "type": "node",
            "id": 332374189,
            "lat": -39.0307032,
            "lon": 146.3215266,
            "tags": {
                "amenity": "police"
            }
        },
        {
            "type": "node",
            "id": 385613819,
            "lat": -37.9648454,
            "lon": 145.0566785,
            "tags": {
                "amenity": "police",
                "name": "Cheltenham Police Station",
                "website": "https://www.police.vic.gov.au/",
                "wikidata": "Q28927024"
            }
        },
        {
            "type": "node",
            "id": 442867546,
            "lat": -37.9114643,
            "lon": 145.3679879,
            "tags": {
                "amenity": "fire_station",
                "name": "Selby CFA"
            }
        },
        {
            "type": "node",
            "id": 448165792,
            "lat": -37.7006241,
            "lon": 145.2855089,
            "tags": {
                "amenity": "fire_station",
                "name": "Christmas Hills South CFA"
            }
        },
        {
            "type": "node",
            "id": 489396393,
            "lat": -38.3798941,
            "lon": 146.2730229,
            "tags": {
                "amenity": "police",
                "name": "Boolarra Police Station",
                "wikidata": "Q28927004"
            }
        },
        {
            "type": "node",
            "id": 489397336,
            "lat": -38.3770685,
            "lon": 146.2761425,
            "tags": {
                "amenity": "fire_station",
                "name": "Boolarra Fire Station",
                "wikidata": "Q28926447"
            }
        },
        {
            "type": "node",
            "id": 553414021,
            "lat": -37.2563015,
            "lon": 145.7975222,
            "tags": {
                "amenity": "fire_station"
            }
        },
        {
            "type": "node",
            "id": 556088781,
            "lat": -38.2652295,
            "lon": 145.5634091,
            "tags": {
                "amenity": "police",
                "name": "Lang Lang"
            }
        },
        {
            "type": "node",
            "id": 587463085,
            "lat": -38.163984,
            "lon": 145.935801,
            "tags": {
                "amenity": "fire_station",
                "name": "Warragul CFA",
                "wikidata": "Q28926779"
            }
        },
        {
            "type": "node",
            "id": 595573010,
            "lat": -37.1366022,
            "lon": 142.5187966,
            "tags": {
                "amenity": "fire_station",
                "name": "Halls Gap CFA"
            }
        },
        {
            "type": "node",
            "id": 595636256,
            "lat": -37.7478172,
            "lon": 142.02598,
            "tags": {
                "amenity": "police",
                "name": "Hamilton Police Station",
                "wikidata": "Q28926893"
            }
        },
        {
            "type": "node",
            "id": 595868775,
            "lat": -37.6015426,
            "lon": 141.6930054,
            "tags": {
                "amenity": "fire_station",
                "name": "Coleraine CFA",
                "operator": "Country Fire Authority",
                "operator:wikidata": "Q13632973"
            }
        },
        {
            "type": "node",
            "id": 597124579,
            "lat": -37.6839091,
            "lon": 143.3612171,
            "tags": {
                "amenity": "police",
                "name": "Skipton Police Station",
                "website": "https://www.police.vic.gov.au/",
                "wikidata": "Q28926952"
            }
        },
        {
            "type": "node",
            "id": 597124620,
            "lat": -37.9901765,
            "lon": 145.2171922,
            "tags": {
                "addr:city": "Dandenong",
                "addr:housenumber": "50",
                "addr:postcode": "3175",
                "addr:street": "Langhorne Street",
                "amenity": "police",
                "building": "yes",
                "fax": "+61 3 9767 7419",
                "name": "Dandenong Police Station",
                "note": "24 hours police station",
                "operator": "Victoria Police",
                "operator:wikidata": "Q1406658",
                "phone": "+61 3 9767 7444",
                "source": "https://www.police.vic.gov.au/content.asp?Document_ID=598",
                "website": "https://www.police.vic.gov.au/content.asp?Document_ID=598",
                "wheelchair": "yes",
                "wikidata": "Q28927041"
            }
        },
        {
            "type": "node",
            "id": 597124646,
            "lat": -37.6514371,
            "lon": 143.8845924,
            "tags": {
                "amenity": "police",
                "designation": "Police Station",
                "name": "Buninyong Police Station",
                "wikidata": "Q28926867"
            }
        },
        {
            "type": "node",
            "id": 597124783,
            "lat": -37.8678683,
            "lon": 144.9906544,
            "tags": {
                "addr:housenumber": "92",
                "addr:street": "Chapel Street",
                "amenity": "police",
                "name": "St Kilda Police Station",
                "phone": "+61 3 9536 2666",
                "website": "https://www.police.vic.gov.au/",
                "wikidata": "Q28927212"
            }
        },
        {
            "type": "node",
            "id": 597124793,
            "lat": -37.8804749,
            "lon": 145.1284828,
            "tags": {
                "addr:city": "Mount Waverley",
                "addr:housenumber": "338",
                "addr:postcode": "3149",
                "addr:street": "Stephensons Road",
                "amenity": "police",
                "name": "Mount Waverley Police Station",
                "note": "16 hrs police station",
                "operator": "Victoria Police",
                "operator:wikidata": "Q1406658",
                "phone": "+61 3 9888 3755",
                "wheelchair": "yes"
            }
        },
        {
            "type": "node",
            "id": 597124830,
            "lat": -37.799029,
            "lon": 145.2785836,
            "tags": {
                "addr:city": "Croydon",
                "addr:housenumber": "171-175",
                "addr:postcode": "3136",
                "addr:state": "VIC",
                "addr:street": "Mount Dandenong Road",
                "addr:suburb": "Croydon",
                "amenity": "police",
                "name": "Croydon Police Station",
                "opening_hours": "24/7",
                "operator": "Victoria Police",
                "operator:wikidata": "Q1406658",
                "operator:wikipedia": "en:Victoria Police",
                "website": "https://www.police.vic.gov.au/",
                "wikidata": "Q28927039"
            }
        },
        {
            "type": "node",
            "id": 597124857,
            "lat": -37.2035135,
            "lon": 145.0553196,
            "tags": {
                "addr:housenumber": "156",
                "addr:street": "High Street",
                "amenity": "police",
                "name": "Broadford Police Station",
                "operator": "Victoria Police",
                "phone": "+61 3 5784 1404",
                "website": "https://www.police.vic.gov.au/"
            }
        },
        {
            "type": "node",
            "id": 597124858,
            "lat": -37.0200595,
            "lon": 145.1300851,
            "tags": {
                "amenity": "police",
                "name": "Seymour Police Station",
                "phone": "+61 3 5735 0200",
                "website": "https://www.police.vic.gov.au/content.asp?Document_ID=497"
            }
        },
        {
            "type": "node",
            "id": 597124908,
            "lat": -36.3814284,
            "lon": 145.3980906,
            "tags": {
                "amenity": "police",
                "name": "Shepparton Police Station",
                "operator": "Victoria Police",
                "operator:wikidata": "Q1406658",
                "operator:wikipedia": "en:Victoria Police",
                "wikidata": "Q28927220"
            }
        },
        {
            "type": "node",
            "id": 597124913,
            "lat": -36.4634092,
            "lon": 146.2274112,
            "tags": {
                "amenity": "police",
                "name": "Glenrowan Police Station",
                "wikidata": "Q28927081"
            }
        },
        {
            "type": "node",
            "id": 597124920,
            "lat": -38.1506446,
            "lon": 146.789203,
            "tags": {
                "amenity": "police",
                "name": "Rosedale",
                "wikidata": "Q28927205"
            }
        },
        {
            "type": "node",
            "id": 597124930,
            "lat": -37.825849,
            "lon": 147.6358997,
            "tags": {
                "addr:housenumber": "45-47",
                "addr:street": "Main Street",
                "amenity": "police",
                "name": "Bairnsdale Police Station",
                "operator": "Victoria Police",
                "phone": "+61 3 5150 2600",
                "source": "Local knowledge"
            }
        },
        {
            "type": "node",
            "id": 597205859,
            "lat": -38.3745948,
            "lon": 142.2300971,
            "tags": {
                "amenity": "fire_station",
                "name": "Port Fairy CFA"
            }
        },
        {
            "type": "node",
            "id": 597937067,
            "lat": -37.1945487,
            "lon": 143.8286147,
            "tags": {
                "amenity": "fire_station",
                "name": "Mount Cameron CFA"
            }
        },
        {
            "type": "node",
            "id": 599796253,
            "lat": -37.9226513,
            "lon": 141.2739136,
            "tags": {
                "amenity": "fire_station",
                "name": "Dartmoor CFA"
            }
        },
        {
            "type": "node",
            "id": 601449546,
            "lat": -37.5894063,
            "lon": 141.3367329,
            "tags": {
                "amenity": "fire_station",
                "name": "Corndale CFA"
            }
        },
        {
            "type": "node",
            "id": 613987395,
            "lat": -37.817967,
            "lon": 144.96732,
            "tags": {
                "amenity": "police",
                "level": "0",
                "name": "Flinders Street Station Police Booth",
                "website": "https://www.police.vic.gov.au/"
            }
        },
        {
            "type": "node",
            "id": 652213800,
            "lat": -38.3359739,
            "lon": 144.7423624,
            "tags": {
                "amenity": "police",
                "name": "Sorrento",
                "wikidata": "Q28927221"
            }
        },
        {
            "type": "node",
            "id": 653304890,
            "lat": -37.7823196,
            "lon": 145.6094188,
            "tags": {
                "amenity": "fire_station"
            }
        },
        {
            "type": "node",
            "id": 660561390,
            "lat": -38.0311699,
            "lon": 145.2584972,
            "tags": {
                "amenity": "fire_station",
                "name": "Hampton Park Fire Brigade"
            }
        },
        {
            "type": "node",
            "id": 660942269,
            "lat": -37.6564739,
            "lon": 145.5179128,
            "tags": {
                "amenity": "fire_station",
                "name": "Healesville CFA"
            }
        },
        {
            "type": "node",
            "id": 667271928,
            "lat": -38.3073993,
            "lon": 146.4175024,
            "tags": {
                "amenity": "police",
                "attribution": "Victoria Police, http://www.police.vic.gov.au",
                "fax": "+61 3 5122 3446",
                "fixme": "not_reviewed",
                "name": "Churchill Police Station",
                "phone": "+61 3 5122 1790",
                "vic_police:LGA": "La Trobe",
                "vic_police:PSA": "Latrobe",
                "vic_police:PSA_hq": "Morwell",
                "vic_police:address": "6 Switchback Road, Churchill Vic 3842",
                "vic_police:division": "3",
                "vic_police:division_hq": "Morwell",
                "vic_police:fire_ban_region": "Eastern",
                "vic_police:postcodes": "3842, 3962, 3871, 3869, 3840",
                "vic_police:region": "5",
                "wikidata": "Q28927027"
            }
        },
        {
            "type": "node",
            "id": 674652566,
            "lat": -37.6176834,
            "lon": 144.3444869,
            "tags": {
                "amenity": "fire_station",
                "name": "Myrniong CFA"
            }
        },
        {
            "type": "node",
            "id": 687480929,
            "lat": -38.4829357,
            "lon": 142.9672628,
            "tags": {
                "amenity": "fire_station",
                "name": "Timboon CFA Station",
                "operator": "Country Fire Authority",
                "operator:wikidata": "Q13632973"
            }
        },
        {
            "type": "node",
            "id": 703059103,
            "lat": -37.4163746,
            "lon": 144.9810454,
            "tags": {
                "addr:housenumber": "96",
                "addr:street": "Watson Street",
                "amenity": "fire_station",
                "name": "Wallan Fire Station CFA",
                "operator": "Country Fire Authority",
                "phone": "+61 3 5783 1594",
                "website": "https://www.cfa.vic.gov.au/"
            }
        },
        {
            "type": "node",
            "id": 706023455,
            "lat": -37.2318841,
            "lon": 145.9107511,
            "tags": {
                "amenity": "fire_station",
                "name": "CFA Eildon Urban Fire Brigade"
            }
        },
        {
            "type": "node",
            "id": 720853358,
            "lat": -38.1149591,
            "lon": 145.173401,
            "tags": {
                "amenity": "police",
                "name": "Carrum Downs Police Station"
            }
        },
        {
            "type": "node",
            "id": 726922930,
            "lat": -38.1772997,
            "lon": 146.2927274,
            "tags": {
                "amenity": "fire_station",
                "name": "Newborough Station"
            }
        },
        {
            "type": "node",
            "id": 732364005,
            "lat": -35.7339726,
            "lon": 143.9213916,
            "tags": {
                "amenity": "police",
                "name": "Kerang Police Station",
                "wikidata": "Q28926902"
            }
        },
        {
            "type": "node",
            "id": 809896100,
            "lat": -38.4815661,
            "lon": 143.5876524,
            "tags": {
                "amenity": "fire_station",
                "name": "Country Fire Authority"
            }
        },
        {
            "type": "node",
            "id": 839474895,
            "lat": -37.6937963,
            "lon": 144.9983867,
            "tags": {
                "amenity": "police",
                "name": "Reservoir Police Station",
                "wikidata": "Q28927195"
            }
        },
        {
            "type": "node",
            "id": 839735316,
            "lat": -38.5485467,
            "lon": 145.4751518,
            "tags": {
                "addr:housenumber": "3513-3515",
                "addr:street": "Bass Highway",
                "amenity": "fire_station",
                "name": "Kilcunda Fire Station",
                "operator": "CFA"
            }
        },
        {
            "type": "node",
            "id": 846621010,
            "lat": -38.3363788,
            "lon": 144.2625067,
            "tags": {
                "amenity": "fire_station",
                "name": "Bellbrae CFA"
            }
        },
        {
            "type": "node",
            "id": 851834099,
            "lat": -36.713212,
            "lon": 142.200748,
            "tags": {
                "amenity": "fire_station",
                "name": "CFA District 17"
            }
        },
        {
            "type": "node",
            "id": 895564847,
            "lat": -37.9516934,
            "lon": 145.5511301,
            "tags": {
                "amenity": "fire_station",
                "email": "gembrookcfa@blakwood.com.au",
                "name": "Gembrook CFA",
                "website": "https://gembrookcfa.com.au/"
            }
        },
        {
            "type": "node",
            "id": 1021875043,
            "lat": -37.6094146,
            "lon": 144.4667091,
            "tags": {
                "amenity": "fire_station",
                "name": "Coimadai Fire Station CFA"
            }
        },
        {
            "type": "node",
            "id": 1093872175,
            "lat": -37.670413,
            "lon": 144.8502599,
            "tags": {
                "amenity": "police",
                "name": "Melbourne Airport Police Shopfront"
            }
        },
        {
            "type": "node",
            "id": 1107491655,
            "lat": -38.5295088,
            "lon": 146.2073623,
            "tags": {
                "amenity": "fire_station",
                "name": "Milford CFA"
            }
        },
        {
            "type": "node",
            "id": 1140312913,
            "lat": -37.5866714,
            "lon": 141.4042082,
            "tags": {
                "amenity": "fire_station",
                "name": "CAsterton CFA",
                "operator": "Country Fire Authority"
            }
        },
        {
            "type": "node",
            "id": 1171472423,
            "lat": -37.5815039,
            "lon": 141.4079945,
            "tags": {
                "amenity": "fire_station",
                "name": "Casterton RFB Training Ground"
            }
        },
        {
            "type": "node",
            "id": 1201233025,
            "lat": -37.9551663,
            "lon": 145.1513886,
            "tags": {
                "amenity": "police",
                "name": "Springvale Police Station",
                "website": "https://www.police.vic.gov.au/"
            }
        },
        {
            "type": "node",
            "id": 1214806053,
            "lat": -38.4273941,
            "lon": 145.0445008,
            "tags": {
                "amenity": "fire_station"
            }
        },
        {
            "type": "node",
            "id": 1258969343,
            "lat": -37.5143789,
            "lon": 145.1160277,
            "tags": {
                "amenity": "fire_station",
                "name": "Whittlesea Urban Fire Brigade"
            }
        },
        {
            "type": "node",
            "id": 1278910728,
            "lat": -37.4961329,
            "lon": 145.0738373,
            "tags": {
                "amenity": "fire_station",
                "name": "CFA Whittlesea Satellite Station"
            }
        },
        {
            "type": "node",
            "id": 1294550604,
            "lat": -36.0763558,
            "lon": 142.4163749,
            "tags": {
                "amenity": "fire_station",
                "name": "Brim CFA"
            }
        },
        {
            "type": "node",
            "id": 1313545958,
            "lat": -37.5949533,
            "lon": 145.1025492,
            "tags": {
                "amenity": "fire_station",
                "name": "Mernda CFA"
            }
        },
        {
            "type": "node",
            "id": 1388235170,
            "lat": -37.8811558,
            "lon": 145.0234719,
            "tags": {
                "addr:housenumber": "289",
                "addr:street": "Hawthorn Road",
                "amenity": "police",
                "name": "Caulfield Police Station",
                "operator": "Victoria Police",
                "operator:wikidata": "Q1406658",
                "phone": "+61 3 9524 9500",
                "source": "Local",
                "website": "https://www.police.vic.gov.au/",
                "wikidata": "Q28927022"
            }
        },
        {
            "type": "node",
            "id": 1426977562,
            "lat": -37.9153764,
            "lon": 147.7227272,
            "tags": {
                "addr:city": "Paynesville",
                "addr:housenumber": "38",
                "addr:postcode": "3880",
                "addr:street": "Wellington Street",
                "amenity": "fire_station",
                "name": "Paynesville Fire Station CFA",
                "operator": "Country Fire Authority",
                "operator:wikidata": "Q13632973",
                "source": "Bing"
            }
        },
        {
            "type": "node",
            "id": 1426980648,
            "lat": -37.9237242,
            "lon": 147.7298302,
            "tags": {
                "amenity": "fire_station",
                "name": "Paynesville CFA - Raymond Island Satellite Station",
                "source": "Bing"
            }
        },
        {
            "type": "node",
            "id": 1433191422,
            "lat": -38.1132024,
            "lon": 144.2648902,
            "tags": {
                "amenity": "fire_station",
                "name": "Stonehaven CFA Fire Station"
            }
        },
        {
            "type": "node",
            "id": 1513717836,
            "lat": -38.0372547,
            "lon": 145.3438885,
            "tags": {
                "amenity": "fire_station",
                "name": "Berwick Fire Station",
                "operator": "Country Fire Authority",
                "operator:wikidata": "Q13632973"
            }
        },
        {
            "type": "node",
            "id": 1513720165,
            "lat": -38.0472727,
            "lon": 145.3680607,
            "tags": {
                "amenity": "fire_station",
                "name": "Beaconsfield CFA Fire Station"
            }
        },
        {
            "type": "node",
            "id": 1573321336,
            "lat": -38.220964,
            "lon": 145.3117766,
            "tags": {
                "amenity": "fire_station",
                "name": "Country Fire Authority",
                "operator": "Country Fire Authority",
                "operator:wikidata": "Q13632973"
            }
        },
        {
            "type": "node",
            "id": 1576411831,
            "lat": -36.6181146,
            "lon": 145.2159719,
            "tags": {
                "amenity": "police",
                "name": "Murchison Police Station",
                "source": "survey",
                "wikidata": "Q28927156"
            }
        },
        {
            "type": "node",
            "id": 1680966161,
            "lat": -38.2132476,
            "lon": 145.3152374,
            "tags": {
                "amenity": "fire_station",
                "name": "Cannons Creek CFA"
            }
        },
        {
            "type": "node",
            "id": 1700435003,
            "lat": -38.1949399,
            "lon": 145.1569939,
            "tags": {
                "addr:housenumber": "64",
                "addr:postcode": "3911",
                "addr:street": "Baxter-Tooradin Road",
                "amenity": "fire_station",
                "name": "Baxter Fire Station"
            }
        },
        {
            "type": "node",
            "id": 1706813366,
            "lat": -38.4020727,
            "lon": 146.1618392,
            "tags": {
                "amenity": "fire_station",
                "name": "Mirboo North CFA",
                "operator": "Country Fire Authority",
                "source": "survey"
            }
        },
        {
            "type": "node",
            "id": 1706813374,
            "lat": -38.4008938,
            "lon": 146.1588654,
            "tags": {
                "amenity": "police",
                "name": "Mirboo North Police Station",
                "source": "survey"
            }
        },
        {
            "type": "node",
            "id": 1707829684,
            "lat": -37.180931,
            "lon": 143.2503607,
            "tags": {
                "amenity": "police",
                "name": "Elmhurst Police Station",
                "wikidata": "Q28926890"
            }
        },
        {
            "type": "node",
            "id": 1709550485,
            "lat": -37.7545346,
            "lon": 145.687989,
            "tags": {
                "addr:housenumber": "44",
                "addr:postcode": "3799",
                "addr:state": "VIC",
                "addr:street": "Station Road",
                "addr:suburb": "Warburton",
                "amenity": "police",
                "name": "Warburton Police Station",
                "operator": "Victoria Police",
                "operator:wikidata": "Q1406658",
                "operator:wikipedia": "en:Victoria Police"
            }
        },
        {
            "type": "node",
            "id": 1742496108,
            "lat": -37.6383956,
            "lon": 145.2434848,
            "tags": {
                "amenity": "fire_station",
                "name": "Panton Hill CFA"
            }
        },
        {
            "type": "node",
            "id": 1743099633,
            "lat": -37.8465185,
            "lon": 144.075991,
            "tags": {
                "amenity": "police",
                "name": "Meredith Police Station",
                "wikidata": "Q28927137"
            }
        },
        {
            "type": "node",
            "id": 1759537811,
            "lat": -37.6740548,
            "lon": 145.1609547,
            "tags": {
                "amenity": "fire_station",
                "name": "Diamond Creek Fire Brigade",
                "operator": "Country Fire Authority",
                "operator:wikidata": "Q13632973",
                "operator:wikipedia": "en:Country Fire Authority"
            }
        },
        {
            "type": "node",
            "id": 1763735149,
            "lat": -36.4580881,
            "lon": 142.5889711,
            "tags": {
                "addr:city": "Minyip",
                "addr:housenumber": "106",
                "addr:postcode": "3392",
                "addr:street": "Main Street",
                "amenity": "police",
                "attribution": "Victoria Police, http://www.police.vic.gov.au",
                "fax": "+61 3 5385 7620",
                "name": "Minyip Police Station",
                "operator": "Victoria Police",
                "phone": "+61 3 5385 7310",
                "vic_police:LGA": "Yarriambiack",
                "vic_police:PSA": "Northern Grampians",
                "vic_police:PSA_hq": "Stawell",
                "vic_police:address": "48 Main Street, Minyip Vic 3392",
                "vic_police:division": "4",
                "vic_police:division_hq": "Horsham",
                "vic_police:fire_ban_region": "North Western",
                "vic_police:postcodes": "3392, 3390, 3388, 3480",
                "vic_police:region": "2",
                "wikidata": "Q28926926"
            }
        },
        {
            "type": "node",
            "id": 1769333135,
            "lat": -38.2407558,
            "lon": 142.9196161,
            "tags": {
                "addr:housenumber": "18",
                "addr:postcode": "3264",
                "addr:state": "VIC",
                "addr:street": "High Street",
                "addr:suburb": "Terang",
                "amenity": "police",
                "attribution": "Victoria Police, http://www.police.vic.gov.au",
                "fax": "+61 3 5592 1628",
                "name": "Terang Police Station",
                "operator": "Victoria Police",
                "operator:wikidata": "Q1406658",
                "phone": "+61 3 5592 1058",
                "vic_police:LGA": "Corangamite",
                "vic_police:PSA": "Corangamite",
                "vic_police:PSA_hq": "Camperdown",
                "vic_police:address": "18 High Street, Terang Vic 3264",
                "vic_police:division": "5",
                "vic_police:division_hq": "Warrnambool",
                "vic_police:fire_ban_region": "South Western",
                "vic_police:postcodes": "3264, 3266, 3265",
                "vic_police:region": "2",
                "wikidata": "Q28926959"
            }
        },
        {
            "type": "node",
            "id": 1781361925,
            "lat": -38.3809076,
            "lon": 142.4785174,
            "tags": {
                "addr:housenumber": "214",
                "addr:postcode": "3280",
                "addr:state": "VIC",
                "addr:street": "Koroit Street",
                "addr:suburb": "Warrnambool",
                "amenity": "police",
                "name": "Warrnambool Police Station",
                "operator": "Victoria Police",
                "operator:wikidata": "Q1406658"
            }
        },
        {
            "type": "node",
            "id": 1782260861,
            "lat": -38.2320223,
            "lon": 143.1493202,
            "tags": {
                "amenity": "fire_station",
                "name": "Camperdown CFA",
                "source": "local_knowledge"
            }
        },
        {
            "type": "node",
            "id": 1782260862,
            "lat": -38.2307628,
            "lon": 143.1462347,
            "tags": {
                "addr:housenumber": "49",
                "addr:postcode": "3260",
                "addr:state": "VIC",
                "addr:street": "Fergusson Street",
                "addr:suburb": "Camperdown",
                "amenity": "police",
                "attribution": "Victoria Police, http://www.police.vic.gov.au",
                "fax": "+61 3 5593 2891",
                "name": "Camperdown Police Station",
                "operator": "Victoria Police",
                "operator:wikidata": "Q1406658",
                "phone": "+61 3 5593 1000",
                "vic_police:LGA": "Corangamite",
                "vic_police:PSA": "Corangamite",
                "vic_police:PSA_hq": "Camperdown",
                "vic_police:address": "49 Fergusson Street, Camperdown Vic 3260",
                "vic_police:division": "5",
                "vic_police:division_hq": "Warrnambool",
                "vic_police:fire_ban_region": "South Western",
                "vic_police:postcodes": "3260, 3265, 3266, 3249",
                "vic_police:region": "2",
                "wikidata": "Q28926869"
            }
        },
        {
            "type": "node",
            "id": 1788246812,
            "lat": -37.9634883,
            "lon": 147.0802013,
            "tags": {
                "amenity": "police"
            }
        },
        {
            "type": "node",
            "id": 1804544513,
            "lat": -37.904827,
            "lon": 144.6627278,
            "tags": {
                "amenity": "fire_station",
                "contact:facebook": "https://www.facebook.com/WerribeeFireBrigade",
                "name": "Werribee Fire Brigade"
            }
        },
        {
            "type": "node",
            "id": 1818518447,
            "lat": -37.8274615,
            "lon": 147.6260567,
            "tags": {
                "amenity": "fire_station",
                "name": "Bairnsdale CFA"
            }
        },
        {
            "type": "node",
            "id": 1849299187,
            "lat": -36.7870551,
            "lon": 144.5016968,
            "tags": {
                "addr:city": "Axedale",
                "addr:housenumber": "88",
                "addr:postcode": "3551",
                "addr:street": "High Street",
                "amenity": "police",
                "name": "Axedale Police Station",
                "operator": "Victoria Police",
                "wikidata": "Q28926976"
            }
        },
        {
            "type": "node",
            "id": 1869736532,
            "lat": -38.184344,
            "lon": 144.6854758,
            "tags": {
                "addr:housenumber": "1060",
                "addr:postcode": "3223",
                "addr:state": "VIC",
                "addr:street": "Murradoc Road",
                "addr:suburb": "St Leonards",
                "amenity": "fire_station",
                "name": "St Leonards-Indented Head Fire Station",
                "operator": "Country Fire Authority",
                "operator:wikidata": "Q13632973"
            }
        },
        {
            "type": "node",
            "id": 1901521559,
            "lat": -37.5607262,
            "lon": 149.7508807,
            "tags": {
                "amenity": "fire_station",
                "name": "Mallacoota CFA Fire Station"
            }
        },
        {
            "type": "node",
            "id": 1901521695,
            "lat": -37.5603392,
            "lon": 149.7511007,
            "tags": {
                "addr:housenumber": "35",
                "addr:street": "Lees Road",
                "amenity": "police",
                "name": "Mallacoota Police Station",
                "operator": "Victoria Police",
                "phone": "+61 3 5158 0280",
                "source": "data.gov.au",
                "website": "https://www.police.vic.gov.au/"
            }
        },
        {
            "type": "node",
            "id": 1969287281,
            "lat": -37.9817089,
            "lon": 146.7855062,
            "tags": {
                "amenity": "police",
                "name": "Heyfield Police Station",
                "wikidata": "Q28927096"
            }
        },
        {
            "type": "node",
            "id": 1973261460,
            "lat": -37.804093,
            "lon": 144.99336,
            "tags": {
                "addr:city": "Abbotsford",
                "addr:housenumber": "1",
                "addr:postcode": "3067",
                "addr:state": "VIC",
                "addr:street": "Eddy Court",
                "addr:suburb": "Abbotsford",
                "amenity": "police",
                "name": "Collingwood Police Station",
                "name:fr": "Poste de police de Collingwood",
                "opening_hours": "24/7",
                "operator": "Victoria Police",
                "operator:wikidata": "Q1406658",
                "operator:wikipedia": "en:Victoria Police",
                "phone": "+61 3 8413 1700",
                "wheelchair": "limited",
                "wikidata": "Q28927035"
            }
        },
        {
            "type": "node",
            "id": 1973352740,
            "lat": -37.8478,
            "lon": 145.0,
            "tags": {
                "amenity": "police",
                "name": "Prahran",
                "wheelchair": "yes",
                "wikidata": "Q28927186"
            }
        },
        {
            "type": "node",
            "id": 1973352744,
            "lat": -38.1153,
            "lon": 144.658,
            "tags": {
                "amenity": "police",
                "name": "Portarlington"
            }
        },
        {
            "type": "node",
            "id": 1973352748,
            "lat": -38.175,
            "lon": 144.57,
            "tags": {
                "amenity": "police",
                "name": "Drysdale",
                "wikidata": "Q28927051"
            }
        },
        {
            "type": "node",
            "id": 1973352750,
            "lat": -38.3706,
            "lon": 144.819,
            "tags": {
                "addr:housenumber": "2",
                "addr:street": "Dundas Street",
                "amenity": "police",
                "name": "Rye",
                "website": "https://www.police.vic.gov.au/content.asp?Document_ID=591",
                "wikidata": "Q28927209"
            }
        },
        {
            "type": "node",
            "id": 1973352751,
            "lat": -37.81647,
            "lon": 144.966461,
            "tags": {
                "addr:housenumber": "226",
                "addr:postcode": "3000",
                "addr:street": "Flinders Lane",
                "amenity": "police",
                "fax": "+61 3 9637 1299",
                "name": "Melbourne East Police Station",
                "opening_hours": "24/7",
                "phone": "+61 3 9637 1100",
                "website": "https://www.police.vic.gov.au"
            }
        },
        {
            "type": "node",
            "id": 1973352753,
            "lat": -38.2702,
            "lon": 144.661,
            "tags": {
                "amenity": "police",
                "name": "Queenscliff",
                "wikidata": "Q28927191"
            }
        },
        {
            "type": "node",
            "id": 1973352758,
            "lat": -37.8134,
            "lon": 144.957,
            "tags": {
                "amenity": "police",
                "level": "-1",
                "name": "Melbourne Custody Centre",
                "wikidata": "Q6811763",
                "wikipedia": "en:Melbourne Custody Centre"
            }
        },
        {
            "type": "node",
            "id": 1973352760,
            "lat": -37.8132,
            "lon": 144.958,
            "tags": {
                "addr:housenumber": "456",
                "addr:street": "Lonsdale Street",
                "amenity": "police",
                "level": "1",
                "name": "Melbourne Prosecutions",
                "website": "https://www.police.vic.gov.au/content.asp?Document_ID=14658",
                "wheelchair": "yes"
            }
        },
        {
            "type": "node",
            "id": 1973353515,
            "lat": -38.2003356,
            "lon": 145.4892906,
            "tags": {
                "amenity": "police",
                "name": "Koo Wee Rup",
                "wikidata": "Q28927106"
            }
        },
        {
            "type": "node",
            "id": 1973353516,
            "lat": -38.5209552,
            "lon": 145.3783075,
            "tags": {
                "amenity": "police",
                "name": "San Remo"
            }
        },
        {
            "type": "node",
            "id": 1973353552,
            "lat": -38.6309241,
            "lon": 145.7272697,
            "tags": {
                "amenity": "police",
                "name": "Inverloch",
                "wikidata": "Q28927099"
            }
        },
        {
            "type": "node",
            "id": 1973358896,
            "lat": -38.6616115,
            "lon": 146.3245977,
            "tags": {
                "addr:housenumber": "5-7",
                "addr:street": "Foster Road",
                "amenity": "police",
                "name": "Toora Police Station",
                "operator": "Victoria Police",
                "phone": "+61 3 5686 2485",
                "website": "https://www.police.vic.gov.au/"
            }
        },
        {
            "type": "node",
            "id": 1973359159,
            "lat": -38.6521402,
            "lon": 146.2023127,
            "tags": {
                "addr:housenumber": "69-71",
                "addr:street": "Main Street",
                "amenity": "police",
                "name": "Foster Police Station",
                "operator": "Victoria Police",
                "phone": "+61 3 5682 2407",
                "website": "https://www.police.vic.gov.au/",
                "wikidata": "Q28927073"
            }
        },
        {
            "type": "node",
            "id": 1973359646,
            "lat": -38.58,
            "lon": 146.011,
            "tags": {
                "amenity": "police",
                "name": "Meeniyan",
                "wikidata": "Q28927130"
            }
        },
        {
            "type": "node",
            "id": 1973361569,
            "lat": -38.4750347,
            "lon": 145.9458525,
            "tags": {
                "amenity": "police",
                "name": "Leongatha",
                "wikidata": "Q28927117"
            }
        },
        {
            "type": "node",
            "id": 1973361570,
            "lat": -38.2126916,
            "lon": 146.1540429,
            "tags": {
                "addr:housenumber": "27",
                "addr:street": "Contingent Street",
                "amenity": "police",
                "contact:phone": "+61 3 5633 1188",
                "contact:website": "http://www.police.vic.gov.au/content.asp?Document_ID=521",
                "name": "Trafalgar Police Station",
                "operator": "Victoria Police",
                "wikidata": "Q28927239"
            }
        },
        {
            "type": "node",
            "id": 1973361571,
            "lat": -38.1761403,
            "lon": 146.265294,
            "tags": {
                "addr:city": "Moe",
                "addr:housenumber": "3",
                "addr:street": "Anzac Street",
                "amenity": "police",
                "name": "Moe Police Station",
                "opening_hours": "24/7",
                "operator": "Victoria Police",
                "operator:wikidata": "Q1406658",
                "operator:wikipedia": "en:Victoria Police",
                "website": "https://www.police.vic.gov.au/content.asp?Document_ID=451;http://www.police.vic.gov.au/content.asp?Document_ID=451",
                "wikidata": "Q28927141"
            }
        },
        {
            "type": "node",
            "id": 1973361572,
            "lat": -38.3687176,
            "lon": 145.7037266,
            "tags": {
                "amenity": "police",
                "name": "Loch",
                "wikidata": "Q28927120"
            }
        },
        {
            "type": "node",
            "id": 1973361577,
            "lat": -38.4348145,
            "lon": 145.8242315,
            "tags": {
                "addr:housenumber": "22",
                "addr:street": "Bridge Street",
                "amenity": "police",
                "name": "Korumburra Police Station",
                "operator": "Victoria Police",
                "phone": "+61 3 5655 1244",
                "website": "https://www.police.vic.gov.au/",
                "wikidata": "Q28927108"
            }
        },
        {
            "type": "node",
            "id": 1973361581,
            "lat": -38.1302036,
            "lon": 145.8490229,
            "tags": {
                "addr:housenumber": "184",
                "addr:street": "Princes Highway",
                "amenity": "police",
                "check_date": "2024-04-21",
                "name": "Drouin",
                "website": "https://www.police.vic.gov.au/content.asp?Document_ID=379",
                "wikidata": "Q28927050"
            }
        },
        {
            "type": "node",
            "id": 1973361582,
            "lat": -38.1134141,
            "lon": 145.2833318,
            "tags": {
                "amenity": "police",
                "name": "Cranbourne",
                "wikidata": "Q28927038"
            }
        },
        {
            "type": "node",
            "id": 1973361587,
            "lat": -38.1617397,
            "lon": 145.9332194,
            "tags": {
                "amenity": "police",
                "check_date": "2024-08-27",
                "name": "Warragul",
                "operator": "Victoria Police",
                "operator:wikidata": "Q1406658",
                "operator:wikipedia": "en:Victoria Police",
                "website": "https://www.police.vic.gov.au/",
                "wikidata": "Q28927249"
            }
        },
        {
            "type": "node",
            "id": 1973361588,
            "lat": -38.0975,
            "lon": 145.718,
            "tags": {
                "amenity": "police",
                "name": "Bunyip",
                "operator": "Victoria Police",
                "operator:wikidata": "Q1406658",
                "wikidata": "Q28927016"
            }
        },
        {
            "type": "node",
            "id": 1973361948,
            "lat": -37.9758196,
            "lon": 145.2616274,
            "tags": {
                "amenity": "police",
                "name": "Endeavour Hills Police Station",
                "website": "https://www.police.vic.gov.au/"
            }
        },
        {
            "type": "node",
            "id": 1973361951,
            "lat": -37.8771727,
            "lon": 147.994663,
            "tags": {
                "addr:housenumber": "1",
                "addr:street": "Roadknight Street",
                "amenity": "police",
                "name": "Lakes Entrance Police Station",
                "operator": "Victoria Police",
                "phone": "+61 3 5155 1206",
                "wikidata": "Q28927112"
            }
        },
        {
            "type": "node",
            "id": 1973361952,
            "lat": -38.0578826,
            "lon": 147.5673636,
            "tags": {
                "addr:housenumber": "1",
                "addr:street": "Government Road",
                "amenity": "police",
                "name": "Loch Sport Police Station",
                "operator": "Victoria Police",
                "phone": "+61 3 5146 0556",
                "website": "https://www.police.vic.gov.au/"
            }
        },
        {
            "type": "node",
            "id": 1973362348,
            "lat": -38.031702,
            "lon": 143.633705,
            "tags": {
                "amenity": "police",
                "name": "Cressy Police Station",
                "wikidata": "Q28926879"
            }
        },
        {
            "type": "node",
            "id": 1973362838,
            "lat": -37.7575353,
            "lon": 145.0706781,
            "tags": {
                "addr:city": "Heidelberg",
                "addr:country": "AU",
                "addr:housenumber": "11",
                "addr:postcode": "3084",
                "addr:state": "VIC",
                "addr:street": "Jika Street",
                "amenity": "police",
                "fax": "+61 3 9450 8188",
                "level": "0",
                "name": "Heidelberg Police Station",
                "opening_hours": "24/7",
                "operator": "Victoria Police",
                "operator:wikidata": "Q1406658",
                "phone": "+61 3 9450 8000",
                "website": "https://www.police.vic.gov.au/content.asp?Document_ID=634",
                "wheelchair": "yes",
                "wikidata": "Q28927094"
            }
        },
        {
            "type": "node",
            "id": 1973362859,
            "lat": -37.7557126,
            "lon": 144.8595008,
            "tags": {
                "amenity": "police",
                "designation": "Northern Metro",
                "name": "Avondale Heights",
                "source": "GPS"
            }
        },
        {
            "type": "node",
            "id": 1973362867,
            "lat": -37.7041169,
            "lon": 145.0964111,
            "tags": {
                "amenity": "police",
                "name": "Greensborough",
                "phone": "+61 3 8432 0200"
            }
        },
        {
            "type": "node",
            "id": 1973362896,
            "lat": -37.7229,
            "lon": 144.893,
            "tags": {
                "amenity": "police",
                "name": "Police Airwing"
            }
        },
        {
            "type": "node",
            "id": 1973382964,
            "lat": -37.4854515,
            "lon": 144.5854995,
            "tags": {
                "addr:housenumber": "35",
                "addr:street": "Robertson Street",
                "amenity": "police",
                "name": "Gisborne Police Station",
                "operator": "Victoria Police",
                "operator:wikidata": "Q1406658",
                "website": "https://www.police.vic.gov.au/content.asp?Document_ID=393"
            }
        },
        {
            "type": "node",
            "id": 1973382982,
            "lat": -37.6832159,
            "lon": 144.9165236,
            "tags": {
                "addr:housenumber": "15",
                "addr:street": "Dimboola Road",
                "amenity": "police",
                "name": "Broadmeadows Police Station",
                "operator": "Victoria Police",
                "operator:wikidata": "Q1406658"
            }
        },
        {
            "type": "node",
            "id": 1973382983,
            "lat": -37.4621418,
            "lon": 144.678241,
            "tags": {
                "amenity": "police",
                "name": "Riddells Creek Police Station",
                "operator": "Victoria Police",
                "operator:wikidata": "Q1406658",
                "operator:wikipedia": "en:Victoria Police",
                "wikidata": "Q28927198"
            }
        },
        {
            "type": "node",
            "id": 1973382987,
            "lat": -37.2786,
            "lon": 144.736,
            "tags": {
                "addr:housenumber": "57",
                "addr:street": "Main Road",
                "amenity": "police",
                "name": "Lancefield",
                "website": "https://www.police.vic.gov.au/content.asp?Document_ID=424",
                "wikidata": "Q28927113"
            }
        },
        {
            "type": "node",
            "id": 1973382990,
            "lat": -37.3544,
            "lon": 144.527,
            "tags": {
                "amenity": "police",
                "name": "Woodend"
            }
        },
        {
            "type": "node",
            "id": 1973382992,
            "lat": -37.4229,
            "lon": 144.568,
            "tags": {
                "addr:housenumber": "59",
                "addr:street": "Victoria Street",
                "amenity": "police",
                "name": "Macedon",
                "website": "https://www.police.vic.gov.au/content.asp?Document_ID=433",
                "wikidata": "Q28927121"
            }
        },
        {
            "type": "node",
            "id": 1973383004,
            "lat": -37.5795942,
            "lon": 144.7357618,
            "tags": {
                "addr:housenumber": "39",
                "addr:street": "Macedon Street",
                "amenity": "police",
                "name": "Sunbury Police Station",
                "operator": "Victoria Police",
                "phone": "+61 3 9744 8111",
                "website": "https://www.police.vic.gov.au/",
                "wikidata": "Q28927227"
            }
        },
        {
            "type": "node",
            "id": 1973383012,
            "lat": -37.8915495,
            "lon": 145.1749667,
            "tags": {
                "amenity": "police",
                "name": "Police Academy"
            }
        },
        {
            "type": "node",
            "id": 1973383033,
            "lat": -37.8477958,
            "lon": 144.6870034,
            "tags": {
                "amenity": "police",
                "name": "Wyndham North"
            }
        },
        {
            "type": "node",
            "id": 1973383036,
            "lat": -38.0234,
            "lon": 144.396,
            "tags": {
                "amenity": "police",
                "name": "Lara Police Station",
                "wikidata": "Q28927115"
            }
        },
        {
            "type": "node",
            "id": 1973383040,
            "lat": -38.0500177,
            "lon": 144.1683914,
            "tags": {
                "amenity": "police",
                "name": "Bannockburn Police Station"
            }
        },
        {
            "type": "node",
            "id": 1973383041,
            "lat": -38.1015,
            "lon": 144.051,
            "tags": {
                "amenity": "police",
                "name": "Inverleigh",
                "wikidata": "Q28927098"
            }
        },
        {
            "type": "node",
            "id": 1973383053,
            "lat": -37.8628817,
            "lon": 145.0797951,
            "tags": {
                "amenity": "police",
                "name": "Ashburton",
                "wikidata": "Q28926974"
            }
        },
        {
            "type": "node",
            "id": 1973383056,
            "lat": -37.8509547,
            "lon": 145.0981719,
            "tags": {
                "addr:housenumber": "64",
                "addr:street": "Burwood Highway",
                "amenity": "police",
                "name": "Burwood Police Station",
                "operator": "Victoria Police",
                "operator:wikidata": "Q1406658",
                "phone": "+61 3 9888 8377",
                "website": "https://www.police.vic.gov.au/",
                "wikidata": "Q28927017"
            }
        },
        {
            "type": "node",
            "id": 1973383069,
            "lat": -37.8183,
            "lon": 145.186,
            "tags": {
                "amenity": "police",
                "name": "Whitehorse TMU"
            }
        },
        {
            "type": "node",
            "id": 1973383073,
            "lat": -37.8699027,
            "lon": 145.236715,
            "tags": {
                "amenity": "police",
                "name": "Knox Police Station",
                "website": "https://www.police.vic.gov.au/"
            }
        },
        {
            "type": "node",
            "id": 1973804543,
            "lat": -36.5518701,
            "lon": 146.2780296,
            "tags": {
                "amenity": "fire_station",
                "name": "CFA, Greta"
            }
        },
        {
            "type": "node",
            "id": 1974636713,
            "lat": -36.5754988,
            "lon": 146.3786124,
            "tags": {
                "amenity": "fire_station",
                "name": "Moyhu Fire Station CFA",
                "operator": "Country Fire Authority"
            }
        },
        {
            "type": "node",
            "id": 1996806967,
            "lat": -37.7354167,
            "lon": 142.0137757,
            "tags": {
                "amenity": "fire_station",
                "name": "CFA District 5 Headquarters",
                "operator": "Country Fire Authority",
                "operator:wikidata": "Q13632973",
                "phone": "+61 3 5551 1500"
            }
        },
        {
            "type": "node",
            "id": 2004073110,
            "lat": -37.8582621,
            "lon": 141.7987037,
            "tags": {
                "addr:housenumber": "93",
                "addr:street": "Monroe Street",
                "amenity": "police",
                "name": "Branxholme Police Station",
                "operator": "Victoria Police",
                "phone": "+61 3 5578 6222",
                "source": "data.gov.au",
                "wikidata": "Q28926865"
            }
        },
        {
            "type": "node",
            "id": 2034555927,
            "lat": -36.7876127,
            "lon": 145.1544928,
            "tags": {
                "addr:housenumber": "12",
                "addr:street": "Filson Street",
                "amenity": "police",
                "name": "Nagambie Police Station",
                "operator": "Victoria Police",
                "phone": "+61 3 5794 2526",
                "website": "https://www.police.vic.gov.au/",
                "wikidata": "Q28927160"
            }
        },
        {
            "type": "node",
            "id": 2049314075,
            "lat": -35.3559696,
            "lon": 143.5629299,
            "tags": {
                "addr:housenumber": "507",
                "addr:street": "Campbell Street",
                "amenity": "police",
                "name": "Swan Hill Police Station",
                "operator": "Victoria Police",
                "phone": "+61 3 5036 1600"
            }
        },
        {
            "type": "node",
            "id": 2057576927,
            "lat": -37.0523816,
            "lon": 146.0869597,
            "tags": {
                "amenity": "police",
                "name": "Mansfield Police Station",
                "source": "gps log",
                "wikidata": "Q28927128"
            }
        },
        {
            "type": "node",
            "id": 2069739897,
            "lat": -38.0816427,
            "lon": 142.8081366,
            "tags": {
                "amenity": "police",
                "name": "Mortlake Police",
                "operator": "Victoria Police",
                "operator:wikidata": "Q1406658",
                "operator:wikipedia": "en:Victoria Police"
            }
        },
        {
            "type": "node",
            "id": 2075546121,
            "lat": -36.3737004,
            "lon": 142.9842248,
            "tags": {
                "addr:housenumber": "13",
                "addr:street": "Byrne Street",
                "amenity": "police",
                "contact:phone": "+61 3 5497 1530",
                "contact:website": "http://www.police.vic.gov.au",
                "name": "Donald Police Station",
                "operator": "Victoria Police",
                "operator:wikidata": "Q1406658",
                "source": "Bing",
                "wikidata": "Q28926885"
            }
        },
        {
            "type": "node",
            "id": 2077033600,
            "lat": -38.7597055,
            "lon": 143.6702759,
            "tags": {
                "addr:housenumber": "31",
                "addr:street": "Nelson Street",
                "amenity": "police",
                "contact:phone": "+61 3 5237 6750",
                "contact:website": "http://www.police.vic.gov.au/",
                "name": "Apollo Bay Police Station",
                "operator": "Victoria Police",
                "phone": "+61 3 5237 6750",
                "source": "data.gov.au",
                "wikidata": "Q28926850"
            }
        },
        {
            "type": "node",
            "id": 2115378034,
            "lat": -35.7312062,
            "lon": 143.919012,
            "tags": {
                "amenity": "fire_station"
            }
        },
        {
            "type": "node",
            "id": 2131769728,
            "lat": -37.75165,
            "lon": 145.024419,
            "tags": {
                "addr:housenumber": "55",
                "addr:street": "Raglan Street",
                "amenity": "police",
                "building": "yes",
                "name": "Vehicle Impoundment Support Unit",
                "operator": "Victoria Police",
                "operator:wikidata": "Q1406658",
                "phone": "+61 3 8480 1600"
            }
        },
        {
            "type": "node",
            "id": 2134623103,
            "lat": -38.0363464,
            "lon": 145.1079847,
            "tags": {
                "amenity": "fire_station",
                "name": "Edithvale Fire Brigade"
            }
        },
        {
            "type": "node",
            "id": 2151169110,
            "lat": -37.2322288,
            "lon": 145.9103758,
            "tags": {
                "amenity": "police"
            }
        },
        {
            "type": "node",
            "id": 2153946268,
            "lat": -37.781893,
            "lon": 145.431427,
            "tags": {
                "amenity": "fire_station",
                "name": "Wandin CFA",
                "operator": "Country Fire Authority",
                "operator:wikidata": "Q13632973",
                "operator:wikipedia": "en:Country Fire Authority"
            }
        },
        {
            "type": "node",
            "id": 2160276034,
            "lat": -37.8752212,
            "lon": 145.4076111,
            "tags": {
                "addr:housenumber": "58",
                "addr:street": "Main Road",
                "amenity": "police",
                "email": "monbulk.uni@police.vic.gov.au",
                "fax": "+61 3 9752 0159",
                "name": "Monbulk Police Station",
                "phone": "+61 3 9756 6266",
                "source": "Survey",
                "website": "https://www.police.vic.gov.au",
                "wikidata": "Q28927143"
            }
        },
        {
            "type": "node",
            "id": 2186577075,
            "lat": -37.7313139,
            "lon": 144.659323,
            "tags": {
                "addr:city": "Rockbank",
                "addr:housenumber": "129",
                "addr:postcode": "3335",
                "addr:street": "Westcott Parade",
                "amenity": "fire_station",
                "name": "Rockbank CFA",
                "operator": "Country Fire Authority"
            }
        },
        {
            "type": "node",
            "id": 2241257460,
            "lat": -36.3627737,
            "lon": 141.1309954,
            "tags": {
                "amenity": "fire_station",
                "name": "Lillimure VFS"
            }
        },
        {
            "type": "node",
            "id": 2243238066,
            "lat": -37.9804916,
            "lon": 146.7898666,
            "tags": {
                "amenity": "fire_station",
                "name": "Heyfield CFA",
                "source": "survey"
            }
        },
        {
            "type": "node",
            "id": 2243329096,
            "lat": -37.9251678,
            "lon": 146.8900104,
            "tags": {
                "amenity": "fire_station",
                "name": "Newry",
                "source": "local knowledge",
                "wikidata": "Q28926671"
            }
        },
        {
            "type": "node",
            "id": 2274568536,
            "lat": -37.6890557,
            "lon": 148.1695643,
            "tags": {
                "amenity": "fire_station",
                "name": "Wairewa Country Fire Authority",
                "source": "survey"
            }
        },
        {
            "type": "node",
            "id": 2293622729,
            "lat": -35.6810323,
            "lon": 142.6655976,
            "tags": {
                "addr:housenumber": "48",
                "addr:street": "Brook Street",
                "amenity": "police",
                "name": "Woomelang Police Station",
                "operator": "Victoria Police",
                "operator:wikidata": "Q1406658",
                "phone": "+61 3 5081 2055",
                "website": "https://www.police.vic.gov.au/",
                "wikidata": "Q28926969"
            }
        },
        {
            "type": "node",
            "id": 2294636889,
            "lat": -35.6361339,
            "lon": 142.9948252,
            "tags": {
                "amenity": "fire_station",
                "name": "Berriwillock CFA Station",
                "operator": "Country Fire Authority"
            }
        },
        {
            "type": "node",
            "id": 2295383350,
            "lat": -35.5022879,
            "lon": 142.8497674,
            "tags": {
                "addr:street": "Hannon Street",
                "amenity": "police",
                "name": "Sea Lake Police Station",
                "operator": "Victoria Police",
                "operator:wikidata": "Q1406658",
                "operator:wikipedia": "en:Victoria Police",
                "phone": "+61 3 5070 1301",
                "website": "https://www.police.vic.gov.au/",
                "wikidata": "Q28926951"
            }
        },
        {
            "type": "node",
            "id": 2298280934,
            "lat": -35.8991911,
            "lon": 141.9950003,
            "tags": {
                "addr:housenumber": "13",
                "addr:street": "King Street",
                "amenity": "fire_station",
                "name": "Rainbow Fire Station",
                "operator": "Country Fire Authority",
                "phone": "+61 3 5395 1224",
                "website": "https://www.cfa.vic.gov.au/",
                "wikidata": "Q28926276"
            }
        },
        {
            "type": "node",
            "id": 2302010650,
            "lat": -37.7390408,
            "lon": 142.0255533,
            "tags": {
                "amenity": "fire_station",
                "name": "Hamilton CFA"
            }
        },
        {
            "type": "node",
            "id": 2302107781,
            "lat": -38.5210727,
            "lon": 143.7165948,
            "tags": {
                "addr:street": "Station Street",
                "amenity": "police",
                "name": "Forrest Police Station",
                "operator": "Victoria Police",
                "phone": "+61 3 5236 6372",
                "website": "https://police.vic.gov.au/",
                "wikidata": "Q28926891"
            }
        },
        {
            "type": "node",
            "id": 2302113533,
            "lat": -38.1952805,
            "lon": 143.6400025,
            "tags": {
                "addr:housenumber": "63",
                "addr:street": "Main Street",
                "amenity": "police",
                "name": "Beeac Police Station",
                "operator": "Victoria Police",
                "operator:wikidata": "Q1406658",
                "phone": "+61 3 5234 6255",
                "website": "https://police.vic.gov.au/",
                "wikidata": "Q28926857"
            }
        },
        {
            "type": "node",
            "id": 2303680384,
            "lat": -35.4010404,
            "lon": 142.4407598,
            "tags": {
                "addr:street": "Carter Street",
                "amenity": "police",
                "name": "Speed Police Station",
                "phone": "+61 3 5082 4251",
                "website": "https://www.police.vic.gov.au/",
                "wikidata": "Q28926954"
            }
        },
        {
            "type": "node",
            "id": 2307249951,
            "lat": -37.7065293,
            "lon": 148.4560396,
            "tags": {
                "amenity": "police",
                "name": "Orbost Police Station",
                "wikidata": "Q28927176"
            }
        },
        {
            "type": "node",
            "id": 2308134199,
            "lat": -36.633032,
            "lon": 142.6306433,
            "tags": {
                "addr:housenumber": "62",
                "addr:street": "Cromie Street",
                "amenity": "police",
                "name": "Rupanyup Police Station",
                "operator": "Victoria Police",
                "operator:wikidata": "Q1406658",
                "phone": "+61 3 5385 5078",
                "wikidata": "Q28926949"
            }
        },
        {
            "type": "node",
            "id": 2312176576,
            "lat": -37.6757582,
            "lon": 144.4359511,
            "tags": {
                "addr:housenumber": "117",
                "addr:street": "Main Street",
                "amenity": "police",
                "name": "Bacchus Marsh Police Station",
                "operator": "Victoria Police",
                "operator:wikidata": "Q1406658",
                "phone": "+61 3 5366 4500",
                "website": "https://www.police.vic.gov.au/",
                "wikidata": "Q28926977"
            }
        },
        {
            "type": "node",
            "id": 2312177386,
            "lat": -37.675529,
            "lon": 144.4343781,
            "tags": {
                "amenity": "fire_station",
                "name": "Bacchus Marsh CFA"
            }
        },
        {
            "type": "node",
            "id": 2313978407,
            "lat": -36.6166237,
            "lon": 142.4696466,
            "tags": {
                "addr:housenumber": "13",
                "addr:street": "Degenhardt Street",
                "amenity": "police",
                "name": "Murtoa Police Station",
                "operator": "Victoria Police",
                "phone": "+61 3 5385 2252",
                "website": "https://www.police.vic.gov.au/",
                "wikidata": "Q28926929"
            }
        },
        {
            "type": "node",
            "id": 2316910954,
            "lat": -36.6422147,
            "lon": 145.5433392,
            "tags": {
                "amenity": "fire_station",
                "name": "Riggs Creek CFA"
            }
        },
        {
            "type": "node",
            "id": 2316930536,
            "lat": -36.5375236,
            "lon": 145.497983,
            "tags": {
                "amenity": "fire_station",
                "name": "Karramomus CFA"
            }
        },
        {
            "type": "node",
            "id": 2318190796,
            "lat": -36.541705,
            "lon": 145.667928,
            "tags": {
                "addr:housenumber": "1085",
                "addr:street": "Feltrim Road",
                "amenity": "fire_station",
                "name": "Earlston CFA"
            }
        },
        {
            "type": "node",
            "id": 2318216050,
            "lat": -36.4688714,
            "lon": 145.6311903,
            "tags": {
                "amenity": "fire_station",
                "name": "Caniambo Fire Station",
                "operator": "Country Fire Authority",
                "source": "survey",
                "wikidata": "Q28926463"
            }
        },
        {
            "type": "node",
            "id": 2319103131,
            "lat": -36.0788396,
            "lon": 145.688635,
            "tags": {
                "amenity": "fire_station",
                "name": "CFA",
                "source": "survey"
            }
        },
        {
            "type": "node",
            "id": 2325109301,
            "lat": -36.2489612,
            "lon": 144.9506034,
            "tags": {
                "addr:housenumber": "72",
                "addr:street": "Miller Street",
                "amenity": "police",
                "name": "Tongala Police Station",
                "operator": "Victoria Police",
                "phone": "+61 3 5859 0501",
                "website": "https://police.vic.gov.au/",
                "wikidata": "Q28927235"
            }
        },
        {
            "type": "node",
            "id": 2350228086,
            "lat": -36.1966947,
            "lon": 147.9030143,
            "tags": {
                "amenity": "fire_station",
                "name": "Corryong CFA"
            }
        },
        {
            "type": "node",
            "id": 2350228102,
            "lat": -36.1944791,
            "lon": 147.9040356,
            "tags": {
                "addr:housenumber": "17",
                "addr:street": "Jardine Street",
                "amenity": "police",
                "name": "Corryong Police Station",
                "operator": "Victoria Police",
                "phone": "+61 2 6076 1666",
                "wikidata": "Q28927036"
            }
        },
        {
            "type": "node",
            "id": 2378996269,
            "lat": -37.5102256,
            "lon": 145.1186201,
            "tags": {
                "amenity": "police",
                "name": "Whittlesea Police Station"
            }
        },
        {
            "type": "node",
            "id": 2388077219,
            "lat": -35.9432196,
            "lon": 142.4194627,
            "tags": {
                "addr:housenumber": "3",
                "addr:street": "Higginbotham Street",
                "amenity": "police",
                "name": "Beulah Police Station",
                "operator": "Victoria Police",
                "phone": "+61 3 5390 2212",
                "wikidata": "Q28926859"
            }
        },
        {
            "type": "node",
            "id": 2389081999,
            "lat": -38.0990096,
            "lon": 145.9711788,
            "tags": {
                "amenity": "fire_station",
                "name": "Nilma North CFA station",
                "operator": "Country Fire Authority"
            }
        },
        {
            "type": "node",
            "id": 2392319460,
            "lat": -37.5641339,
            "lon": 143.85943,
            "tags": {
                "amenity": "police",
                "name": "Ballarat Police Station"
            }
        },
        {
            "type": "node",
            "id": 2396135618,
            "lat": -36.4241965,
            "lon": 143.6157844,
            "tags": {
                "addr:city": "Wedderburn",
                "addr:housenumber": "2",
                "addr:postcode": "3518",
                "addr:street": "St Arnaud Road",
                "amenity": "police",
                "name": "Wedderburn Police Station",
                "phone": "+61 3 5494 3300",
                "source": "survey",
                "wikidata": "Q28927277"
            }
        },
        {
            "type": "node",
            "id": 2404418488,
            "lat": -37.5661846,
            "lon": 146.2502977,
            "tags": {
                "amenity": "fire_station",
                "name": "Woods Point CFA"
            }
        },
        {
            "type": "node",
            "id": 2404418490,
            "lat": -37.5674692,
            "lon": 146.2508653,
            "tags": {
                "amenity": "police",
                "name": "Woods Point Police Station",
                "wikidata": "Q28927263"
            }
        },
        {
            "type": "node",
            "id": 2404431820,
            "lat": -36.8206655,
            "lon": 146.0081411,
            "tags": {
                "amenity": "fire_station",
                "name": "Lima South CFA"
            }
        },
        {
            "type": "node",
            "id": 2404848417,
            "lat": -36.9356826,
            "lon": 146.2381852,
            "tags": {
                "amenity": "fire_station",
                "name": "Tolmie CFA"
            }
        },
        {
            "type": "node",
            "id": 2407469412,
            "lat": -36.763766,
            "lon": 146.4143437,
            "tags": {
                "amenity": "police",
                "name": "Whitfield Police Station",
                "wikidata": "Q28927255"
            }
        },
        {
            "type": "node",
            "id": 2414431068,
            "lat": -37.7757032,
            "lon": 145.3575665,
            "tags": {
                "amenity": "fire_station",
                "name": "CFA"
            }
        },
        {
            "type": "node",
            "id": 2419656319,
            "lat": -36.0744557,
            "lon": 143.2260144,
            "tags": {
                "amenity": "police",
                "source": "survey"
            }
        },
        {
            "type": "node",
            "id": 2453578392,
            "lat": -37.3035492,
            "lon": 146.1388964,
            "tags": {
                "amenity": "fire_station",
                "name": "Jamieson CFA"
            }
        },
        {
            "type": "node",
            "id": 2453578394,
            "lat": -37.3032693,
            "lon": 146.138424,
            "tags": {
                "amenity": "police",
                "name": "Jamieson Police Station",
                "wikidata": "Q28927102"
            }
        },
        {
            "type": "node",
            "id": 2462890621,
            "lat": -38.4355196,
            "lon": 145.8263235,
            "tags": {
                "amenity": "fire_station",
                "name": "Korumburra Fire Station",
                "wikidata": "Q28926581"
            }
        },
        {
            "type": "node",
            "id": 2471694472,
            "lat": -37.3403703,
            "lon": 144.1425975,
            "tags": {
                "addr:city": "Daylesford",
                "addr:housenumber": "12",
                "addr:postcode": "3460",
                "addr:street": "Vincent Street",
                "amenity": "police",
                "name": "Daylesford Police Station",
                "operator": "Victoria Police",
                "operator:wikidata": "Q1406658",
                "operator:wikipedia": "en:Victoria Police",
                "wikidata": "Q28927042"
            }
        },
        {
            "type": "node",
            "id": 2471707055,
            "lat": -36.3702743,
            "lon": 146.2539481,
            "tags": {
                "amenity": "fire_station",
                "name": "CFA"
            }
        },
        {
            "type": "node",
            "id": 2472127919,
            "lat": -37.7964037,
            "lon": 148.5337582,
            "tags": {
                "amenity": "fire_station",
                "name": "Coast Guard"
            }
        },
        {
            "type": "node",
            "id": 2472127932,
            "lat": -37.7964108,
            "lon": 148.5334971,
            "tags": {
                "amenity": "fire_station",
                "name": "CFA"
            }
        },
        {
            "type": "node",
            "id": 2481828518,
            "lat": -38.352461,
            "lon": 141.6081185,
            "tags": {
                "amenity": "police",
                "name": "Portland Police Station",
                "wikidata": "Q28926942"
            }
        },
        {
            "type": "node",
            "id": 2489449884,
            "lat": -37.4226662,
            "lon": 143.8954342,
            "tags": {
                "addr:city": "Creswick",
                "addr:housenumber": "-",
                "addr:postcode": "3363",
                "addr:street": "Albert Street",
                "amenity": "fire_station",
                "name": "Creswick CFA",
                "operator": "Country Fire Authority",
                "operator:wikidata": "Q13632973",
                "operator:wikipedia": "en:Country Fire Authority"
            }
        },
        {
            "type": "node",
            "id": 2489449917,
            "lat": -37.4298583,
            "lon": 143.8923839,
            "tags": {
                "addr:city": "Creswick",
                "addr:housename": "Police Station",
                "addr:housenumber": "137",
                "addr:postcode": "3363",
                "addr:street": "Napier Street",
                "amenity": "police",
                "name": "Police Station",
                "operator:phone": "(03) 5345 2220"
            }
        },
        {
            "type": "node",
            "id": 2589888428,
            "lat": -37.6465981,
            "lon": 143.9746311,
            "tags": {
                "amenity": "fire_station",
                "name": "Mount Buninyoing RFS"
            }
        },
        {
            "type": "node",
            "id": 2591028210,
            "lat": -37.2621378,
            "lon": 147.7210579,
            "tags": {
                "amenity": "police",
                "name": "Swifts Creek Police Station",
                "operator": "Victoria Police",
                "operator:wikidata": "Q1406658"
            }
        },
        {
            "type": "node",
            "id": 2619470910,
            "lat": -38.1036599,
            "lon": 147.0657004,
            "tags": {
                "amenity": "fire_station",
                "name": "CFA",
                "operator": "Country Fire Authority",
                "operator:wikidata": "Q13632973",
                "operator:wikipedia": "en:Country Fire Authority",
                "source": "voice"
            }
        },
        {
            "type": "node",
            "id": 2635707322,
            "lat": -37.3419896,
            "lon": 144.1408159,
            "tags": {
                "amenity": "fire_station",
                "name": "CFA"
            }
        },
        {
            "type": "node",
            "id": 2662841808,
            "lat": -38.0477141,
            "lon": 145.8064459,
            "tags": {
                "amenity": "fire_station",
                "name": "CFA"
            }
        },
        {
            "type": "node",
            "id": 2700742586,
            "lat": -36.0548753,
            "lon": 144.1129824,
            "tags": {
                "addr:housenumber": "9",
                "addr:street": "Victoria Street",
                "amenity": "police",
                "name": "Pyramid Hill Police Station",
                "operator": "Victoria Police",
                "phone": "+61 3 5455 7000",
                "website": "https://www.police.vic.gov.au/",
                "wikidata": "Q28927190"
            }
        },
        {
            "type": "node",
            "id": 2713507745,
            "lat": -38.3875453,
            "lon": 142.239425,
            "tags": {
                "amenity": "police",
                "check_date": "2024-03-16",
                "name": "Port Fairy Police Station"
            }
        },
        {
            "type": "node",
            "id": 2774530865,
            "lat": -36.3606819,
            "lon": 146.3138865,
            "tags": {
                "amenity": "police",
                "name": "Wangaratta Police Complex"
            }
        },
        {
            "type": "node",
            "id": 2868372854,
            "lat": -35.364769,
            "lon": 143.1018218,
            "tags": {
                "addr:city": "Waitchie",
                "addr:housenumber": "2190",
                "addr:postcode": "3544",
                "addr:street": "Waitchie Road",
                "amenity": "fire_station",
                "name": "Waitchie Fire Brigade",
                "operator": "Country Fire Authority",
                "operator:wikidata": "Q13632973"
            }
        },
        {
            "type": "node",
            "id": 2880934087,
            "lat": -36.4930839,
            "lon": 146.8295772,
            "tags": {
                "amenity": "fire_station",
                "name": "Mudgegonga CFA"
            }
        },
        {
            "type": "node",
            "id": 2901147336,
            "lat": -36.7571633,
            "lon": 145.569342,
            "tags": {
                "addr:city": "Euroa",
                "addr:housenumber": "19-23",
                "addr:postcode": "3666",
                "addr:state": "VIC",
                "addr:street": "Clifton Street",
                "addr:suburb": "Euroa",
                "amenity": "fire_station",
                "name": "Euroa CFA",
                "operator": "Country Fire Authority",
                "operator:wikidata": "Q13632973"
            }
        },
        {
            "type": "node",
            "id": 2901154261,
            "lat": -36.7517091,
            "lon": 145.5726733,
            "tags": {
                "addr:housenumber": "40",
                "addr:street": "Kirkland Avenue",
                "amenity": "police",
                "name": "Euroa Police Station",
                "operator": "Victoria Police",
                "operator:wikidata": "Q1406658",
                "operator:wikipedia": "en:Victoria Police",
                "phone": "+61 3 5795 2017",
                "wikidata": "Q28927067"
            }
        },
        {
            "type": "node",
            "id": 2909054075,
            "lat": -38.1846751,
            "lon": 142.4344081,
            "tags": {
                "addr:city": "Woolsthorpe",
                "addr:postcode": "3276",
                "addr:street": "Harris Road",
                "amenity": "fire_station",
                "name": "Woolsthorpe Fire Station",
                "operator": "Country Fire Authority",
                "wikidata": "Q28926391"
            }
        },
        {
            "type": "node",
            "id": 2909081427,
            "lat": -38.2923884,
            "lon": 142.3678769,
            "tags": {
                "addr:street": "Commercial Road",
                "amenity": "police",
                "name": "Koroit Police Station",
                "operator": "Victoria Police",
                "phone": "+61 3 5565 8202",
                "website": "https://www.police.vic.gov.au/",
                "wikidata": "Q28926903"
            }
        },
        {
            "type": "node",
            "id": 2934155580,
            "lat": -35.0699539,
            "lon": 142.3152118,
            "tags": {
                "amenity": "police",
                "name": "Ouyen Police Station",
                "operator": "Victoria Police",
                "operator:wikidata": "Q1406658"
            }
        },
        {
            "type": "node",
            "id": 2953708250,
            "lat": -37.4810508,
            "lon": 149.6793853,
            "tags": {
                "amenity": "fire_station",
                "name": "Mallacoota Satellite Fire Station (Gipsy Point) CFA",
                "operator": "Country Fire Authority"
            }
        },
        {
            "type": "node",
            "id": 2958162922,
            "lat": -37.9662943,
            "lon": 144.1349432,
            "tags": {
                "addr:city": "Lethbridge",
                "addr:housenumber": "28",
                "addr:postcode": "3332",
                "addr:street": "Russell Street",
                "amenity": "fire_station",
                "name": "Lethbridge Fire Station CFA",
                "operator": "Country Fire Authority"
            }
        },
        {
            "type": "node",
            "id": 2962038091,
            "lat": -37.4131251,
            "lon": 143.9868103,
            "tags": {
                "addr:housenumber": "2000",
                "addr:street": "Daylesford - Ballarat Road",
                "amenity": "fire_station",
                "name": "Newlyn Fire Station CFA",
                "operator": "Country Fire Authority",
                "phone": "+61 3 5345 7533"
            }
        },
        {
            "type": "node",
            "id": 2964110122,
            "lat": -37.8012471,
            "lon": 147.4569875,
            "tags": {
                "addr:housenumber": "106",
                "addr:street": "Henry Street",
                "amenity": "fire_station",
                "name": "Lindenow South Fire Station CFA",
                "operator": "Country Fire Authority",
                "phone": "+61 3 5157 1338",
                "website": "https://www.cfa.vic.gov.au/"
            }
        },
        {
            "type": "node",
            "id": 2965816299,
            "lat": -35.2640574,
            "lon": 141.1826623,
            "tags": {
                "addr:housenumber": "13",
                "addr:street": "Reed Street",
                "amenity": "police",
                "name": "Murrayville Police Station",
                "operator": "Victoria Police",
                "operator:wikidata": "Q1406658",
                "phone": "+61 3 5095 2170",
                "website": "https://www.police.vic.gov.au/",
                "wikidata": "Q28926928"
            }
        },
        {
            "type": "node",
            "id": 2967415869,
            "lat": -37.5107264,
            "lon": 145.7478699,
            "tags": {
                "amenity": "police",
                "name": "Marysville Police Station",
                "wikidata": "Q28927129"
            }
        },
        {
            "type": "node",
            "id": 2967439406,
            "lat": -37.9439195,
            "lon": 141.3180739,
            "tags": {
                "amenity": "fire_station",
                "name": "Drik Drik CFA",
                "operator": "Country Fire Authority"
            }
        },
        {
            "type": "node",
            "id": 2968743644,
            "lat": -36.2906007,
            "lon": 146.7295578,
            "tags": {
                "amenity": "fire_station",
                "name": "Wooragee CFA"
            }
        },
        {
            "type": "node",
            "id": 3019312298,
            "lat": -38.2374673,
            "lon": 142.9186425,
            "tags": {
                "addr:housenumber": "8",
                "addr:postcode": "3264",
                "addr:state": "VIC",
                "addr:street": "Swanston Street",
                "addr:suburb": "Terang",
                "amenity": "fire_station",
                "name": "Terang Fire Station CFA",
                "operator": "Country Fire Authority",
                "operator:wikidata": "Q13632973"
            }
        },
        {
            "type": "node",
            "id": 3028997173,
            "lat": -36.274002,
            "lon": 147.1098977,
            "tags": {
                "amenity": "fire_station",
                "name": "Sandy Creek CFA",
                "operator": "Country Fire Authority",
                "operator:wikidata": "Q13632973"
            }
        },
        {
            "type": "node",
            "id": 3031096604,
            "lat": -36.2154331,
            "lon": 147.1804531,
            "tags": {
                "amenity": "police",
                "name": "Tallangatta Police Station",
                "wikidata": "Q28927230"
            }
        },
        {
            "type": "node",
            "id": 3044846780,
            "lat": -36.1085825,
            "lon": 147.3205678,
            "tags": {
                "amenity": "fire_station",
                "name": "Granya CFA Station",
                "operator": "Country Fire Authority",
                "operator:wikidata": "Q13632973",
                "operator:wikipedia": "en:Country Fire Authority"
            }
        },
        {
            "type": "node",
            "id": 3044846783,
            "lat": -36.2175786,
            "lon": 147.1821819,
            "tags": {
                "amenity": "fire_station",
                "name": "Tallangatta CFA Station"
            }
        },
        {
            "type": "node",
            "id": 3044846799,
            "lat": -36.1421026,
            "lon": 147.0065991,
            "tags": {
                "amenity": "fire_station",
                "name": "Bonegilla CFA Station"
            }
        },
        {
            "type": "node",
            "id": 3044846803,
            "lat": -36.4298285,
            "lon": 147.0647413,
            "tags": {
                "amenity": "fire_station",
                "name": "Gundowring CFA Station"
            }
        },
        {
            "type": "node",
            "id": 3044846819,
            "lat": -36.1597798,
            "lon": 147.3449866,
            "tags": {
                "amenity": "fire_station",
                "name": "Bullioh CFA Station"
            }
        },
        {
            "type": "node",
            "id": 3044846820,
            "lat": -36.2097317,
            "lon": 146.8874607,
            "tags": {
                "amenity": "fire_station",
                "name": "Leneva CFA Station"
            }
        },
        {
            "type": "node",
            "id": 3044846821,
            "lat": -36.2479416,
            "lon": 147.027751,
            "tags": {
                "amenity": "fire_station",
                "name": "Kiewa CFA Station"
            }
        },
        {
            "type": "node",
            "id": 3044846823,
            "lat": -36.1944861,
            "lon": 147.256537,
            "tags": {
                "amenity": "fire_station",
                "name": "Old Tallangatta CFA Station"
            }
        },
        {
            "type": "node",
            "id": 3048780739,
            "lat": -37.9659672,
            "lon": 147.0823251,
            "tags": {
                "amenity": "fire_station"
            }
        },
        {
            "type": "node",
            "id": 3134504467,
            "lat": -36.5335724,
            "lon": 147.4967823,
            "tags": {
                "amenity": "fire_station",
                "name": "Dartmouth CFA Station"
            }
        },
        {
            "type": "node",
            "id": 3142855953,
            "lat": -36.0564454,
            "lon": 146.458599,
            "tags": {
                "amenity": "police",
                "name": "Rutherglen Police Station",
                "wikidata": "Q28927208"
            }
        },
        {
            "type": "node",
            "id": 3147217682,
            "lat": -36.0165755,
            "lon": 146.0129119,
            "tags": {
                "amenity": "fire_station",
                "name": "Yarrawonga CFA Station"
            }
        },
        {
            "type": "node",
            "id": 3152045344,
            "lat": -38.375025,
            "lon": 147.1888914,
            "tags": {
                "addr:city": "Seaspray",
                "addr:housenumber": "1",
                "addr:postcode": "3851",
                "addr:street": "Irving Street",
                "amenity": "fire_station",
                "name": "Seaspray Fire Station CFA",
                "operator": "Country Fire Authority"
            }
        },
        {
            "type": "node",
            "id": 3153600704,
            "lat": -38.2088291,
            "lon": 147.4027316,
            "tags": {
                "amenity": "fire_station",
                "name": "Golden Beach Fire Station CFA",
                "operator": "Country Fire Authority"
            }
        },
        {
            "type": "node",
            "id": 3158704459,
            "lat": -36.1583378,
            "lon": 146.0181764,
            "tags": {
                "amenity": "fire_station",
                "name": "Wilby CFA Station"
            }
        },
        {
            "type": "node",
            "id": 3160653580,
            "lat": -37.036996,
            "lon": 141.2961947,
            "tags": {
                "addr:housenumber": "15",
                "addr:street": "Amos Street",
                "amenity": "fire_station",
                "name": "Edenhope Fire Station CFA",
                "operator": "Country Fire Authority",
                "operator:wikidata": "Q13632973",
                "phone": "+61 3 5585 1749",
                "website": "https://www.cfa.vic.gov.au/"
            }
        },
        {
            "type": "node",
            "id": 3160806230,
            "lat": -37.0363151,
            "lon": 141.2927857,
            "tags": {
                "addr:housenumber": "5",
                "addr:street": "Orme Street",
                "amenity": "police",
                "name": "Edenhope Police Station",
                "operator": "Victoria Police",
                "phone": "+61 3 5585 1003",
                "website": "https://www.police.vic.gov.au/",
                "wikidata": "Q28926889"
            }
        },
        {
            "type": "node",
            "id": 3171530546,
            "lat": -37.7073679,
            "lon": 147.83096,
            "tags": {
                "addr:housenumber": "45",
                "addr:street": "Main Street",
                "amenity": "police",
                "name": "Bruthen Police Station",
                "operator": "Victoria Police",
                "operator:wikidata": "Q1406658",
                "phone": "+61 3 5157 5221",
                "website": "https://www.police.vic.gov.au/",
                "wikidata": "Q28927013"
            }
        },
        {
            "type": "node",
            "id": 3171556168,
            "lat": -37.7066566,
            "lon": 147.830863,
            "tags": {
                "addr:housenumber": "8",
                "addr:street": "Church Street",
                "amenity": "fire_station",
                "name": "Bruthen Fire Station CFA",
                "operator": "Country Fire Authority",
                "operator:wikidata": "Q13632973",
                "phone": "+61 3 5157 5500",
                "website": "https://www.cfa.vic.gov.au/"
            }
        },