{
    "https://www.domain.com.au/19-raglan-street-port-melbourne-vic-3207-17240565?topspot=1": {
        "name": "19 Raglan Street, Port Melbourne VIC 3207",
        "property_type": "House",
        "cost_text": "$650 weekly",
        "latitude": -37.8358107,
        "longitude": 144.9477303,
        "rooms": [
            "2 Beds",
            "1 Bath"
        ],
        "parking": "N/A",
        "date_available": "Tuesday, 15th October 2024",
        "desc": "Jemma Wilksch</"
    },
    "https://www.domain.com.au/136-beach-road-sandringham-vic-3191-17243127": {
        "name": "136 Beach Road, Sandringham VIC 3191",
        "property_type": "House",
        "cost_text": "$1,400.00",
        "latitude": -37.9543451,
        "longitude": 145.00605,
        "rooms": [
            "3 Beds",
            "2 Baths"
        ],
        "parking": "4 Parking",
        "date_available": "Friday, 25th October 2024",
        "desc": "Simone Buckley</"
    },
    "https://www.domain.com.au/19-dingley-court-dingley-village-vic-3172-17243105": {
        "name": "19 Dingley Court, Dingley Village VIC 3172",
        "property_type": "House",
        "cost_text": "$550.00",
        "latitude": -37.98592,
        "longitude": 145.1395348,
        "rooms": [
            "3 Beds",
            "1 Bath"
        ],
        "parking": "1 Parking",
        "date_available": "Friday, 11th October 2024",
        "desc": "Katie Davidson</"
    },
    "https://www.domain.com.au/98-broadway-elwood-vic-3184-17243074": {
        "name": "98 Broadway, Elwood VIC 3184",
        "property_type": "House",
        "cost_text": "$2,700 weekly",
        "latitude": -37.8814882,
        "longitude": 144.9823193,
        "rooms": [
            "5 Beds",
            "4 Baths"
        ],
        "parking": "3 Parking",
        "date_available": "Friday, 18th October 2024",
        "desc": "Jemma Wilksch</"
    },
    "https://www.domain.com.au/51-dunstan-parade-port-melbourne-vic-3207-17242995": {
        "name": "51 Dunstan Parade, Port Melbourne VIC 3207",
        "property_type": "House",
        "cost_text": "$650 weekly",
        "latitude": -37.8367153,
        "longitude": 144.9189918,
        "rooms": [
            "3 Beds",
            "1 Bath"
        ],
        "parking": "N/A",
        "date_available": "Tuesday, 29th October 2024",
        "desc": "Jessica Brindley</"
    },
    "https://www.domain.com.au/10-thomas-street-windsor-vic-3181-17242798": {
        "name": "10 Thomas Street, Windsor VIC 3181",
        "property_type": "House",
        "cost_text": "$750.00",
        "latitude": -37.8537153,
        "longitude": 144.9908807,
        "rooms": [
            "2 Beds",
            "1 Bath"
        ],
        "parking": "N/A",
        "date_available": "Friday, 11th October 2024",
        "desc": "Paul West</"
    },
    "https://www.domain.com.au/156-mills-street-albert-park-vic-3206-17242366": {
        "name": "156 Mills Street, Albert Park VIC 3206",
        "property_type": "House",
        "cost_text": "$1600 Per Week",
        "latitude": -37.8496007,
        "longitude": 144.9554035,
        "rooms": [
            "2 Beds",
            "2 Baths"
        ],
        "parking": "1 Parking",
        "date_available": "Available Now",
        "desc": "Debbie Davut</"
    },
    "https://www.domain.com.au/83-wellington-street-kew-vic-3101-17242320": {
        "name": "83 Wellington Street, Kew VIC 3101",
        "property_type": "House",
        "cost_text": "$1,600.00",
        "latitude": -37.8099506,
        "longitude": 145.0392391,
        "rooms": [
            "4 Beds",
            "2 Baths"
        ],
        "parking": "3 Parking",
        "date_available": "Wednesday, 6th November 2024",
        "desc": "Oscar Sturm</"
    },
    "https://www.domain.com.au/38-miller-street-highett-vic-3190-17242286": {
        "name": "38 Miller Street, Highett VIC 3190",
        "property_type": "House",
        "cost_text": "$695.00",
        "latitude": -37.9482988,
        "longitude": 145.0304535,
        "rooms": [
            "3 Beds",
            "2 Baths"
        ],
        "parking": "2 Parking",
        "date_available": "Friday, 25th October 2024",
        "desc": "Simone Buckley</"
    },
    "https://www.domain.com.au/51-sutherland-street-brunswick-vic-3056-16241365": {
        "name": "51 Sutherland Street, Brunswick VIC 3056",
        "property_type": "House",
        "cost_text": "$650",
        "latitude": -37.7607993,
        "longitude": 144.9547904,
        "rooms": [
            "3 Beds",
            "1 Bath"
        ],
        "parking": "3 Parking",
        "date_available": "Wednesday, 30th October 2024",
        "desc": "Christian Neofotistos</"
    },
    "https://www.domain.com.au/60a-brougham-street-kew-vic-3101-17241967": {
        "name": "60A Brougham Street, Kew VIC 3101",
        "property_type": "House",
        "cost_text": "$680 weekly",
        "latitude": -37.8038499,
        "longitude": 145.0309377,
        "rooms": [
            "2 Beds",
            "1 Bath"
        ],
        "parking": "1 Parking",
        "date_available": "Tuesday, 12th November 2024",
        "desc": "Edward Guo</"
    },
    "https://www.domain.com.au/17-watercolour-drive-mernda-vic-3754-15983762": {
        "name": "17 Watercolour Drive, Mernda VIC 3754",
        "property_type": "House",
        "cost_text": "$620 per week",
        "latitude": -37.6039241,
        "longitude": 145.0765116,
        "rooms": [
            "4 Beds",
            "2 Baths"
        ],
        "parking": "2 Parking",
        "date_available": "Monday, 25th November 2024",
        "desc": "Angus Brayshaw</"
    },
    "https://www.domain.com.au/5-hambledon-road-hawthorn-vic-3122-17241784": {
        "name": "5 Hambledon Road, Hawthorn VIC 3122",
        "property_type": "House",
        "cost_text": "$875.00",
        "latitude": -37.8328756,
        "longitude": 145.0281557,
        "rooms": [
            "3 Beds",
            "2 Baths"
        ],
        "parking": "2 Parking",
        "date_available": "Thursday, 10th October 2024",
        "desc": "Oscar Sturm</"
    },
    "https://www.domain.com.au/14-gloucester-road-ashburton-vic-3147-17241612": {
        "name": "14 Gloucester Road, Ashburton VIC 3147",
        "property_type": "House",
        "cost_text": "$1,050 weekly",
        "latitude": -37.8659612,
        "longitude": 145.0883679,
        "rooms": [
            "4 Beds",
            "3 Baths"
        ],
        "parking": "1 Parking",
        "date_available": "Monday, 11th November 2024",
        "desc": "Emily Nash</"
    },
    "https://www.domain.com.au/114-anniversary-avenue-wyndham-vale-vic-3024-15110615": {
        "name": "114 Anniversary Avenue, Wyndham Vale VIC 3024",
        "property_type": "House",
        "cost_text": "$450",
        "latitude": -37.8515822,
        "longitude": 144.5943441,
        "rooms": [
            "4 Beds",
            "2 Baths"
        ],
        "parking": "2 Parking",
        "date_available": "Friday, 11th October 2024",
        "desc": "Certainty  Property Vic</"
    },
    "https://www.domain.com.au/9-caravan-street-balwyn-vic-3103-17241569": {
        "name": "9 Caravan Street, Balwyn VIC 3103",
        "property_type": "House",
        "cost_text": "$895.00",
        "latitude": -37.8049417,
        "longitude": 145.0971979,
        "rooms": [
            "3 Beds",
            "2 Baths"
        ],
        "parking": "2 Parking",
        "date_available": "Saturday, 12th October 2024",
        "desc": "Leo Zuo</"
    },
    "https://www.domain.com.au/16-ruabon-road-toorak-vic-3142-17241535": {
        "name": "16 Ruabon Road, Toorak VIC 3142",
        "property_type": "House",
        "cost_text": "$1,300.00",
        "latitude": -37.8478022,
        "longitude": 145.0085315,
        "rooms": [
            "3 Beds",
            "2 Baths"
        ],
        "parking": "2 Parking",
        "date_available": "Monday, 4th November 2024",
        "desc": "Danielle Crumblehulme</"
    },
    "https://www.domain.com.au/15-john-street-kew-vic-3101-17241507": {
        "name": "15 John Street, Kew VIC 3101",
        "property_type": "House",
        "cost_text": "$2,500.00",
        "latitude": -37.81097159999999,
        "longitude": 145.0517981,
        "rooms": [
            "4 Beds",
            "3 Baths"
        ],
        "parking": "2 Parking",
        "date_available": "Thursday, 21st November 2024",
        "desc": "Leo Zuo</"
    },
    "https://www.domain.com.au/18-st-john-street-windsor-vic-3181-17241395": {
        "name": "18 St John Street, Windsor VIC 3181",
        "property_type": "House",
        "cost_text": "$800.00",
        "latitude": -37.852355,
        "longitude": 144.990383,
        "rooms": [
            "2 Beds",
            "1 Bath"
        ],
        "parking": "N/A",
        "date_available": "Thursday, 17th October 2024",
        "desc": "Danielle Crumblehulme</"
    },
    "https://www.domain.com.au/538-victoria-parade-east-melbourne-vic-3002-17212617": {
        "name": "538 Victoria Parade, East Melbourne VIC 3002",
        "property_type": "House",
        "cost_text": "$570 pw",
        "latitude": -37.8101552,
        "longitude": 144.9894319,
        "rooms": [
            "2 Beds",
            "1 Bath"
        ],
        "parking": "N/A",
        "date_available": "Friday, 11th October 2024",
        "desc": "Stephanie Allen</"
    },
    "https://www.domain.com.au/5-derham-drive-point-cook-vic-3030-17241380": {
        "name": "5 Derham Drive, Point Cook VIC 3030",
        "property_type": "House",
        "cost_text": "$550 per week",
        "latitude": -37.8912592,
        "longitude": 144.7253077,
        "rooms": [
            "4 Beds",
            "2 Baths"
        ],
        "parking": "2 Parking",
        "date_available": "Available Now",
        "desc": "Alana Davis</"
    },
    "https://www.domain.com.au/32-raynes-park-road-hampton-vic-3188-17241240": {
        "name": "32 Raynes Park Road, Hampton VIC 3188",
        "property_type": "House",
        "cost_text": "$680.00",
        "latitude": -37.936822,
        "longitude": 145.0150906,
        "rooms": [
            "3 Beds",
            "1 Bath"
        ],
        "parking": "2 Parking",
        "date_available": "Friday, 11th October 2024",
        "desc": "Simone Buckley</"
    },
    "https://www.domain.com.au/77-pienza-road-fraser-rise-vic-3336-16666894": {
        "name": "77 Pienza Road, Fraser Rise VIC 3336",
        "property_type": "House",
        "cost_text": "$520",
        "latitude": -37.71333630000001,
        "longitude": 144.718356,
        "rooms": [
            "4 Beds",
            "2 Baths"
        ],
        "parking": "2 Parking",
        "date_available": "Friday, 25th October 2024",
        "desc": "Certainty  Property Vic</"
    },
    "https://www.domain.com.au/113-burnley-st-richmond-vic-3121-17241227": {
        "name": "113 Burnley St, Richmond VIC 3121",
        "property_type": "House",
        "cost_text": "$720 weekly",
        "latitude": -37.8158946,
        "longitude": 145.0091938,
        "rooms": [
            "2 Beds",
            "1 Bath"
        ],
        "parking": "2 Parking",
        "date_available": "Available Now",
        "desc": "Ysabella Dimitrakopoulos</"
    },
    "https://www.domain.com.au/50-caroline-crescent-blackburn-north-vic-3130-17241219": {
        "name": "50 Caroline Crescent, Blackburn North VIC 3130",
        "property_type": "House",
        "cost_text": "$610.00",
        "latitude": -37.8025844,
        "longitude": 145.1468411,
        "rooms": [
            "3 Beds",
            "1 Bath"
        ],
        "parking": "1 Parking",
        "date_available": "Friday, 11th October 2024",
        "desc": "Leo Zhang</"
    },
    "https://www.domain.com.au/167-simpson-street-east-melbourne-vic-3002-17241173": {
        "name": "167 Simpson Street, East Melbourne VIC 3002",
        "property_type": "House",
        "cost_text": "$760 pw",
        "latitude": -37.8105433,
        "longitude": 144.9885309,
        "rooms": [
            "2 Beds",
            "1 Bath"
        ],
        "parking": "1 Parking",
        "date_available": "Friday, 11th October 2024",
        "desc": "Stephanie Allen</"
    },
    "https://www.domain.com.au/2-solomon-street-mount-waverley-vic-3149-16125015": {
        "name": "2 Solomon Street, Mount Waverley VIC 3149",
        "property_type": "House",
        "cost_text": "$880",
        "latitude": -37.8878697,
        "longitude": 145.1085892,
        "rooms": [
            "5 Beds",
            "3 Baths"
        ],
        "parking": "4 Parking",
        "date_available": "Monday, 21st October 2024",
        "desc": "Matthew Swinnerton</"
    },
    "https://www.domain.com.au/18-dower-street-camberwell-vic-3124-17241085": {
        "name": "18 Dower Street, Camberwell VIC 3124",
        "property_type": "House",
        "cost_text": "$2000 Per Week",
        "latitude": -37.8378123,
        "longitude": 145.0951245,
        "rooms": [
            "5 Beds",
            "5 Baths"
        ],
        "parking": "2 Parking",
        "date_available": "Thursday, 31st October 2024",
        "desc": "Dylan Archer</"
    },
    "https://www.domain.com.au/191-daley-street-glenroy-vic-3046-17241041": {
        "name": "191 Daley Street, Glenroy VIC 3046",
        "property_type": "House",
        "cost_text": "$435.00",
        "latitude": -37.6960871,
        "longitude": 144.9179343,
        "rooms": [
            "2 Beds",
            "1 Bath"
        ],
        "parking": "2 Parking",
        "date_available": "Available Now",
        "desc": "Kerttu  Luik</"
    },
    "https://www.domain.com.au/89-delbridge-street-fitzroy-north-vic-3068-17240989": {
        "name": "89 Delbridge Street, Fitzroy North VIC 3068",
        "property_type": "House",
        "cost_text": "$800.00",
        "latitude": -37.78557199999999,
        "longitude": 144.9861034,
        "rooms": [
            "3 Beds",
            "1 Bath"
        ],
        "parking": "1 Parking",
        "date_available": "Monday, 28th October 2024",
        "desc": "Alicia Cannizzaro</"
    },
    "https://www.domain.com.au/25-acacia-avenue-mentone-vic-3194-17240957": {
        "name": "25 Acacia Avenue, Mentone VIC 3194",
        "property_type": "House",
        "cost_text": "$675.00",
        "latitude": -37.98235469999999,
        "longitude": 145.0852729,
        "rooms": [
            "2 Beds",
            "1 Bath"
        ],
        "parking": "1 Parking",
        "date_available": "Friday, 1st November 2024",
        "desc": "Kerry Patounas</"
    },
    "https://www.domain.com.au/34-iffla-street-south-melbourne-vic-3205-17240915": {
        "name": "34 Iffla Street, South Melbourne VIC 3205",
        "property_type": "House",
        "cost_text": "$850 pw",
        "latitude": -37.8368493,
        "longitude": 144.9501816,
        "rooms": [
            "2 Beds",
            "2 Baths"
        ],
        "parking": "N/A",
        "date_available": "Saturday, 30th November 2024",
        "desc": "Angie Vakrinos</"
    },
    "https://www.domain.com.au/13-waratah-avenue-burwood-vic-3125-17240832": {
        "name": "13 Waratah Avenue, Burwood VIC 3125",
        "property_type": "House",
        "cost_text": "$850.00",
        "latitude": -37.84422230000001,
        "longitude": 145.0984884,
        "rooms": [
            "3 Beds",
            "1 Bath"
        ],
        "parking": "2 Parking",
        "date_available": "Available Now",
        "desc": "Ross Crouch</"
    },
    "https://www.domain.com.au/5-gordon-crescent-black-rock-vic-3193-17240809": {
        "name": "5 Gordon Crescent, Black Rock VIC 3193",
        "property_type": "House",
        "cost_text": "$1,250.00",
        "latitude": -37.9724223,
        "longitude": 145.0149554,
        "rooms": [
            "3 Beds",
            "2 Baths"
        ],
        "parking": "2 Parking",
        "date_available": "Friday, 1st November 2024",
        "desc": "Alvin Vitor</"
    },
    "https://www.domain.com.au/42-davies-street-brunswick-vic-3056-17240797": {
        "name": "42 Davies Street, Brunswick VIC 3056",
        "property_type": "House",
        "cost_text": "$1,200",
        "latitude": -37.7571454,
        "longitude": 144.9679265,
        "rooms": [
            "5 Beds",
            "1 Bath"
        ],
        "parking": "2 Parking",
        "date_available": "Available Now",
        "desc": "Christian Neofotistos</"
    },
    "https://www.domain.com.au/3-pittsburg-road-kalkallo-vic-3064-17240748": {
        "name": "3 Pittsburg Road, Kalkallo VIC 3064",
        "property_type": "House",
        "cost_text": "$500 PER WEEK",
        "latitude": -37.519677,
        "longitude": 144.9594672,
        "rooms": [
            "4 Beds",
            "3 Baths"
        ],
        "parking": "1 Parking",
        "date_available": "Available Now",
        "desc": "Mary Corso</"
    },
    "https://www.domain.com.au/15b-nepean-avenue-hampton-east-vic-3188-17240640": {
        "name": "15B Nepean Avenue, Hampton East VIC 3188",
        "property_type": "House",
        "cost_text": "$1,200.00",
        "latitude": -37.9347008,
        "longitude": 145.0287326,
        "rooms": [
            "4 Beds",
            "3 Baths"
        ],
        "parking": "2 Parking",
        "date_available": "Tuesday, 22nd October 2024",
        "desc": "Molly Rogerson</"
    },
    "https://www.domain.com.au/69-kennedy-street-bentleigh-east-vic-3165-17240612": {
        "name": "69 Kennedy Street, Bentleigh East VIC 3165",
        "property_type": "House",
        "cost_text": "$720.00",
        "latitude": -37.9196609,
        "longitude": 145.0808924,
        "rooms": [
            "3 Beds",
            "2 Baths"
        ],
        "parking": "2 Parking",
        "date_available": "Available Now",
        "desc": "Monique Wood</"
    },
    "https://www.domain.com.au/65-o-grady-street-albert-park-vic-3206-17240567": {
        "name": "65 O'Grady Street, Albert Park VIC 3206",
        "property_type": "House",
        "cost_text": "$780.00",
        "latitude": -37.8432363,
        "longitude": 144.9530816,
        "rooms": [
            "2 Beds",
            "1 Bath"
        ],
        "parking": "N/A",
        "date_available": "Friday, 11th October 2024",
        "desc": "Neil Harris</"
    },
    "https://www.domain.com.au/16-wattle-street-thomastown-vic-3074-17240547": {
        "name": "16 Wattle Street, Thomastown VIC 3074",
        "property_type": "House",
        "cost_text": "$460 pw",
        "latitude": -37.6780106,
        "longitude": 145.028674,
        "rooms": [
            "3 Beds",
            "1 Bath"
        ],
        "parking": "1 Parking",
        "date_available": "Available Now",
        "desc": "Clementina Tralongo</"
    },
    "https://www.domain.com.au/11-toolern-drive-mernda-vic-3754-16662882": {
        "name": "11 Toolern Drive, Mernda VIC 3754",
        "property_type": "House",
        "cost_text": "$650 per week",
        "latitude": -37.6051054,
        "longitude": 145.0613059,
        "rooms": [
            "4 Beds",
            "2 Baths"
        ],
        "parking": "2 Parking",
        "date_available": "Wednesday, 13th November 2024",
        "desc": "Chris Bai</"
    },
    "https://www.domain.com.au/23-clynden-avenue-malvern-east-vic-3145-17240453": {
        "name": "23 Clynden Avenue, Malvern East VIC 3145",
        "property_type": "House",
        "cost_text": "$680 per week",
        "latitude": -37.8693674,
        "longitude": 145.0622984,
        "rooms": [
            "2 Beds",
            "1 Bath"
        ],
        "parking": "N/A",
        "date_available": "Friday, 25th October 2024",
        "desc": "Lauren Jackson </"
    },
    "https://www.domain.com.au/57-bent-street-northcote-vic-3070-17237609": {
        "name": "57 Bent Street, Northcote VIC 3070",
        "property_type": "House",
        "cost_text": "$700.00",
        "latitude": -37.7672157,
        "longitude": 144.9947586,
        "rooms": [
            "2 Beds",
            "1 Bath"
        ],
        "parking": "N/A",
        "date_available": "Tuesday, 12th November 2024",
        "desc": "Alicia Cannizzaro</"
    },
    "https://www.domain.com.au/1-preston-street-mckinnon-vic-3204-17240393": {
        "name": "1 Preston Street, McKinnon VIC 3204",
        "property_type": "House",
        "cost_text": "$860 per week",
        "latitude": -37.9109939,
        "longitude": 145.0530331,
        "rooms": [
            "3 Beds",
            "2 Baths"
        ],
        "parking": "1 Parking",
        "date_available": "Thursday, 7th November 2024",
        "desc": "Vivian Hughes</"
    },
    "https://www.domain.com.au/57-cratloe-road-mount-waverley-vic-3149-17240375": {
        "name": "57 Cratloe Road, Mount Waverley VIC 3149",
        "property_type": "House",
        "cost_text": "$690 weekly",
        "latitude": -37.8621612,
        "longitude": 145.1254916,
        "rooms": [
            "3 Beds",
            "2 Baths"
        ],
        "parking": "2 Parking",
        "date_available": "Thursday, 7th November 2024",
        "desc": "Amy Ma</"
    },
    "https://www.domain.com.au/127-tarana-avenue-glenroy-vic-3046-17240361": {
        "name": "127 Tarana Avenue, Glenroy VIC 3046",
        "property_type": "House",
        "cost_text": "$680",
        "latitude": -37.707912,
        "longitude": 144.9077591,
        "rooms": [
            "4 Beds",
            "1 Bath"
        ],
        "parking": "1 Parking",
        "date_available": "Friday, 11th October 2024",
        "desc": "Liz Haughey</"
    },
    "https://www.domain.com.au/17a-rundle-street-wodonga-vic-3690-17240350": {
        "name": "17A Rundle Street, Wodonga VIC 3690",
        "property_type": "House",
        "cost_text": "$400 per week",
        "latitude": -36.1353722,
        "longitude": 146.8835101,
        "rooms": [
            "2 Beds",
            "1 Bath"
        ],
        "parking": "1 Parking",
        "date_available": "Friday, 8th November 2024",
        "desc": "Jacquie Sterk</"
    },
    "https://www.domain.com.au/137-spensley-street-clifton-hill-vic-3068-17240286": {
        "name": "137 Spensley Street, Clifton Hill VIC 3068",
        "property_type": "House",
        "cost_text": "$1,200.00",
        "latitude": -37.7876994,
        "longitude": 145.0012179,
        "rooms": [
            "4 Beds",
            "2 Baths"
        ],
        "parking": "1 Parking",
        "date_available": "Wednesday, 9th October 2024",
        "desc": "Oscar Sturm</"
    },
    "https://www.domain.com.au/54-second-street-black-rock-vic-3193-17240284": {
        "name": "54 Second Street, Black Rock VIC 3193",
        "property_type": "House",
        "cost_text": "$750.00",
        "latitude": -37.9790214,
        "longitude": 145.024792,
        "rooms": [
            "4 Beds",
            "2 Baths"
        ],
        "parking": "2 Parking",
        "date_available": "Saturday, 23rd November 2024",
        "desc": "Stephanie Pascoe</"
    },
    "https://www.domain.com.au/62-lilydale-grove-hawthorn-east-vic-3123-17240251": {
        "name": "62 Lilydale Grove, Hawthorn East VIC 3123",
        "property_type": "House",
        "cost_text": "$1,050.00",
        "latitude": -37.8235518,
        "longitude": 145.0503307,
        "rooms": [
            "3 Beds",
            "2 Baths"
        ],
        "parking": "2 Parking",
        "date_available": "Friday, 25th October 2024",
        "desc": "Nathan Roberts</"
    },
    "https://www.domain.com.au/9-robinson-street-prahran-vic-3181-17240188": {
        "name": "9 Robinson Street, Prahran VIC 3181",
        "property_type": "House",
        "cost_text": "$890",
        "latitude": -37.84875,
        "longitude": 145.0038943,
        "rooms": [
            "3 Beds",
            "1 Bath"
        ],
        "parking": "N/A",
        "date_available": "Available Now",
        "desc": "Danielle Boyd</"
    },
    "https://www.domain.com.au/7-robinson-street-prahran-vic-3181-17240187": {
        "name": "7 Robinson Street, Prahran VIC 3181",
        "property_type": "House",
        "cost_text": "$840",
        "latitude": -37.84874,
        "longitude": 145.0038263,
        "rooms": [
            "3 Beds",
            "1 Bath"
        ],
        "parking": "N/A",
        "date_available": "Available Now",
        "desc": "Danielle Boyd</"
    },
    "https://www.domain.com.au/1-6-linton-street-balaclava-vic-3183-17240147": {
        "name": "1/6 Linton Street, Balaclava VIC 3183",
        "property_type": "House",
        "cost_text": "$785 pw",
        "latitude": -37.8662152,
        "longitude": 144.9929333,
        "rooms": [
            "2 Beds",
            "1 Bath"
        ],
        "parking": "1 Parking",
        "date_available": "Friday, 25th October 2024",
        "desc": "Artem Chereshkov</"
    },
    "https://www.domain.com.au/23-waterdale-place-aspendale-gardens-vic-3195-17240142": {
        "name": "23 Waterdale Place, Aspendale Gardens VIC 3195",
        "property_type": "House",
        "cost_text": "$695.00",
        "latitude": -38.0212632,
        "longitude": 145.1149872,
        "rooms": [
            "3 Beds",
            "2 Baths"
        ],
        "parking": "1 Parking",
        "date_available": "Friday, 11th October 2024",
        "desc": "Kelly Amor</"
    },
    "https://www.domain.com.au/26-mangarra-road-canterbury-vic-3126-17240136": {
        "name": "26 Mangarra Road, Canterbury VIC 3126",
        "property_type": "House",
        "cost_text": "$1,800.00",
        "latitude": -37.8188126,
        "longitude": 145.0694745,
        "rooms": [
            "5 Beds",
            "4 Baths"
        ],
        "parking": "2 Parking",
        "date_available": "Tuesday, 29th October 2024",
        "desc": "Leo Zhang</"
    },
    "https://www.domain.com.au/204-610-st-kilda-rd-melbourne-vic-3004-17240120": {
        "name": "204/610 St Kilda Rd, Melbourne VIC 3004",
        "property_type": "House",
        "cost_text": "$700",
        "latitude": -37.8519462,
        "longitude": 144.980719,
        "rooms": [
            "2 Beds",
            "1 Bath"
        ],
        "parking": "1 Parking",
        "date_available": "Available Now",
        "desc": "Thoraya Jeena</"
    },
    "https://www.domain.com.au/137-mount-street-kew-vic-3101-17240114": {
        "name": "137 Mount Street, Kew VIC 3101",
        "property_type": "House",
        "cost_text": "$650.00",
        "latitude": -37.81592990000001,
        "longitude": 145.0588394,
        "rooms": [
            "2 Beds",
            "2 Baths"
        ],
        "parking": "2 Parking",
        "date_available": "Wednesday, 23rd October 2024",
        "desc": "Leo Zhang</"
    },
    "https://www.domain.com.au/26-mcfadzean-avenue-reservoir-vic-3073-17240089": {
        "name": "26 McFadzean Avenue, Reservoir VIC 3073",
        "property_type": "House",
        "cost_text": "$750.00",
        "latitude": -37.706504,
        "longitude": 144.9985237,
        "rooms": [
            "3 Beds",
            "1 Bath"
        ],
        "parking": "2 Parking",
        "date_available": "Sunday, 10th November 2024",
        "desc": "Alicia Cannizzaro</"
    },
    "https://www.domain.com.au/1c-dwyer-street-clifton-hill-vic-3068-17240088": {
        "name": "1C Dwyer Street, Clifton Hill VIC 3068",
        "property_type": "House",
        "cost_text": "$620.00",
        "latitude": -37.7890171,
        "longitude": 145.0026593,
        "rooms": [
            "2 Beds",
            "1 Bath"
        ],
        "parking": "1 Parking",
        "date_available": "Available Now",
        "desc": "Jayde Cashion</"
    },
    "https://www.domain.com.au/12-kadana-st-glenroy-vic-3046-17240044": {
        "name": "12 Kadana St, Glenroy VIC 3046",
        "property_type": "House",
        "cost_text": "$500 weekly",
        "latitude": -37.7117148,
        "longitude": 144.9054788,
        "rooms": [
            "2 Beds",
            "1 Bath"
        ],
        "parking": "1 Parking",
        "date_available": "Friday, 15th November 2024",
        "desc": "Amber Brombara</"
    },
    "https://www.domain.com.au/993-riversdale-road-surrey-hills-vic-3127-17240043": {
        "name": "993 Riversdale Road, Surrey Hills VIC 3127",
        "property_type": "House",
        "cost_text": "$795.00",
        "latitude": -37.8359633,
        "longitude": 145.1000654,
        "rooms": [
            "4 Beds",
            "3 Baths"
        ],
        "parking": "4 Parking",
        "date_available": "Available Now",
        "desc": "Leo Zuo</"
    },
    "https://www.domain.com.au/14-white-street-windsor-vic-3181-17240022": {
        "name": "14 White Street, Windsor VIC 3181",
        "property_type": "House",
        "cost_text": "$1,200.00",
        "latitude": -37.8550443,
        "longitude": 144.9940703,
        "rooms": [
            "3 Beds",
            "2 Baths"
        ],
        "parking": "2 Parking",
        "date_available": "Friday, 15th November 2024",
        "desc": "Ricci Sauler</"
    },
    "https://www.domain.com.au/47-magnolia-rd-gardenvale-vic-3185-16656177": {
        "name": "47 Magnolia Rd, Gardenvale VIC 3185",
        "property_type": "House",
        "cost_text": "$1350 per week",
        "latitude": -37.8971026,
        "longitude": 145.0100261,
        "rooms": [
            "3 Beds",
            "2 Baths"
        ],
        "parking": "4 Parking",
        "date_available": "Saturday, 2nd November 2024",
        "desc": "Amy Fiske</"
    },
    "https://www.domain.com.au/59-freesia-drive-wallan-vic-3756-17239631": {
        "name": "59 Freesia Drive, Wallan VIC 3756",
        "property_type": "House",
        "cost_text": "$460 PER WEEK",
        "latitude": -37.4278977,
        "longitude": 145.0004884,
        "rooms": [
            "3 Beds",
            "1 Bath"
        ],
        "parking": "2 Parking",
        "date_available": "Available Now",
        "desc": "Mary Corso</"
    },
    "https://www.domain.com.au/89-91-turner-street-abbotsford-vic-3067-17239513": {
        "name": "89-91 Turner Street, Abbotsford VIC 3067",
        "property_type": "House",
        "cost_text": "$1,550.00",
        "latitude": -37.7996007,
        "longitude": 144.9986735,
        "rooms": [
            "4 Beds",
            "2 Baths"
        ],
        "parking": "2 Parking",
        "date_available": "Monday, 30th December 2024",
        "desc": "Jayde Cashion</"
    },
    "https://www.domain.com.au/15a-weir-street-kew-vic-3101-17239451": {
        "name": "15A Weir Street, Kew VIC 3101",
        "property_type": "House",
        "cost_text": "$870 Per Week",
        "latitude": -37.8040656,
        "longitude": 145.0518967,
        "rooms": [
            "2 Beds",
            "2 Baths"
        ],
        "parking": "2 Parking",
        "date_available": "Available Now",
        "desc": "Dylan Archer</"
    },
    "https://www.domain.com.au/29-ward-street-ashburton-vic-3147-17239412": {
        "name": "29 Ward Street, Ashburton VIC 3147",
        "property_type": "House",
        "cost_text": "$950.00",
        "latitude": -37.8658599,
        "longitude": 145.0795364,
        "rooms": [
            "3 Beds",
            "2 Baths"
        ],
        "parking": "2 Parking",
        "date_available": "Available Now",
        "desc": "Grace Morley</"
    },
    "https://www.domain.com.au/34-bayville-drive-dingley-village-vic-3172-17239290": {
        "name": "34 Bayville Drive, Dingley Village VIC 3172",
        "property_type": "House",
        "cost_text": "$530.00",
        "latitude": -37.9871215,
        "longitude": 145.1222683,
        "rooms": [
            "3 Beds",
            "1 Bath"
        ],
        "parking": "2 Parking",
        "date_available": "Friday, 25th October 2024",
        "desc": "Katie Davidson</"
    },
    "https://www.domain.com.au/33-bell-street-fitzroy-vic-3065-17239131": {
        "name": "33 Bell Street, Fitzroy VIC 3065",
        "property_type": "House",
        "cost_text": "1,100 pw",
        "latitude": -37.7999465,
        "longitude": 144.975995,
        "rooms": [
            "3 Beds",
            "1 Bath"
        ],
        "parking": "N/A",
        "date_available": "Wednesday, 16th October 2024",
        "desc": "Sara Sis</"
    },
    "https://www.domain.com.au/34-middleborough-road-burwood-east-vic-3151-17239008": {
        "name": "34 Middleborough Road, Burwood East VIC 3151",
        "property_type": "House",
        "cost_text": "$600.00",
        "latitude": -37.8540759,
        "longitude": 145.1323605,
        "rooms": [
            "3 Beds",
            "1 Bath"
        ],
        "parking": "3 Parking",
        "date_available": "Available Now",
        "desc": "Jasmine Palioportas</"
    },
    "https://www.domain.com.au/1-shirley-grove-st-kilda-east-vic-3183-17238931": {
        "name": "1 Shirley Grove, St Kilda East VIC 3183",
        "property_type": "House",
        "cost_text": "$850 pw",
        "latitude": -37.8603071,
        "longitude": 145.0054237,
        "rooms": [
            "3 Beds",
            "1 Bath"
        ],
        "parking": "3 Parking",
        "date_available": "Monday, 4th November 2024",
        "desc": "Artem Chereshkov</"
    },
    "https://www.domain.com.au/366-buckley-street-essendon-vic-3040-17238898": {
        "name": "366 Buckley Street, Essendon VIC 3040",
        "property_type": "House",
        "cost_text": "$575.00",
        "latitude": -37.7538572,
        "longitude": 144.8913244,
        "rooms": [
            "3 Beds",
            "1 Bath"
        ],
        "parking": "2 Parking",
        "date_available": "Monday, 4th November 2024",
        "desc": "Melanie Jones</"
    },
    "https://www.domain.com.au/16-astral-walk-wollert-vic-3750-17238872": {
        "name": "16 Astral Walk, Wollert VIC 3750",
        "property_type": "House",
        "cost_text": "$275",
        "latitude": -37.6127766,
        "longitude": 144.9962606,
        "rooms": [
            "1 Bed",
            "1 Bath"
        ],
        "parking": "N/A",
        "date_available": "Available Now",
        "desc": "Certainty  Property Vic</"
    },
    "https://www.domain.com.au/65-durrant-street-brighton-vic-3186-17185561": {
        "name": "65 Durrant Street, Brighton VIC 3186",
        "property_type": "House",
        "cost_text": "$1500 Per Week",
        "latitude": -37.9117746,
        "longitude": 145.0065243,
        "rooms": [
            "3 Beds",
            "2 Baths"
        ],
        "parking": "1 Parking",
        "date_available": "Available Now",
        "desc": "Megan Taylor</"
    },
    "https://www.domain.com.au/24-lemon-road-balwyn-north-vic-3104-17238864": {
        "name": "24 Lemon Road, Balwyn North VIC 3104",
        "property_type": "House",
        "cost_text": "$680 weekly",
        "latitude": -37.793427,
        "longitude": 145.1026059,
        "rooms": [
            "3 Beds",
            "2 Baths"
        ],
        "parking": "1 Parking",
        "date_available": "Monday, 11th November 2024",
        "desc": "Alexandra Graziano</"
    },
    "https://www.domain.com.au/20-ebden-avenue-black-rock-vic-3193-17238745": {
        "name": "20 Ebden Avenue, Black Rock VIC 3193",
        "property_type": "House",
        "cost_text": "$1,350.00",
        "latitude": -37.9770052,
        "longitude": 145.0177542,
        "rooms": [
            "4 Beds",
            "2 Baths"
        ],
        "parking": "3 Parking",
        "date_available": "Friday, 11th October 2024",
        "desc": "Simone Buckley</"
    },
    "https://www.domain.com.au/66-athelstan-road-camberwell-vic-3124-17238691": {
        "name": "66 Athelstan Road, Camberwell VIC 3124",
        "property_type": "House",
        "cost_text": "$1,500.00",
        "latitude": -37.8437847,
        "longitude": 145.0635653,
        "rooms": [
            "5 Beds",
            "2 Baths"
        ],
        "parking": "1 Parking",
        "date_available": "Available Now",
        "desc": "Jasmine Palioportas</"
    },
    "https://www.domain.com.au/330-new-street-brighton-vic-3186-17238687": {
        "name": "330 New Street, Brighton VIC 3186",
        "property_type": "House",
        "cost_text": "$1,150 weekly",
        "latitude": -37.9035509,
        "longitude": 144.9935825,
        "rooms": [
            "3 Beds",
            "2 Baths"
        ],
        "parking": "2 Parking",
        "date_available": "Thursday, 17th October 2024",
        "desc": "Tina Kelly</"
    },
    "https://www.domain.com.au/37-st-james-park-drive-brighton-vic-3186-17238137": {
        "name": "37 St James Park Drive, Brighton VIC 3186",
        "property_type": "House",
        "cost_text": "$1,590.00",
        "latitude": -37.90301050000001,
        "longitude": 144.9971254,
        "rooms": [
            "4 Beds",
            "3 Baths"
        ],
        "parking": "2 Parking",
        "date_available": "Wednesday, 16th October 2024",
        "desc": "Ben McDonald</"
    },
    "https://www.domain.com.au/21-herbert-street-mornington-vic-3931-17237981": {
        "name": "21 Herbert Street, Mornington VIC 3931",
        "property_type": "House",
        "cost_text": "$720.00",
        "latitude": -38.216424,
        "longitude": 145.0475072,
        "rooms": [
            "3 Beds",
            "2 Baths"
        ],
        "parking": "2 Parking",
        "date_available": "Monday, 14th October 2024",
        "desc": "Kate Morgan</"
    },
    "https://www.domain.com.au/72b-ardoyne-street-black-rock-vic-3193-17237980": {
        "name": "72B Ardoyne Street, Black Rock VIC 3193",
        "property_type": "House",
        "cost_text": "$1,300.00",
        "latitude": -37.9724916,
        "longitude": 145.0249245,
        "rooms": [
            "3 Beds",
            "2 Baths"
        ],
        "parking": "2 Parking",
        "date_available": "Friday, 18th October 2024",
        "desc": "Molly Rogerson</"
    },
    "https://www.domain.com.au/1-112-haughton-road-oakleigh-vic-3166-16855098": {
        "name": "1/112 Haughton Road, Oakleigh VIC 3166",
        "property_type": "House",
        "cost_text": "$700",
        "latitude": -37.9087171,
        "longitude": 145.0986117,
        "rooms": [
            "3 Beds",
            "2 Baths"
        ],
        "parking": "2 Parking",
        "date_available": "Monday, 21st October 2024",
        "desc": "Matthew Swinnerton</"
    },
    "https://www.domain.com.au/40-herbert-street-albert-park-vic-3206-17237613": {
        "name": "40 Herbert Street, Albert Park VIC 3206",
        "property_type": "House",
        "cost_text": "$860.00",
        "latitude": -37.84508750000001,
        "longitude": 144.9583765,
        "rooms": [
            "2 Beds",
            "1 Bath"
        ],
        "parking": "N/A",
        "date_available": "Friday, 25th October 2024",
        "desc": "Jack Alexander</"
    },
    "https://www.domain.com.au/10-ada-street-doncaster-vic-3108-17237497": {
        "name": "10 Ada Street, Doncaster VIC 3108",
        "property_type": "House",
        "cost_text": "$750 weekly",
        "latitude": -37.7897514,
        "longitude": 145.1210519,
        "rooms": [
            "4 Beds",
            "2 Baths"
        ],
        "parking": "2 Parking",
        "date_available": "Tuesday, 12th November 2024",
        "desc": "Emily Nash</"
    },
    "https://www.domain.com.au/2a-graves-street-essendon-vic-3040-17237389": {
        "name": "2a Graves Street, Essendon VIC 3040",
        "property_type": "House",
        "cost_text": "$1,200.00",
        "latitude": -37.7396438,
        "longitude": 144.8969069,
        "rooms": [
            "4 Beds",
            "3 Baths"
        ],
        "parking": "2 Parking",
        "date_available": "Available Now",
        "desc": "Jayde Cashion</"
    },
    "https://www.domain.com.au/51-elm-grove-balaclava-vic-3183-17237206": {
        "name": "51 Elm Grove, Balaclava VIC 3183",
        "property_type": "House",
        "cost_text": "$945 weekly",
        "latitude": -37.8750917,
        "longitude": 144.9956598,
        "rooms": [
            "3 Beds",
            "1 Bath"
        ],
        "parking": "1 Parking",
        "date_available": "Wednesday, 23rd October 2024",
        "desc": "Leasing Concierge</"
    },
    "https://www.domain.com.au/132-wattle-valley-road-camberwell-vic-3124-17237084": {
        "name": "132 Wattle Valley Road, Camberwell VIC 3124",
        "property_type": "House",
        "cost_text": "$1,690.00",
        "latitude": -37.8381782,
        "longitude": 145.0810147,
        "rooms": [
            "5 Beds",
            "3 Baths"
        ],
        "parking": "2 Parking",
        "date_available": "Friday, 25th October 2024",
        "desc": "Nathan Roberts</"
    },
    "https://www.domain.com.au/1-sharrow-road-mitcham-vic-3132-17236914": {
        "name": "1 Sharrow Road, Mitcham VIC 3132",
        "property_type": "House",
        "cost_text": "$550 weekly",
        "latitude": -37.8105363,
        "longitude": 145.2075599,
        "rooms": [
            "3 Beds",
            "1 Bath"
        ],
        "parking": "1 Parking",
        "date_available": "Friday, 8th November 2024",
        "desc": "Edward Guo</"
    },
    "https://www.domain.com.au/59-kerr-street-fitzroy-vic-3065-17236878": {
        "name": "59 Kerr Street, Fitzroy VIC 3065",
        "property_type": "House",
        "cost_text": "$1,050.00",
        "latitude": -37.7963524,
        "longitude": 144.9773556,
        "rooms": [
            "3 Beds",
            "2 Baths"
        ],
        "parking": "N/A",
        "date_available": "Available Now",
        "desc": "Oscar Sturm</"
    },
    "https://www.domain.com.au/128-riversdale-road-hawthorn-vic-3122-17236804": {
        "name": "128 Riversdale Road, Hawthorn VIC 3122",
        "property_type": "House",
        "cost_text": "$850.00",
        "latitude": -37.8296517,
        "longitude": 145.0375489,
        "rooms": [
            "3 Beds",
            "1 Bath"
        ],
        "parking": "2 Parking",
        "date_available": "Available Now",
        "desc": "Oscar Sturm</"
    },
    "https://www.domain.com.au/27a-denman-avenue-st-kilda-east-vic-3183-17236723": {
        "name": "27A Denman Avenue, St Kilda East VIC 3183",
        "property_type": "House",
        "cost_text": "$1000 pw",
        "latitude": -37.8715911,
        "longitude": 145.0018122,
        "rooms": [
            "3 Beds",
            "1 Bath"
        ],
        "parking": "2 Parking",
        "date_available": "Friday, 25th October 2024",
        "desc": "Priyanka Basak</"
    },
    "https://www.domain.com.au/59-pascoe-street-glen-iris-vic-3146-17236609": {
        "name": "59 Pascoe Street, Glen Iris VIC 3146",
        "property_type": "House",
        "cost_text": "$675.00",
        "latitude": -37.85999150000001,
        "longitude": 145.0913347,
        "rooms": [
            "3 Beds",
            "1 Bath"
        ],
        "parking": "2 Parking",
        "date_available": "Available Now",
        "desc": "Danielle Crumblehulme</"
    },
    "https://www.domain.com.au/11-wentworth-avenue-sandringham-vic-3191-17236587": {
        "name": "11 Wentworth Avenue, Sandringham VIC 3191",
        "property_type": "House",
        "cost_text": "$1,650.00",
        "latitude": -37.9610898,
        "longitude": 145.0259559,
        "rooms": [
            "4 Beds",
            "3 Baths"
        ],
        "parking": "2 Parking",
        "date_available": "Monday, 18th November 2024",
        "desc": "Amy Ferguson</"
    },
    "https://www.domain.com.au/20-alta-street-canterbury-vic-3126-17236561": {
        "name": "20 Alta Street, Canterbury VIC 3126",
        "property_type": "House",
        "cost_text": "$1,190.00",
        "latitude": -37.8316825,
        "longitude": 145.0779689,
        "rooms": [
            "4 Beds",
            "2 Baths"
        ],
        "parking": "2 Parking",
        "date_available": "Thursday, 14th November 2024",
        "desc": "Thea Toogood</"
    },
    "https://www.domain.com.au/33-claremont-street-mount-eliza-vic-3930-17236548": {
        "name": "33 Claremont Street, Mount Eliza VIC 3930",
        "property_type": "House",
        "cost_text": "$900.00",
        "latitude": -38.2099084,
        "longitude": 145.1017992,
        "rooms": [
            "3 Beds",
            "2 Baths"
        ],
        "parking": "2 Parking",
        "date_available": "Monday, 14th October 2024",
        "desc": "Kate Morgan</"
    },
    "https://www.domain.com.au/52-george-street-oakleigh-vic-3166-17236205": {
        "name": "52 George Street, Oakleigh VIC 3166",
        "property_type": "House",
        "cost_text": "$500",
        "latitude": -37.9055153,
        "longitude": 145.1017908,
        "rooms": [
            "3 Beds",
            "1 Bath"
        ],
        "parking": "1 Parking",
        "date_available": "Thursday, 10th October 2024",
        "desc": "Matthew Swinnerton</"
    },
    "https://www.domain.com.au/2-landcox-street-brighton-east-vic-3187-17236198": {
        "name": "2 Landcox Street, Brighton East VIC 3187",
        "property_type": "House",
        "cost_text": "$2,300.00",
        "latitude": -37.90768,
        "longitude": 145.0146446,
        "rooms": [
            "4 Beds",
            "2 Baths"
        ],
        "parking": "3 Parking",
        "date_available": "Friday, 18th October 2024",
        "desc": "Richard Beck</"
    },
    "https://www.domain.com.au/50-sunnybank-drive-point-cook-vic-3030-17236134": {
        "name": "50 Sunnybank Drive, Point Cook VIC 3030",
        "property_type": "House",
        "cost_text": "$650",
        "latitude": -37.9010805,
        "longitude": 144.7241699,
        "rooms": [
            "4 Beds",
            "3 Baths"
        ],
        "parking": "2 Parking",
        "date_available": "Friday, 1st November 2024",
        "desc": "Lorena Lore</"
    },
    "https://www.domain.com.au/8-silver-street-malvern-vic-3144-17236075": {
        "name": "8 Silver Street, Malvern VIC 3144",
        "property_type": "House",
        "cost_text": "$1,200.00",
        "latitude": -37.8501642,
        "longitude": 145.0375775,
        "rooms": [
            "3 Beds",
            "2 Baths"
        ],
        "parking": "2 Parking",
        "date_available": "Thursday, 31st October 2024",
        "desc": "Grace Morley</"
    },
    "https://www.domain.com.au/402v-162-albert-street-east-melbourne-vic-3002-17235882": {
        "name": "402V/162 Albert Street, East Melbourne VIC 3002",
        "property_type": "House",
        "cost_text": "$600 per week",
        "latitude": -37.8100432,
        "longitude": 144.9855313,
        "rooms": [
            "2 Beds",
            "1 Bath"
        ],
        "parking": "1 Parking",
        "date_available": "Available Now",
        "desc": "DIANA JURISIC</"
    },
    "https://www.domain.com.au/5-15-alexandra-avenue-elsternwick-vic-3185-17235813": {
        "name": "5/15 Alexandra Avenue, Elsternwick VIC 3185",
        "property_type": "House",
        "cost_text": "$550 weekly",
        "latitude": -37.8888404,
        "longitude": 145.0030221,
        "rooms": [
            "2 Beds",
            "1 Bath"
        ],
        "parking": "1 Parking",
        "date_available": "Wednesday, 30th October 2024",
        "desc": "Michelle De Luca</"
    },
    "https://www.domain.com.au/1-1-gracedale-court-strathmore-vic-3041-17235740": {
        "name": "1/1 Gracedale Court, Strathmore VIC 3041",
        "property_type": "Villa",
        "cost_text": "$475 per week",
        "latitude": -37.7400928,
        "longitude": 144.9087839,
        "rooms": [
            "2 Beds",
            "1 Bath"
        ],
        "parking": "1 Parking",
        "date_available": "Friday, 1st November 2024",
        "desc": "Andrew D'Aprano</"
    },
    "https://www.domain.com.au/35-huckerby-street-richmond-vic-3121-17235592": {
        "name": "35 Huckerby Street, Richmond VIC 3121",
        "property_type": "House",
        "cost_text": "$670 weekly",
        "latitude": -37.8263865,
        "longitude": 144.9892298,
        "rooms": [
            "2 Beds",
            "1 Bath"
        ],
        "parking": "N/A",
        "date_available": "Wednesday, 9th October 2024",
        "desc": "Harry Whitford</"
    },
    "https://www.domain.com.au/17-cambridge-street-caulfield-north-vic-3161-17235221": {
        "name": "17 Cambridge Street, Caulfield North VIC 3161",
        "property_type": "House",
        "cost_text": "$695 pw",
        "latitude": -37.862249,
        "longitude": 145.011598,
        "rooms": [
            "2 Beds",
            "2 Baths"
        ],
        "parking": "2 Parking",
        "date_available": "Available Now",
        "desc": "Daniel Hamilton</"
    },
    "https://www.domain.com.au/14-botany-court-dingley-village-vic-3172-17235219": {
        "name": "14 Botany Court, Dingley Village VIC 3172",
        "property_type": "House",
        "cost_text": "$650.00",
        "latitude": -37.9851148,
        "longitude": 145.123916,
        "rooms": [
            "3 Beds",
            "2 Baths"
        ],
        "parking": "2 Parking",
        "date_available": "Available Now",
        "desc": "Katie Davidson</"
    },
    "https://www.domain.com.au/40-victoria-street-windsor-vic-3181-17235146": {
        "name": "40 Victoria Street, Windsor VIC 3181",
        "property_type": "House",
        "cost_text": "$1100 per week",
        "latitude": -37.8527291,
        "longitude": 144.9946734,
        "rooms": [
            "3 Beds",
            "2 Baths"
        ],
        "parking": "N/A",
        "date_available": "Thursday, 24th October 2024",
        "desc": "Mikaele Horsnell</"
    },
    "https://www.domain.com.au/31-leila-street-prahran-vic-3181-17234988": {
        "name": "31 Leila Street, Prahran VIC 3181",
        "property_type": "House",
        "cost_text": "$1,050 per week",
        "latitude": -37.8494922,
        "longitude": 144.998474,
        "rooms": [
            "3 Beds",
            "2 Baths"
        ],
        "parking": "N/A",
        "date_available": "Friday, 25th October 2024",
        "desc": "Grace Gordon</"
    },
    "https://www.domain.com.au/9-nioka-street-chadstone-vic-3148-17234959": {
        "name": "9 Nioka Street, Chadstone VIC 3148",
        "property_type": "House",
        "cost_text": "$500",
        "latitude": -37.8776404,
        "longitude": 145.0978497,
        "rooms": [
            "3 Beds",
            "1 Bath"
        ],
        "parking": "2 Parking",
        "date_available": "Available Now",
        "desc": "David Hua</"
    },
    "https://www.domain.com.au/16-loma-linda-grove-balwyn-north-vic-3104-16377542": {
        "name": "16 Loma Linda Grove, Balwyn North VIC 3104",
        "property_type": "House",
        "cost_text": "$1,260",
        "latitude": -37.8015959,
        "longitude": 145.0948167,
        "rooms": [
            "4 Beds",
            "3 Baths"
        ],
        "parking": "1 Parking",
        "date_available": "Available Now",
        "desc": "David Hua</"
    },
    "https://www.domain.com.au/464-new-street-brighton-vic-3186-17234857": {
        "name": "464 New Street, Brighton VIC 3186",
        "property_type": "House",
        "cost_text": "$1,600.00",
        "latitude": -37.893739,
        "longitude": 144.9955079,
        "rooms": [
            "4 Beds",
            "2 Baths"
        ],
        "parking": "1 Parking",
        "date_available": "Available Now",
        "desc": "Ashleigh Coutts</"
    },
    "https://www.domain.com.au/19-rottness-dr-armstrong-creek-vic-3217-17234548": {
        "name": "19 Rottness Dr, Armstrong Creek VIC 3217",
        "property_type": "House",
        "cost_text": "$520 weekly",
        "latitude": -38.2423047,
        "longitude": 144.362153,
        "rooms": [
            "4 Beds",
            "2 Baths"
        ],
        "parking": "2 Parking",
        "date_available": "Available Now",
        "desc": "Kayla Crea</"
    },
    "https://www.domain.com.au/58a-osborne-street-south-yarra-vic-3141-17234517": {
        "name": "58A Osborne Street, South Yarra VIC 3141",
        "property_type": "House",
        "cost_text": "$700.00",
        "latitude": -37.84363620000001,
        "longitude": 144.9907015,
        "rooms": [
            "2 Beds",
            "1 Bath"
        ],
        "parking": "1 Parking",
        "date_available": "Available Now",
        "desc": "Jack Alexander</"
    },
    "https://www.domain.com.au/159-errol-street-north-melbourne-vic-3051-17234473": {
        "name": "159 Errol Street, North Melbourne VIC 3051",
        "property_type": "House",
        "cost_text": "$700 weekly",
        "latitude": -37.8011782,
        "longitude": 144.9496784,
        "rooms": [
            "2 Beds",
            "1 Bath"
        ],
        "parking": "N/A",
        "date_available": "Friday, 18th October 2024",
        "desc": "Anna Skapetis</"
    },
    "https://www.domain.com.au/103-ingles-street-port-melbourne-vic-3207-16641206": {
        "name": "103 Ingles Street, Port Melbourne VIC 3207",
        "property_type": "House",
        "cost_text": "$665",
        "latitude": -37.8332247,
        "longitude": 144.9460461,
        "rooms": [
            "2 Beds",
            "1 Bath"
        ],
        "parking": "N/A",
        "date_available": "Saturday, 26th October 2024",
        "desc": "Georgie Sinclair</"
    },
    "https://www.domain.com.au/7-rothsay-avenue-burwood-vic-3125-17234191": {
        "name": "7 Rothsay Avenue, Burwood VIC 3125",
        "property_type": "House",
        "cost_text": "$700 pw",
        "latitude": -37.8440887,
        "longitude": 145.1199494,
        "rooms": [
            "3 Beds",
            "1 Bath"
        ],
        "parking": "3 Parking",
        "date_available": "Available Now",
        "desc": "Daniel Hamilton</"
    },
    "https://www.domain.com.au/1-moonya-road-carnegie-vic-3163-17234079": {
        "name": "1 Moonya Road, Carnegie VIC 3163",
        "property_type": "House",
        "cost_text": "$700 per week",
        "latitude": -37.8966197,
        "longitude": 145.056394,
        "rooms": [
            "3 Beds",
            "2 Baths"
        ],
        "parking": "2 Parking",
        "date_available": "Available Now",
        "desc": "Carnegie Leasing</"
    },
    "https://www.domain.com.au/6-grandvalley-dr-keilor-east-vic-3033-17234010": {
        "name": "6 Grandvalley Dr, Keilor East VIC 3033",
        "property_type": "House",
        "cost_text": "$550 weekly",
        "latitude": -37.7393494,
        "longitude": 144.8765248,
        "rooms": [
            "2 Beds",
            "2 Baths"
        ],
        "parking": "2 Parking",
        "date_available": "Friday, 1st November 2024",
        "desc": "William Saritschniy</"
    },
    "https://www.domain.com.au/25-leonard-street-burwood-vic-3125-17233969": {
        "name": "25 Leonard Street, Burwood VIC 3125",
        "property_type": "House",
        "cost_text": "$690.00",
        "latitude": -37.8544958,
        "longitude": 145.1217373,
        "rooms": [
            "3 Beds",
            "2 Baths"
        ],
        "parking": "3 Parking",
        "date_available": "Available Now",
        "desc": "Emily Katiforis</"
    },
    "https://www.domain.com.au/32-corsair-street-richmond-vic-3121-17233796": {
        "name": "32 Corsair Street, Richmond VIC 3121",
        "property_type": "House",
        "cost_text": "$925 weekly",
        "latitude": -37.8226646,
        "longitude": 145.006507,
        "rooms": [
            "3 Beds",
            "1 Bath"
        ],
        "parking": "N/A",
        "date_available": "Friday, 1st November 2024",
        "desc": "Ysabella Dimitrakopoulos</"
    },
    "https://www.domain.com.au/5a-alfada-street-caulfield-south-vic-3162-17233750": {
        "name": "5a Alfada Street, Caulfield South VIC 3162",
        "property_type": "Semi-Detached",
        "cost_text": "$695.00",
        "latitude": -37.89577630000001,
        "longitude": 145.0213211,
        "rooms": [
            "2 Beds",
            "1 Bath"
        ],
        "parking": "1 Parking",
        "date_available": "Friday, 1st November 2024",
        "desc": "Steven Biggins</"
    },
    "https://www.domain.com.au/1-23-alfred-street-prahran-vic-3181-17233733": {
        "name": "1/23 Alfred Street, Prahran VIC 3181",
        "property_type": "House",
        "cost_text": "$900 Per Week",
        "latitude": -37.8494508,
        "longitude": 144.9852739,
        "rooms": [
            "2 Beds",
            "1 Bath"
        ],
        "parking": "N/A",
        "date_available": "Available Now",
        "desc": "Tom Koller</"
    },
    "https://www.domain.com.au/346a-balaclava-road-caulfield-north-vic-3161-17233730": {
        "name": "346a Balaclava Road, Caulfield North VIC 3161",
        "property_type": "House",
        "cost_text": "$1,245.00",
        "latitude": -37.8739828,
        "longitude": 145.0367226,
        "rooms": [
            "4 Beds",
            "1 Bath"
        ],
        "parking": "2 Parking",
        "date_available": "Thursday, 7th November 2024",
        "desc": "Steven Biggins</"
    },
    "https://www.domain.com.au/3-525-glenferrie-road-hawthorn-vic-3122-17233644": {
        "name": "3/525 Glenferrie Road, Hawthorn VIC 3122",
        "property_type": "House",
        "cost_text": "$650 per week",
        "latitude": -37.829418,
        "longitude": 145.033458,
        "rooms": [
            "2 Beds",
            "1 Bath"
        ],
        "parking": "2 Parking",
        "date_available": "Friday, 11th October 2024",
        "desc": "Daniel Hatchuel</"
    },
    "https://www.domain.com.au/21-cerberus-street-donvale-vic-3111-17231358": {
        "name": "21 Cerberus Street, Donvale VIC 3111",
        "property_type": "House",
        "cost_text": "$790.00",
        "latitude": -37.7999411,
        "longitude": 145.1716014,
        "rooms": [
            "4 Beds",
            "2 Baths"
        ],
        "parking": "2 Parking",
        "date_available": "Available Now",
        "desc": "Isabella Kaya</"
    },
    "https://www.domain.com.au/32-orrong-road-elsternwick-vic-3185-17225460": {
        "name": "32 Orrong Road, Elsternwick VIC 3185",
        "property_type": "House",
        "cost_text": "$995.00",
        "latitude": -37.8877674,
        "longitude": 145.0061491,
        "rooms": [
            "3 Beds",
            "2 Baths"
        ],
        "parking": "3 Parking",
        "date_available": "Available Now",
        "desc": "Elizabeth Lopez</"
    },
    "https://www.domain.com.au/34-addison-street-elwood-vic-3184-17224278": {
        "name": "34 Addison Street, Elwood VIC 3184",
        "property_type": "House",
        "cost_text": "$1600.00 per week",
        "latitude": -37.8762216,
        "longitude": 144.9804961,
        "rooms": [
            "4 Beds",
            "3 Baths"
        ],
        "parking": "2 Parking",
        "date_available": "Available Now",
        "desc": "Jade Sterland</"
    },
    "https://www.domain.com.au/60-york-street-richmond-vic-3121-17223066": {
        "name": "60 York Street, Richmond VIC 3121",
        "property_type": "House",
        "cost_text": "$1,600 weekly",
        "latitude": -37.8133501,
        "longitude": 144.9934631,
        "rooms": [
            "3 Beds",
            "3 Baths"
        ],
        "parking": "2 Parking",
        "date_available": "Friday, 11th October 2024",
        "desc": "Ysabella Dimitrakopoulos</"
    },
    "https://www.domain.com.au/6-strahan-place-south-morang-vic-3752-17222312": {
        "name": "6 Strahan Place, South Morang VIC 3752",
        "property_type": "House",
        "cost_text": "$580 weekly",
        "latitude": -37.6467316,
        "longitude": 145.0954742,
        "rooms": [
            "4 Beds",
            "2 Baths"
        ],
        "parking": "2 Parking",
        "date_available": "Available Now",
        "desc": "Kristian Williams</"
    },
    "https://www.domain.com.au/2-105-wattle-valley-road-camberwell-vic-3124-17221194": {
        "name": "2/105 Wattle Valley Road, Camberwell VIC 3124",
        "property_type": "House",
        "cost_text": "$695.00",
        "latitude": -37.836305,
        "longitude": 145.0807695,
        "rooms": [
            "3 Beds",
            "1 Bath"
        ],
        "parking": "1 Parking",
        "date_available": "Available Now",
        "desc": "Thea Toogood</"
    },
    "https://www.domain.com.au/8a-mowbray-street-hawthorn-east-vic-3123-17221189": {
        "name": "8A Mowbray Street, Hawthorn East VIC 3123",
        "property_type": "House",
        "cost_text": "$1,100.00",
        "latitude": -37.8427681,
        "longitude": 145.0506511,
        "rooms": [
            "4 Beds",
            "2 Baths"
        ],
        "parking": "2 Parking",
        "date_available": "Available Now",
        "desc": "Oscar Sturm</"
    },
    "https://www.domain.com.au/14-victory-boulevard-ashburton-vic-3147-17213006": {
        "name": "14 Victory Boulevard, Ashburton VIC 3147",
        "property_type": "House",
        "cost_text": "$635.00",
        "latitude": -37.8653989,
        "longitude": 145.082556,
        "rooms": [
            "3 Beds",
            "1 Bath"
        ],
        "parking": "1 Parking",
        "date_available": "Thursday, 10th October 2024",
        "desc": "Lynn Xu</"
    },
    "https://www.domain.com.au/24-viewhill-road-balwyn-north-vic-3104-17211918": {
        "name": "24 Viewhill Road, Balwyn North VIC 3104",
        "property_type": "House",
        "cost_text": "$750 weekly",
        "latitude": -37.7913098,
        "longitude": 145.088666,
        "rooms": [
            "4 Beds",
            "2 Baths"
        ],
        "parking": "2 Parking",
        "date_available": "Available Now",
        "desc": "Stephanie Wang</"
    },
    "https://www.domain.com.au/2-villiers-street-elsternwick-vic-3185-11010635": {
        "name": "2 Villiers Street, Elsternwick VIC 3185",
        "property_type": "House",
        "cost_text": "$850 per week",
        "latitude": -37.8803514,
        "longitude": 145.0060607,
        "rooms": [
            "3 Beds",
            "1 Bath"
        ],
        "parking": "2 Parking",
        "date_available": "Available Now",
        "desc": "Dragan Mrkela</"
    },
    "https://www.domain.com.au/3-deanlea-court-hawthorn-east-vic-3123-17206301": {
        "name": "3 Deanlea Court, Hawthorn East VIC 3123",
        "property_type": "House",
        "cost_text": "$1675 Per Week",
        "latitude": -37.837306,
        "longitude": 145.043207,
        "rooms": [
            "5 Beds",
            "3 Baths"
        ],
        "parking": "2 Parking",
        "date_available": "Available Now",
        "desc": "Jonathan Boon</"
    },
    "https://www.domain.com.au/23-old-eastern-court-oakleigh-south-vic-3167-17204728": {
        "name": "23 Old Eastern Court, Oakleigh South VIC 3167",
        "property_type": "House",
        "cost_text": "$650 per week",
        "latitude": -37.9134989,
        "longitude": 145.1006842,
        "rooms": [
            "3 Beds",
            "2 Baths"
        ],
        "parking": "4 Parking",
        "date_available": "Thursday, 10th October 2024",
        "desc": "Kosta Karas</"
    },
    "https://www.domain.com.au/51-ferndale-road-glen-iris-vic-3146-17204127": {
        "name": "51 Ferndale Road, Glen Iris VIC 3146",
        "property_type": "House",
        "cost_text": "$850.00",
        "latitude": -37.855363,
        "longitude": 145.0747789,
        "rooms": [
            "3 Beds",
            "1 Bath"
        ],
        "parking": "2 Parking",
        "date_available": "Available Now",
        "desc": "Grace Morley</"
    },
    "https://www.domain.com.au/65-orlando-street-hampton-vic-3188-17203898": {
        "name": "65 Orlando Street, Hampton VIC 3188",
        "property_type": "House",
        "cost_text": "$1,950.00",
        "latitude": -37.9368075,
        "longitude": 144.9985129,
        "rooms": [
            "4 Beds",
            "2 Baths"
        ],
        "parking": "2 Parking",
        "date_available": "Available Now",
        "desc": "Michelle Murray</"
    },
    "https://www.domain.com.au/64-mills-street-albert-park-vic-3206-16254842": {
        "name": "64 Mills Street, Albert Park VIC 3206",
        "property_type": "House",
        "cost_text": "$1300 per week",
        "latitude": -37.8464263,
        "longitude": 144.9580085,
        "rooms": [
            "3 Beds",
            "1 Bath"
        ],
        "parking": "N/A",
        "date_available": "Friday, 18th October 2024",
        "desc": "Lauren Harris</"
    },
    "https://www.domain.com.au/164-richardson-street-albert-park-vic-3206-17180285": {
        "name": "164 Richardson Street, Albert Park VIC 3206",
        "property_type": "House",
        "cost_text": "$1,195 per week",
        "latitude": -37.8466642,
        "longitude": 144.9557745,
        "rooms": [
            "3 Beds",
            "1 Bath"
        ],
        "parking": "N/A",
        "date_available": "Available Now",
        "desc": "Grace Gordon</"
    },
    "https://www.domain.com.au/97-union-street-windsor-vic-3181-17233425": {
        "name": "97 Union Street, Windsor VIC 3181",
        "property_type": "House",
        "cost_text": "$875 Per Week",
        "latitude": -37.8540744,
        "longitude": 144.9892942,
        "rooms": [
            "3 Beds",
            "1 Bath"
        ],
        "parking": "2 Parking",
        "date_available": "Available Now",
        "desc": "Tom Koller</"
    },
    "https://www.domain.com.au/6-turnbull-avenue-toorak-vic-3142-17233186": {
        "name": "6 Turnbull Avenue, Toorak VIC 3142",
        "property_type": "House",
        "cost_text": "$1375 Per Week",
        "latitude": -37.8389488,
        "longitude": 145.0263431,
        "rooms": [
            "3 Beds",
            "2 Baths"
        ],
        "parking": "2 Parking",
        "date_available": "Available Now",
        "desc": "Evelyne Surja</"
    },
    "https://www.domain.com.au/6-songlark-street-melton-south-vic-3338-17233140": {
        "name": "6 Songlark Street, Melton South VIC 3338",
        "property_type": "House",
        "cost_text": "$250",
        "latitude": -37.7186918,
        "longitude": 144.5794403,
        "rooms": [
            "1 Bed",
            "1 Bath"
        ],
        "parking": "N/A",
        "date_available": "Available Now",
        "desc": "Certainty  Property Vic</"
    },
    "https://www.domain.com.au/525-canning-street-carlton-north-vic-3054-17233028": {
        "name": "525 Canning Street, Carlton North VIC 3054",
        "property_type": "House",
        "cost_text": "$980.00",
        "latitude": -37.7839678,
        "longitude": 144.9749615,
        "rooms": [
            "3 Beds",
            "1 Bath"
        ],
        "parking": "1 Parking",
        "date_available": "Available Now",
        "desc": "Jayde Cashion</"
    },
    "https://www.domain.com.au/154-capel-street-north-melbourne-vic-3051-17232907": {
        "name": "154 Capel Street, North Melbourne VIC 3051",
        "property_type": "House",
        "cost_text": "$940.00",
        "latitude": -37.804445,
        "longitude": 144.955655,
        "rooms": [
            "3 Beds",
            "2 Baths"
        ],
        "parking": "N/A",
        "date_available": "Available Now",
        "desc": "Jayde Cashion</"
    },
    "https://www.domain.com.au/1a-orford-road-ashburton-vic-3147-17232824": {
        "name": "1A Orford Road, Ashburton VIC 3147",
        "property_type": "House",
        "cost_text": "$750 pw",
        "latitude": -37.8619894,
        "longitude": 145.0930577,
        "rooms": [
            "3 Beds",
            "2 Baths"
        ],
        "parking": "2 Parking",
        "date_available": "Friday, 11th October 2024",
        "desc": "Shelter Real Estate</"
    },
    "https://www.domain.com.au/4-jubilee-road-leneva-vic-3691-17232820": {
        "name": "4 JUBILEE ROAD, Leneva VIC 3691",
        "property_type": "House",
        "cost_text": "$550",
        "latitude": -36.1578394,
        "longitude": 146.8965508,
        "rooms": [
            "3 Beds",
            "2 Baths"
        ],
        "parking": "2 Parking",
        "date_available": "Friday, 11th October 2024",
        "desc": "Jess Dempsey</"
    },
    "https://www.domain.com.au/17-nirvana-crescent-bulleen-vic-3105-17232771": {
        "name": "17 Nirvana Crescent, Bulleen VIC 3105",
        "property_type": "House",
        "cost_text": "$550 weekly",
        "latitude": -37.7678004,
        "longitude": 145.0930524,
        "rooms": [
            "3 Beds",
            "1 Bath"
        ],
        "parking": "2 Parking",
        "date_available": "Available Now",
        "desc": "Emily Nash</"
    },
    "https://www.domain.com.au/443-punt-rd-richmond-vic-3121-17232750": {
        "name": "443 Punt Rd, Richmond VIC 3121",
        "property_type": "House",
        "cost_text": "$1,250 weekly",
        "latitude": -37.8277772,
        "longitude": 144.9885214,
        "rooms": [
            "3 Beds",
            "2 Baths"
        ],
        "parking": "2 Parking",
        "date_available": "Thursday, 7th November 2024",
        "desc": "Harry Whitford</"
    },
    "https://www.domain.com.au/188-lawrence-street-wodonga-vic-3690-17033916": {
        "name": "188 Lawrence Street, Wodonga VIC 3690",
        "property_type": "House",
        "cost_text": "$395 per week",
        "latitude": -36.1236437,
        "longitude": 146.8838346,
        "rooms": [
            "2 Beds",
            "1 Bath"
        ],
        "parking": "1 Parking",
        "date_available": "Thursday, 31st October 2024",
        "desc": "Kerri-Ann Hudson</"
    },
    "https://www.domain.com.au/1-1-robinson-street-brighton-east-vic-3187-17231811": {
        "name": "1/1 Robinson Street, Brighton East VIC 3187",
        "property_type": "House",
        "cost_text": "$700.00",
        "latitude": -37.9194219,
        "longitude": 145.0198481,
        "rooms": [
            "3 Beds",
            "1 Bath"
        ],
        "parking": "2 Parking",
        "date_available": "Available Now",
        "desc": "Sara Huckett</"
    },
    "https://www.domain.com.au/22-church-street-south-melbourne-vic-3205-17231566": {
        "name": "22 Church Street, South Melbourne VIC 3205",
        "property_type": "House",
        "cost_text": "$600 per week",
        "latitude": -37.8364124,
        "longitude": 144.9606816,
        "rooms": [
            "2 Beds",
            "1 Bath"
        ],
        "parking": "N/A",
        "date_available": "Monday, 4th November 2024",
        "desc": "Hudson Keppell</"
    },
    "https://www.domain.com.au/6-king-street-st-kilda-east-vic-3183-17231254": {
        "name": "6 King Street, St Kilda East VIC 3183",
        "property_type": "House",
        "cost_text": "$950.00 per week",
        "latitude": -37.8640941,
        "longitude": 144.9926873,
        "rooms": [
            "3 Beds",
            "1 Bath"
        ],
        "parking": "N/A",
        "date_available": "Wednesday, 9th October 2024",
        "desc": "Jade Sterland</"
    },
    "https://www.domain.com.au/4-aspen-st-winter-valley-vic-3358-17231047": {
        "name": "4 Aspen St, Winter Valley VIC 3358",
        "property_type": "House",
        "cost_text": "$430 per week ($1868 pcm)",
        "latitude": -37.586415,
        "longitude": 143.7961666,
        "rooms": [
            "3 Beds",
            "2 Baths"
        ],
        "parking": "2 Parking",
        "date_available": "Available Now",
        "desc": "Kavinda Kudage Don</"
    },
    "https://www.domain.com.au/63-st-vincent-street-albert-park-vic-3206-17231025": {
        "name": "63 St Vincent Street, Albert Park VIC 3206",
        "property_type": "House",
        "cost_text": "$800.00 per week",
        "latitude": -37.8411112,
        "longitude": 144.9488975,
        "rooms": [
            "2 Beds",
            "1 Bath"
        ],
        "parking": "N/A",
        "date_available": "Available Now",
        "desc": "Jade Sterland</"
    },
    "https://www.domain.com.au/15-pallina-way-wyndham-vale-vic-3024-17230837": {
        "name": "15 Pallina Way, Wyndham Vale VIC 3024",
        "property_type": "House",
        "cost_text": "$550 per week",
        "latitude": -37.8518257,
        "longitude": 144.5958621,
        "rooms": [
            "4 Beds",
            "2 Baths"
        ],
        "parking": "2 Parking",
        "date_available": "Available Now",
        "desc": "Alana Davis</"
    },
    "https://www.domain.com.au/214-358-360-moreland-road-brunswick-west-vic-3055-17230378": {
        "name": "214/358-360 Moreland Road, Brunswick West VIC 3055",
        "property_type": "House",
        "cost_text": "$550",
        "latitude": -37.75386659999999,
        "longitude": 144.9495073,
        "rooms": [
            "2 Beds",
            "2 Baths"
        ],
        "parking": "2 Parking",
        "date_available": "Friday, 25th October 2024",
        "desc": "Christian Neofotistos</"
    },
    "https://www.domain.com.au/38-rathcown-road-reservoir-vic-3073-17230164": {
        "name": "38 Rathcown Road, Reservoir VIC 3073",
        "property_type": "House",
        "cost_text": "$850 per week",
        "latitude": -37.71019580000001,
        "longitude": 145.030826,
        "rooms": [
            "4 Beds",
            "3 Baths"
        ],
        "parking": "3 Parking",
        "date_available": "Wednesday, 6th November 2024",
        "desc": "Melanie Podrebarac</"
    },
    "https://www.domain.com.au/54-roseberry-street-ascot-vale-vic-3032-17230156": {
        "name": "54 Roseberry Street, Ascot Vale VIC 3032",
        "property_type": "House",
        "cost_text": "$950 pw",
        "latitude": -37.77433870000001,
        "longitude": 144.9126648,
        "rooms": [
            "4 Beds",
            "1 Bath"
        ],
        "parking": "2 Parking",
        "date_available": "Available Now",
        "desc": "Andy Lusi</"
    },
    "https://www.domain.com.au/71-swallow-street-port-melbourne-vic-3207-17229978": {
        "name": "71 Swallow Street, Port Melbourne VIC 3207",
        "property_type": "House",
        "cost_text": "$1,075.00",
        "latitude": -37.8380987,
        "longitude": 144.9328265,
        "rooms": [
            "3 Beds",
            "2 Baths"
        ],
        "parking": "1 Parking",
        "date_available": "Wednesday, 30th October 2024",
        "desc": "Jack Alexander</"
    },
    "https://www.domain.com.au/44-currajong-avenue-camberwell-vic-3124-17229906": {
        "name": "44 Currajong Avenue, Camberwell VIC 3124",
        "property_type": "House",
        "cost_text": "$1,395.00",
        "latitude": -37.8393192,
        "longitude": 145.0602573,
        "rooms": [
            "4 Beds",
            "2 Baths"
        ],
        "parking": "2 Parking",
        "date_available": "Available Now",
        "desc": "Nathan Roberts</"
    },
    "https://www.domain.com.au/9-gladstone-avenue-armadale-vic-3143-17202668": {
        "name": "9 Gladstone Avenue, Armadale VIC 3143",
        "property_type": "House",
        "cost_text": "$1250 Per Week",
        "latitude": -37.8631474,
        "longitude": 145.0229308,
        "rooms": [
            "3 Beds",
            "1 Bath"
        ],
        "parking": "2 Parking",
        "date_available": "Available Now",
        "desc": "Evelyne Surja</"
    },
    "https://www.domain.com.au/4-simone-crescent-doncaster-east-vic-3109-17229757": {
        "name": "4 Simone Crescent, Doncaster East VIC 3109",
        "property_type": "House",
        "cost_text": "1,200 per week",
        "latitude": -37.7542562,
        "longitude": 145.1750556,
        "rooms": [
            "4 Beds",
            "3 Baths"
        ],
        "parking": "5 Parking",
        "date_available": "Saturday, 26th October 2024",
        "desc": "Our Team</"
    },
    "https://www.domain.com.au/23-glenmore-crescent-black-rock-vic-3193-17229594": {
        "name": "23 Glenmore Crescent, Black Rock VIC 3193",
        "property_type": "House",
        "cost_text": "$1,400.00",
        "latitude": -37.9712251,
        "longitude": 145.015652,
        "rooms": [
            "5 Beds",
            "3 Baths"
        ],
        "parking": "2 Parking",
        "date_available": "Monday, 14th October 2024",
        "desc": "Stephanie Pascoe</"
    },
    "https://www.domain.com.au/12-station-street-hawthorn-east-vic-3123-17227543": {
        "name": "12 Station Street, Hawthorn East VIC 3123",
        "property_type": "House",
        "cost_text": "$575.00",
        "latitude": -37.82062940000001,
        "longitude": 145.0461614,
        "rooms": [
            "2 Beds",
            "1 Bath"
        ],
        "parking": "N/A",
        "date_available": "Available Now",
        "desc": "Thea Toogood</"
    },
    "https://www.domain.com.au/61-dendy-street-brighton-vic-3186-17227329": {
        "name": "61 Dendy Street, Brighton VIC 3186",
        "property_type": "House",
        "cost_text": "$980.00",
        "latitude": -37.9198495,
        "longitude": 144.9984783,
        "rooms": [
            "3 Beds",
            "2 Baths"
        ],
        "parking": "4 Parking",
        "date_available": "Available Now",
        "desc": "Elizabeth Lopez</"
    },
    "https://www.domain.com.au/18-finlay-street-albert-park-vic-3206-17227119": {
        "name": "18 Finlay Street, Albert Park VIC 3206",
        "property_type": "House",
        "cost_text": "$850.00 per week",
        "latitude": -37.843215,
        "longitude": 144.9557452,
        "rooms": [
            "2 Beds",
            "1 Bath"
        ],
        "parking": "N/A",
        "date_available": "Monday, 14th October 2024",
        "desc": "Jade Sterland</"
    },
    "https://www.domain.com.au/15-carnell-place-balwyn-north-vic-3104-17226865": {
        "name": "15 Carnell Place, Balwyn North VIC 3104",
        "property_type": "House",
        "cost_text": "$750.00",
        "latitude": -37.7916716,
        "longitude": 145.0979796,
        "rooms": [
            "3 Beds",
            "2 Baths"
        ],
        "parking": "2 Parking",
        "date_available": "Available Now",
        "desc": "Oscar Sturm</"
    },
    "https://www.domain.com.au/17-oakhill-terrace-churchill-vic-3842-17226588": {
        "name": "17 Oakhill Terrace, Churchill VIC 3842",
        "property_type": "House",
        "cost_text": "$250",
        "latitude": -38.3158773,
        "longitude": 146.4230497,
        "rooms": [
            "1 Bed",
            "1 Bath"
        ],
        "parking": "1 Parking",
        "date_available": "Tuesday, 15th October 2024",
        "desc": "Certainty  Property Vic</"
    },
    "https://www.domain.com.au/9-longfield-street-richmond-vic-3121-17226340": {
        "name": "9 Longfield Street, Richmond VIC 3121",
        "property_type": "House",
        "cost_text": "$565 weekly",
        "latitude": -37.8211455,
        "longitude": 145.0118553,
        "rooms": [
            "2 Beds",
            "1 Bath"
        ],
        "parking": "N/A",
        "date_available": "Monday, 18th November 2024",
        "desc": "Ysabella Dimitrakopoulos</"
    },
    "https://www.domain.com.au/11-kinloch-avenue-mont-albert-vic-3127-17226091": {
        "name": "11 Kinloch Avenue, Mont Albert VIC 3127",
        "property_type": "House",
        "cost_text": "$770 weekly",
        "latitude": -37.8138378,
        "longitude": 145.1046761,
        "rooms": [
            "3 Beds",
            "1 Bath"
        ],
        "parking": "3 Parking",
        "date_available": "Friday, 25th October 2024",
        "desc": "Emily Nash</"
    },
    "https://www.domain.com.au/201-wood-street-flinders-vic-3929-17226015": {
        "name": "201 Wood Street, Flinders VIC 3929",
        "property_type": "House",
        "cost_text": "$1450 Per Week",
        "latitude": -38.4786049,
        "longitude": 145.018731,
        "rooms": [
            "4 Beds",
            "2 Baths"
        ],
        "parking": "2 Parking",
        "date_available": "Available Now",
        "desc": "Samantha Keyse</"
    },
    "https://www.domain.com.au/74-raglan-street-south-melbourne-vic-3205-17226002": {
        "name": "74 Raglan Street, South Melbourne VIC 3205",
        "property_type": "House",
        "cost_text": "$950.00 per week",
        "latitude": -37.836988,
        "longitude": 144.9635032,
        "rooms": [
            "3 Beds",
            "2 Baths"
        ],
        "parking": "N/A",
        "date_available": "Available Now",
        "desc": "Jade Sterland</"
    },
    "https://www.domain.com.au/17-william-st-abbotsford-vic-3067-17225717": {
        "name": "17 William St, Abbotsford VIC 3067",
        "property_type": "House",
        "cost_text": "$600 weekly",
        "latitude": -37.8093194,
        "longitude": 144.9971342,
        "rooms": [
            "2 Beds",
            "1 Bath"
        ],
        "parking": "1 Parking",
        "date_available": "Tuesday, 5th November 2024",
        "desc": "Liam Mulligan</"
    },
    "https://www.domain.com.au/1-corsewall-close-hawthorn-vic-3122-17225625": {
        "name": "1 Corsewall Close, Hawthorn VIC 3122",
        "property_type": "House",
        "cost_text": "$845.00",
        "latitude": -37.8160987,
        "longitude": 145.0449491,
        "rooms": [
            "3 Beds",
            "1 Bath"
        ],
        "parking": "1 Parking",
        "date_available": "Available Now",
        "desc": "Leo Zuo</"
    },
    "https://www.domain.com.au/27a-central-avenue-black-rock-vic-3193-17225425": {
        "name": "27a Central Avenue, Black Rock VIC 3193",
        "property_type": "House",
        "cost_text": "$2,200.00",
        "latitude": -37.9800829,
        "longitude": 145.0212331,
        "rooms": [
            "4 Beds",
            "2 Baths"
        ],
        "parking": "2 Parking",
        "date_available": "Available Now",
        "desc": "Sara Huckett</"
    },
    "https://www.domain.com.au/20-patrick-close-greensborough-vic-3088-16694772": {
        "name": "20 Patrick Close, Greensborough VIC 3088",
        "property_type": "House",
        "cost_text": "$1,000 pw",
        "latitude": -37.6839096,
        "longitude": 145.1309067,
        "rooms": [
            "5 Beds",
            "3 Baths"
        ],
        "parking": "2 Parking",
        "date_available": "Tuesday, 12th November 2024",
        "desc": "Daniel Hamilton</"
    },
    "https://www.domain.com.au/27-chatham-road-leneva-vic-3691-17225375": {
        "name": "27 Chatham Road, Leneva VIC 3691",
        "property_type": "House",
        "cost_text": "$650 per week",
        "latitude": -36.15855579999999,
        "longitude": 146.8909809,
        "rooms": [
            "4 Beds",
            "2 Baths"
        ],
        "parking": "2 Parking",
        "date_available": "Available Now",
        "desc": "Kerri-Ann Hudson</"
    },
    "https://www.domain.com.au/7-nash-street-glen-iris-vic-3146-17225009": {
        "name": "7 Nash Street, Glen Iris VIC 3146",
        "property_type": "House",
        "cost_text": "$750.00",
        "latitude": -37.8554307,
        "longitude": 145.0479218,
        "rooms": [
            "2 Beds",
            "1 Bath"
        ],
        "parking": "2 Parking",
        "date_available": "Available Now",
        "desc": "Danielle Crumblehulme</"
    },
    "https://www.domain.com.au/10a-ashby-court-balwyn-north-vic-3104-17224896": {
        "name": "10A Ashby Court, Balwyn North VIC 3104",
        "property_type": "House",
        "cost_text": "$695.00",
        "latitude": -37.796598,
        "longitude": 145.075013,
        "rooms": [
            "2 Beds",
            "1 Bath"
        ],
        "parking": "2 Parking",
        "date_available": "Available Now",
        "desc": "Leo Zuo</"
    },
    "https://www.domain.com.au/2-wallace-grove-brighton-vic-3186-17224569": {
        "name": "2 Wallace Grove, Brighton VIC 3186",
        "property_type": "House",
        "cost_text": "$1,650.00",
        "latitude": -37.9209938,
        "longitude": 144.9941229,
        "rooms": [
            "4 Beds",
            "2 Baths"
        ],
        "parking": "2 Parking",
        "date_available": "Wednesday, 30th October 2024",
        "desc": "Tara Stewart</"
    },
    "https://www.domain.com.au/1-39-leopold-street-burwood-vic-3125-16390848": {
        "name": "1/39 Leopold Street, Burwood VIC 3125",
        "property_type": "House",
        "cost_text": "$850 per week",
        "latitude": -37.8593033,
        "longitude": 145.0980607,
        "rooms": [
            "3 Beds",
            "2 Baths"
        ],
        "parking": "2 Parking",
        "date_available": "Available Now",
        "desc": "Susan Holly</"
    },
    "https://www.domain.com.au/967-canterbury-road-box-hill-vic-3128-17224246": {
        "name": "967 Canterbury Road, Box Hill VIC 3128",
        "property_type": "House",
        "cost_text": "$775 weekly",
        "latitude": -37.8294019,
        "longitude": 145.1300415,
        "rooms": [
            "4 Beds",
            "2 Baths"
        ],
        "parking": "2 Parking",
        "date_available": "Wednesday, 27th November 2024",
        "desc": "Justine Sawford</"
    },
    "https://www.domain.com.au/7-parker-street-ormond-vic-3204-16648530": {
        "name": "7 Parker Street, Ormond VIC 3204",
        "property_type": "House",
        "cost_text": "$750",
        "latitude": -37.9036357,
        "longitude": 145.0488074,
        "rooms": [
            "4 Beds",
            "2 Baths"
        ],
        "parking": "1 Parking",
        "date_available": "Available Now",
        "desc": "David Passaro</"
    },
    "https://www.domain.com.au/209-keys-road-flinders-vic-3929-17224176": {
        "name": "209 Keys Road, Flinders VIC 3929",
        "property_type": "House",
        "cost_text": "$2100 Per Week",
        "latitude": -38.4593184,
        "longitude": 144.9720221,
        "rooms": [
            "5 Beds",
            "4 Baths"
        ],
        "parking": "2 Parking",
        "date_available": "Friday, 11th October 2024",
        "desc": "Samantha Keyse</"
    },
    "https://www.domain.com.au/10-hodgson-terrace-richmond-vic-3121-17224022": {
        "name": "10 Hodgson Terrace, Richmond VIC 3121",
        "property_type": "House",
        "cost_text": "$760 weekly",
        "latitude": -37.819817,
        "longitude": 144.998014,
        "rooms": [
            "3 Beds",
            "1 Bath"
        ],
        "parking": "N/A",
        "date_available": "Monday, 28th October 2024",
        "desc": "Liam Mulligan</"
    },
    "https://www.domain.com.au/73-budd-street-collingwood-vic-3066-17223793": {
        "name": "73 Budd Street, Collingwood VIC 3066",
        "property_type": "House",
        "cost_text": "$1,450.00",
        "latitude": -37.7950514,
        "longitude": 144.9870422,
        "rooms": [
            "3 Beds",
            "2 Baths"
        ],
        "parking": "1 Parking",
        "date_available": "Available Now",
        "desc": "Jayde Cashion</"
    },
    "https://www.domain.com.au/153-victoria-road-chirnside-park-vic-3116-17223531": {
        "name": "153 Victoria Road, Chirnside Park VIC 3116",
        "property_type": "House",
        "cost_text": "$1,050 per week",
        "latitude": -37.7442638,
        "longitude": 145.337033,
        "rooms": [
            "5 Beds",
            "3 Baths"
        ],
        "parking": "N/A",
        "date_available": "Available Now",
        "desc": "LLC Rental PM 1</"
    },
    "https://www.domain.com.au/68-bunting-st-richmond-vic-3121-17223382": {
        "name": "68 Bunting St, Richmond VIC 3121",
        "property_type": "House",
        "cost_text": "$760 weekly",
        "latitude": -37.8255349,
        "longitude": 145.0089332,
        "rooms": [
            "2 Beds",
            "1 Bath"
        ],
        "parking": "N/A",
        "date_available": "Available Now",
        "desc": "Ysabella Dimitrakopoulos</"
    },
    "https://www.domain.com.au/6-larnook-street-prahran-vic-3181-17191967": {
        "name": "6 Larnook Street, Prahran VIC 3181",
        "property_type": "House",
        "cost_text": "$750 Per Week",
        "latitude": -37.8572816,
        "longitude": 145.0079297,
        "rooms": [
            "2 Beds",
            "1 Bath"
        ],
        "parking": "N/A",
        "date_available": "Available Now",
        "desc": "Tom Koller</"
    },
    "https://www.domain.com.au/104-brunswick-road-mitcham-vic-3132-17222976": {
        "name": "104 Brunswick Road, Mitcham VIC 3132",
        "property_type": "House",
        "cost_text": "$700 weekly",
        "latitude": -37.8192015,
        "longitude": 145.2053898,
        "rooms": [
            "3 Beds",
            "1 Bath"
        ],
        "parking": "2 Parking",
        "date_available": "Available Now",
        "desc": "Ashleigh Doherty</"
    },
    "https://www.domain.com.au/14-arthurs-avenue-mccrae-vic-3938-17222894": {
        "name": "14 Arthurs Avenue, McCrae VIC 3938",
        "property_type": "House",
        "cost_text": "$945 Per Week",
        "latitude": -38.350367,
        "longitude": 144.9415356,
        "rooms": [
            "4 Beds",
            "2 Baths"
        ],
        "parking": "3 Parking",
        "date_available": "Available Now",
        "desc": "Samantha Keyse</"
    },
    "https://www.domain.com.au/16-margaret-street-brighton-east-vic-3187-17222831": {
        "name": "16 Margaret Street, Brighton East VIC 3187",
        "property_type": "House",
        "cost_text": "$1,050.00",
        "latitude": -37.9198046,
        "longitude": 145.0108277,
        "rooms": [
            "4 Beds",
            "2 Baths"
        ],
        "parking": "N/A",
        "date_available": "Available Now",
        "desc": "Ben McDonald</"
    },
    "https://www.domain.com.au/1-landen-avenue-balwyn-north-vic-3104-17222821": {
        "name": "1 Landen Avenue, Balwyn North VIC 3104",
        "property_type": "House",
        "cost_text": "$670 weekly",
        "latitude": -37.79930969999999,
        "longitude": 145.1009034,
        "rooms": [
            "3 Beds",
            "1 Bath"
        ],
        "parking": "2 Parking",
        "date_available": "Available Now",
        "desc": "Emily Nash</"
    },
    "https://www.domain.com.au/1-2-cartwright-street-oak-park-vic-3046-17222640": {
        "name": "1/2 Cartwright Street, Oak Park VIC 3046",
        "property_type": "House",
        "cost_text": "$730",
        "latitude": -37.71477489999999,
        "longitude": 144.9192521,
        "rooms": [
            "3 Beds",
            "2 Baths"
        ],
        "parking": "3 Parking",
        "date_available": "Available Now",
        "desc": "Mat Suckling</"
    },
    "https://www.domain.com.au/731-nepean-highway-brighton-east-vic-3187-17222528": {
        "name": "731 Nepean Highway, Brighton East VIC 3187",
        "property_type": "House",
        "cost_text": "$990.00",
        "latitude": -37.9175823,
        "longitude": 145.020219,
        "rooms": [
            "3 Beds",
            "2 Baths"
        ],
        "parking": "2 Parking",
        "date_available": "Available Now",
        "desc": "Michelle Murray</"
    },
    "https://www.domain.com.au/64-barkers-crescent-mickleham-vic-3064-17222526": {
        "name": "64 Barkers Crescent, Mickleham VIC 3064",
        "property_type": "House",
        "cost_text": "$540 per week",
        "latitude": -37.5325818,
        "longitude": 144.894349,
        "rooms": [
            "4 Beds",
            "2 Baths"
        ],
        "parking": "2 Parking",
        "date_available": "Thursday, 17th October 2024",
        "desc": "Chris Bai</"
    },
    "https://www.domain.com.au/517-14-david-street-richmond-vic-3121-17222497": {
        "name": "517/14 David Street, Richmond VIC 3121",
        "property_type": "House",
        "cost_text": "$630 per week",
        "latitude": -37.8154413,
        "longitude": 145.0111408,
        "rooms": [
            "2 Beds",
            "1 Bath"
        ],
        "parking": "1 Parking",
        "date_available": "Available Now",
        "desc": "Chris Bai</"
    },
    "https://www.domain.com.au/2a-marlowe-street-canterbury-vic-3126-17222265": {
        "name": "2a Marlowe Street, Canterbury VIC 3126",
        "property_type": "House",
        "cost_text": "$3500 per week - All Inclusive!",
        "latitude": -37.8238919,
        "longitude": 145.0744291,
        "rooms": [
            "4 Beds",
            "3 Baths"
        ],
        "parking": "3 Parking",
        "date_available": "Available Now",
        "desc": "Dylan Archer</"
    },
    "https://www.domain.com.au/95-tower-street-thornhill-park-vic-3335-17222183": {
        "name": "95 Tower Street, Thornhill Park VIC 3335",
        "property_type": "House",
        "cost_text": "$530 pw",
        "latitude": -37.7189846,
        "longitude": 144.6270798,
        "rooms": [
            "5 Beds",
            "3 Baths"
        ],
        "parking": "2 Parking",
        "date_available": "Available Now",
        "desc": "Abir Ayadi</"
    },
    "https://www.domain.com.au/7-devitt-way-killara-vic-3691-17222152": {
        "name": "7 Devitt Way, Killara VIC 3691",
        "property_type": "House",
        "cost_text": "$620 per week",
        "latitude": -36.1400718,
        "longitude": 146.945626,
        "rooms": [
            "4 Beds",
            "2 Baths"
        ],
        "parking": "2 Parking",
        "date_available": "Wednesday, 23rd October 2024",
        "desc": "Anneleise Olsson</"
    },
    "https://www.domain.com.au/49-carlton-street-mckinnon-vic-3204-17222124": {
        "name": "49 Carlton Street, McKinnon VIC 3204",
        "property_type": "House",
        "cost_text": "$520.00",
        "latitude": -37.9132807,
        "longitude": 145.0368631,
        "rooms": [
            "2 Beds",
            "1 Bath"
        ],
        "parking": "1 Parking",
        "date_available": "Available Now",
        "desc": "Veronica Coco</"
    },
    "https://www.domain.com.au/44a-childers-street-kew-vic-3101-15271908": {
        "name": "44a Childers Street, Kew VIC 3101",
        "property_type": "House",
        "cost_text": "$830 per week",
        "latitude": -37.7989796,
        "longitude": 145.043187,
        "rooms": [
            "3 Beds",
            "2 Baths"
        ],
        "parking": "2 Parking",
        "date_available": "Monday, 21st October 2024",
        "desc": "Ismaeel Hussain</"
    },
    "https://www.domain.com.au/1-rathmines-road-hawthorn-vic-3122-17221719": {
        "name": "1 Rathmines Road, Hawthorn VIC 3122",
        "property_type": "House",
        "cost_text": "$615.00",
        "latitude": -37.8199154,
        "longitude": 145.0465296,
        "rooms": [
            "2 Beds",
            "1 Bath"
        ],
        "parking": "N/A",
        "date_available": "Saturday, 19th October 2024",
        "desc": "Thea Toogood</"
    },
    "https://www.domain.com.au/779-brunswick-street-fitzroy-north-vic-3068-17221590": {
        "name": "779 Brunswick Street, Fitzroy North VIC 3068",
        "property_type": "House",
        "cost_text": "$1,500 pw",
        "latitude": -37.78345059999999,
        "longitude": 144.9811418,
        "rooms": [
            "4 Beds",
            "2 Baths"
        ],
        "parking": "1 Parking",
        "date_available": "Available Now",
        "desc": "Shelter Real Estate</"
    },
    "https://www.domain.com.au/66-raglan-st-south-melbourne-vic-3205-17220050": {
        "name": "66 Raglan St, South Melbourne VIC 3205",
        "property_type": "House",
        "cost_text": "$695",
        "latitude": -37.836917,
        "longitude": 144.963767,
        "rooms": [
            "2 Beds",
            "1 Bath"
        ],
        "parking": "N/A",
        "date_available": "Available Now",
        "desc": "Georgie Sinclair</"
    },
    "https://www.domain.com.au/123-albert-street-port-melbourne-vic-3207-17221236": {
        "name": "123 Albert Street, Port Melbourne VIC 3207",
        "property_type": "House",
        "cost_text": "$1250 per week",
        "latitude": -37.8351532,
        "longitude": 144.9359624,
        "rooms": [
            "4 Beds",
            "2 Baths"
        ],
        "parking": "N/A",
        "date_available": "Wednesday, 30th October 2024",
        "desc": "Jade Sterland</"
    },
    "https://www.domain.com.au/23-lanark-street-brunswick-east-vic-3057-17221171": {
        "name": "23 Lanark Street, Brunswick East VIC 3057",
        "property_type": "House",
        "cost_text": "$750",
        "latitude": -37.757465,
        "longitude": 144.977017,
        "rooms": [
            "2 Beds",
            "1 Bath"
        ],
        "parking": "1 Parking",
        "date_available": "Wednesday, 30th October 2024",
        "desc": "Christian Neofotistos</"
    },
    "https://www.domain.com.au/15-hunter-st-richmond-vic-3121-17221136": {
        "name": "15 Hunter St, Richmond VIC 3121",
        "property_type": "House",
        "cost_text": "$700 weekly",
        "latitude": -37.8201908,
        "longitude": 145.0057103,
        "rooms": [
            "3 Beds",
            "1 Bath"
        ],
        "parking": "N/A",
        "date_available": "Saturday, 26th October 2024",
        "desc": "Ysabella Dimitrakopoulos</"
    },
    "https://www.domain.com.au/1-new-street-kew-vic-3101-17221029": {
        "name": "1 New Street, Kew VIC 3101",
        "property_type": "House",
        "cost_text": "$750.00",
        "latitude": -37.80188,
        "longitude": 145.0379801,
        "rooms": [
            "3 Beds",
            "1 Bath"
        ],
        "parking": "N/A",
        "date_available": "Available Now",
        "desc": "Nathan Roberts</"
    },
    "https://www.domain.com.au/18-patrick-street-oakleigh-east-vic-3166-17220937": {
        "name": "18 Patrick Street, Oakleigh East VIC 3166",
        "property_type": "House",
        "cost_text": "$680",
        "latitude": -37.9014433,
        "longitude": 145.1221581,
        "rooms": [
            "3 Beds",
            "1 Bath"
        ],
        "parking": "1 Parking",
        "date_available": "Available Now",
        "desc": "Matthew Swinnerton</"
    },
    "https://www.domain.com.au/32-horne-street-elsternwick-vic-3185-17220462": {
        "name": "32 Horne Street, Elsternwick VIC 3185",
        "property_type": "House",
        "cost_text": "$800 per week",
        "latitude": -37.8856997,
        "longitude": 145.000507,
        "rooms": [
            "4 Beds",
            "1 Bath"
        ],
        "parking": "1 Parking",
        "date_available": "Available Now",
        "desc": "Leasing Team</"
    },
    "https://www.domain.com.au/9-pittsburgh-road-kalkallo-vic-3064-17220358": {
        "name": "9 Pittsburgh Road, Kalkallo VIC 3064",
        "property_type": "House",
        "cost_text": "$500 PER WEEK",
        "latitude": -37.5197788,
        "longitude": 144.9597446,
        "rooms": [
            "4 Beds",
            "3 Baths"
        ],
        "parking": "1 Parking",
        "date_available": "Available Now",
        "desc": "Mary Corso</"
    },