property_url,name,property_type,cost_text,latitude,longitude,bed_info,bath_info,parking,date_available,desc
https://www.domain.com.au/g02-41-nott-street-port-melbourne-vic-3207-17179877?topspot=1,"G02/41 Nott Street, Port Melbourne VIC 3207",Apartment / Unit / Flat,$500 weekly,-37.8416246,144.9375171,1 Bed,1 Bath,N/A,Available Now,Jemma Wilksch
https://www.domain.com.au/201-662-whitehorse-road-mont-albert-vic-3127-17193790,"201/662 Whitehorse Road, Mont Albert VIC 3127",Apartment / Unit / Flat,$570.00,-37.8157917,145.1040583,2 Beds,1 Bath,1 Parking,"Monday, 16th September 2024",Nicole Woods
https://www.domain.com.au/109-10-stanley-street-collingwood-vic-3066-17193767,"109/10 Stanley Street, Collingwood VIC 3066",Apartment / Unit / Flat,$500 per week,-37.8019462,144.9845117,1 Bed,1 Bath,1 Parking,"Monday, 9th September 2024",DIANA JURISIC
https://www.domain.com.au/1208-50-albert-street-south-melbourne-vic-3205-17193635,"1208/50 Albert Street, South Melbourne VIC 3205",Apartment / Unit / Flat,$520 pw,-37.8328503,144.9714664,1 Bed,1 Bath,1 Parking,"Wednesday, 25th September 2024",Carson Mair
https://www.domain.com.au/1104-70-southbank-boulevard-southbank-vic-3006-15846616,"1104/70 Southbank Boulevard, Southbank VIC 3006",Apartment / Unit / Flat,600 per week,-37.8231578,144.9639532,1 Bed,1 Bath,N/A,"Monday, 7th October 2024",Kim Te
https://www.domain.com.au/2-107-addison-street-elwood-vic-3184-17193576,"2/107 Addison Street, Elwood VIC 3184",Apartment / Unit / Flat,$895 weekly,-37.8807494,144.9801497,3 Beds,2 Baths,1 Parking,"Wednesday, 9th October 2024",Tina Kelly
https://www.domain.com.au/2-435-st-kilda-st-elwood-vic-3184-17171549,"2/435 St Kilda St, Elwood VIC 3184",Apartment / Unit / Flat,$675 weekly,-37.8902442,144.9907874,2 Beds,1 Bath,1 Parking,Available Now,Jemma Wilksch
https://www.domain.com.au/305-101-bay-street-port-melbourne-vic-3207-17193493,"305/101 Bay Street, Port Melbourne VIC 3207",Apartment / Unit / Flat,$595 weekly,-37.8406398,144.9400238,1 Bed,1 Bath,1 Parking,"Monday, 7th October 2024",Jemma Wilksch
https://www.domain.com.au/210-828-burke-road-camberwell-vic-3124-17193454,"210/828 Burke Road, Camberwell VIC 3124",Apartment / Unit / Flat,$500.00,-37.8218645,145.058755,1 Bed,1 Bath,1 Parking,"Thursday, 3rd October 2024",Thea Toogood
https://www.domain.com.au/14-27-wallace-avenue-toorak-vic-3142-17193447,"14/27 Wallace Avenue, Toorak VIC 3142",Apartment / Unit / Flat,$525 Per Week,-37.8386898,145.007396,1 Bed,1 Bath,1 Parking,"Thursday, 10th October 2024",Tom Koller
https://www.domain.com.au/304-109-inkerman-st-st-kilda-vic-3182-17193182,"304/109 Inkerman St, St Kilda VIC 3182",Apartment / Unit / Flat,$630 weekly,-37.8648414,144.9865489,2 Beds,2 Baths,1 Parking,"Thursday, 19th September 2024",Leasing Concierge
https://www.domain.com.au/5-107-hotham-street-st-kilda-east-vic-3183-15828906,"5/107 Hotham Street, St Kilda East VIC 3183",Apartment / Unit / Flat,$875 per week,-37.8705613,144.9990358,3 Beds,1 Bath,1 Parking,"Monday, 9th September 2024",Jodi Sherr
https://www.domain.com.au/7-penny-lane-south-yarra-vic-3141-17193168,"7 Penny Lane, South Yarra VIC 3141",Apartment / Unit / Flat,$420.00,-37.8400285,144.9946743,1 Bed,1 Bath,N/A,"Friday, 6th September 2024",Alexander Vingos
https://www.domain.com.au/103-6-kent-street-richmond-vic-3121-17193091,"103/6 Kent Street, Richmond VIC 3121",Apartment / Unit / Flat,$720,-37.8147224,145.000459,2 Beds,2 Baths,1 Parking,Available Now,Shelter Real Estate
https://www.domain.com.au/605-68-wests-road-maribyrnong-vic-3032-17193087,"605/68 Wests Road, Maribyrnong VIC 3032",Apartment / Unit / Flat,$570.00,-37.7698462,144.8823599,2 Beds,2 Baths,1 Parking,"Monday, 7th October 2024",Cameron  Gibson 
https://www.domain.com.au/7-1299-glen-huntly-road-carnegie-vic-3163-17193027,"7/1299 Glen Huntly Road, Carnegie VIC 3163",Apartment / Unit / Flat,$500 per week,-37.89027590000001,145.0507099,2 Beds,1 Bath,N/A,Available Now,Carnegie Leasing
https://www.domain.com.au/410-8-garfield-street-richmond-vic-3121-17192986,"410/8 Garfield Street, Richmond VIC 3121",Apartment / Unit / Flat,$480 weekly,-37.8118308,144.9927033,1 Bed,1 Bath,1 Parking,"Wednesday, 25th September 2024",Liam Mulligan
https://www.domain.com.au/3-10-scott-street-elwood-vic-3184-17192919,"3/10 Scott Street, Elwood VIC 3184",Apartment / Unit / Flat,$615 pw,-37.8793857,144.9928451,1 Bed,1 Bath,1 Parking,"Wednesday, 25th September 2024",Artem Chereshkov
https://www.domain.com.au/603-255-racecourse-rd-kensington-vic-3031-17192906,"603/255 Racecourse Rd, Kensington VIC 3031",Apartment / Unit / Flat,$450 weekly,-37.7885729,144.9327597,1 Bed,1 Bath,1 Parking,"Friday, 4th October 2024",Victoria Ryan
https://www.domain.com.au/2-41-grandview-grove-prahran-vic-3181-17192811,"2/41 Grandview Grove, Prahran VIC 3181",Apartment / Unit / Flat,$570 weekly,-37.8500918,145.0080661,2 Beds,1 Bath,N/A,"Monday, 30th September 2024",Mikayla Lastavec
https://www.domain.com.au/504a-2a-duffy-street-essendon-north-vic-3041-17192808,"504A/2A Duffy Street, Essendon North VIC 3041",Apartment / Unit / Flat,$480 per week,-37.7401486,144.9000425,1 Bed,1 Bath,1 Parking,"Wednesday, 30th October 2024",Kim Te
https://www.domain.com.au/g07-1217-centre-road-oakleigh-south-vic-3167-17192736,"G07/1217 Centre Road, Oakleigh South VIC 3167",Apartment / Unit / Flat,$595,-37.9260585,145.1033629,2 Beds,2 Baths,N/A,$2650,"This 2 bedroom, 2 bathroom apartment for Rent
- Two spacious bedrooms with BIR's
- Two bathrooms, one central and one ensuite.
- Intercom facility
- Single underground car park with a storage cage
- Air conditioning and heating
- Open plan living and dining
- Modern kitchen with dishwasher and gas cook top"
https://www.domain.com.au/113-8-montrose-street-hawthorn-vic-3122-17192681,"113/8 Montrose Street, Hawthorn VIC 3122",Apartment / Unit / Flat,$550 weekly,-37.8226005,145.0353696,1 Bed,1 Bath,1 Parking,"Wednesday, 18th September 2024",Ysabella Dimitrakopoulos
https://www.domain.com.au/5-556-dandenong-rd-caulfield-north-vic-3161-17192672,"5/556 Dandenong Rd, Caulfield North VIC 3161",Apartment / Unit / Flat,$565 weekly,-37.867492,145.0294621,2 Beds,1 Bath,1 Parking,"Monday, 9th September 2024",Mikayla Lastavec
https://www.domain.com.au/302-408-lonsdale-street-melbourne-vic-3000-15880923,"302/408 Lonsdale Street, Melbourne VIC 3000",Studio,$410,-37.8125979,144.9604012,1 Bed,1 Bath,N/A,Available Now,Manuel Flores
https://www.domain.com.au/g07a-72-ascot-vale-road-flemington-vic-3031-16936769,"G07A/72 Ascot Vale Road, Flemington VIC 3031",Apartment / Unit / Flat,$440 PER WEEK,-37.7840307,144.9230447,1 Bed,1 Bath,1 Parking,"Friday, 20th September 2024",Mary Corso
https://www.domain.com.au/38-201-wellington-parade-south-east-melbourne-vic-3002-17192620,"38/201 Wellington Parade South, East Melbourne VIC 3002",Apartment / Unit / Flat,"$1,000 Per Week",-37.8167521,144.9785464,3 Beds,2 Baths,2 Parking,"Wednesday, 11th September 2024",Mikaele Horsnell
https://www.domain.com.au/7-43-hobart-road-murrumbeena-vic-3163-17192618,"7/43 Hobart Road, Murrumbeena VIC 3163",Apartment / Unit / Flat,$350 weekly,-37.8881118,145.069662,1 Bed,1 Bath,1 Parking,"Monday, 9th September 2024",Jamie-Lee Fox
https://www.domain.com.au/501-109-york-street-south-melbourne-vic-3205-17192576,"501/109 York Street, South Melbourne VIC 3205",Apartment / Unit / Flat,$715 pw,-37.8312491,144.9586651,2 Beds,2 Baths,1 Parking,"Thursday, 17th October 2024",Daniel Hamilton
https://www.domain.com.au/1-68-thames-st-box-hill-north-vic-3129-17192535,"1/68 Thames St, Box Hill North VIC 3129",Apartment / Unit / Flat,$600 weekly,-37.813405,145.1239373,2 Beds,1 Bath,1 Parking,"Friday, 27th September 2024",Mikayla Lastavec
https://www.domain.com.au/4012-22-24-jane-bell-lane-melbourne-vic-3000-17192375,"4012/22-24 Jane Bell Lane, Melbourne VIC 3000",Apartment / Unit / Flat,$530 pw,-37.8102191,144.966267,1 Bed,1 Bath,1 Parking,Available Now,Trish Ha
https://www.domain.com.au/g08-18-grosvenor-street-abbotsford-vic-3067-17192255,"G08/18 Grosvenor Street, Abbotsford VIC 3067",Apartment / Unit / Flat,$580 weekly,-37.8095856,145.0068159,2 Beds,1 Bath,1 Parking,"Monday, 7th October 2024",Liam Mulligan
https://www.domain.com.au/201-107-cambridge-street-collingwood-vic-3066-16921915,"201/107 Cambridge Street, Collingwood VIC 3066",Apartment / Unit / Flat,$600 per week,-37.8035129,144.9850445,1 Bed,1 Bath,1 Parking,"Tuesday, 10th September 2024",DIANA JURISIC
https://www.domain.com.au/13-160-coppin-st-richmond-vic-3121-17192197,"13/160 Coppin St, Richmond VIC 3121",Apartment / Unit / Flat,$400 weekly,-37.8234326,145.0027532,1 Bed,1 Bath,1 Parking,"Friday, 11th October 2024",Ysabella Dimitrakopoulos
https://www.domain.com.au/202-8-hope-st-brunswick-west-vic-3055-17192186,"202/8 Hope St, Brunswick West VIC 3055",Apartment / Unit / Flat,$720 weekly,-37.7624563,144.9484834,2 Beds,2 Baths,1 Parking,"Saturday, 7th September 2024",Amber Brombara
https://www.domain.com.au/5-59-pakington-street-st-kilda-vic-3182-17192180,"5/59 Pakington Street, St Kilda VIC 3182",Apartment / Unit / Flat,$750.00,-37.8663083,144.9891746,2 Beds,2 Baths,2 Parking,"Wednesday, 9th October 2024",Kerttu  Luik
https://www.domain.com.au/4-8-strettle-street-thornbury-vic-3071-17192176,"4/8 Strettle Street, Thornbury VIC 3071",Apartment / Unit / Flat,$950 per week,-37.75451880000001,144.982424,3 Beds,2 Baths,2 Parking,Available Now,Janelle De Iesi
https://www.domain.com.au/a001-10-14-little-miller-street-brunswick-east-vic-3057-17192001,"A001/10-14 Little Miller Street, Brunswick East VIC 3057",Apartment / Unit / Flat,$520,-37.7756719,144.9779206,1 Bed,1 Bath,N/A,Available Now,Barbara Thomas
https://www.domain.com.au/6-11a-pine-avenue-elwood-vic-3184-17192109,"6/11A Pine Avenue, Elwood VIC 3184",Apartment / Unit / Flat,$470 pw,-37.8871597,144.9886016,2 Beds,1 Bath,1 Parking,"Monday, 30th September 2024",Artem Chereshkov
https://www.domain.com.au/l602-12-caulfield-boulevard-caulfield-north-vic-3161-17192077,"L602/12 Caulfield Boulevard, Caulfield North VIC 3161",Apartment / Unit / Flat,$1250 per week - 4 Weeks Rent Free*,-37.8757548,145.0392758,3 Beds,2 Baths,1 Parking,Available Now,Leasing Manager Caufield
https://www.domain.com.au/h201-16-hayward-street-caulfield-north-vic-3161-17192065,"H201/16 Hayward Street, Caulfield North VIC 3161",Apartment / Unit / Flat,$1100 p/w - 4 Weeks Rent Free*,-37.8726442,145.0247002,2 Beds,2 Baths,1 Parking,Available Now,Leasing Manager Caufield
https://www.domain.com.au/19-21-tintern-avenue-toorak-vic-3142-17192054,"19/21 Tintern Avenue, Toorak VIC 3142",Apartment / Unit / Flat,$450 pw,-37.8427368,145.0059009,1 Bed,1 Bath,N/A,"Wednesday, 2nd October 2024",Artem Chereshkov
https://www.domain.com.au/l204-8-caulfield-boulevard-caulfield-north-vic-3161-17192051,"L204/8 Caulfield Boulevard, Caulfield North VIC 3161",Apartment / Unit / Flat,4 weeks rent free* From $615 pw,-37.875941,145.0389991,0 Beds,1 Bath,N/A,Available Now,Leasing Manager Caufield
https://www.domain.com.au/g305-11-normanby-road-caulfield-north-vic-3161-17192037,"G305/11 Normanby Road, Caulfield North VIC 3161",Apartment / Unit / Flat,From $650 - 4 WEEKS RENT FREE*,-37.8752814,145.038774,1 Bed,1 Bath,N/A,Available Now,Leasing Manager Caufield
https://www.domain.com.au/7-132-mitford-street-elwood-vic-3184-17191939,"7/132 Mitford Street, Elwood VIC 3184",Apartment / Unit / Flat,$500.00,-37.8805479,144.987263,2 Beds,1 Bath,1 Parking,"Tuesday, 17th September 2024",Richard Beck
https://www.domain.com.au/108-24-barkly-place-carlton-vic-3053-17191829,"108/24 Barkly Place, Carlton VIC 3053",Apartment / Unit / Flat,$350.00,-37.8030467,144.961545,1 Bed,1 Bath,N/A,"Friday, 13th September 2024",Kerttu  Luik
https://www.domain.com.au/3-778-780-hampton-street-brighton-vic-3186-17191821,"3/778-780 Hampton Street, Brighton VIC 3186",Apartment / Unit / Flat,$620.00,-37.917752,145.006873,2 Beds,1 Bath,1 Parking,"Sunday, 22nd September 2024",Kim Britt
https://www.domain.com.au/5-162-lygon-street-brunswick-east-vic-3057-17191814,"5/162 Lygon Street, Brunswick East VIC 3057",Apartment / Unit / Flat,$500,-37.7731749,144.9716384,2 Beds,1 Bath,1 Parking,"Saturday, 7th September 2024",Christian Neofotistos
https://www.domain.com.au/309a-33-inkerman-street-st-kilda-vic-3182-17191756,"309a/33 Inkerman Street, St Kilda VIC 3182",Apartment / Unit / Flat,$660.00,-37.8643939,144.9831423,2 Beds,1 Bath,1 Parking,"Tuesday, 1st October 2024",Kerttu  Luik
https://www.domain.com.au/23-1-sandilands-street-south-melbourne-vic-3205-17191748,"23/1 Sandilands Street, South Melbourne VIC 3205",Apartment / Unit / Flat,$475.00,-37.8362224,144.9683786,1 Bed,1 Bath,1 Parking,"Saturday, 28th September 2024",Kerttu  Luik
https://www.domain.com.au/7-9-11-vale-street-st-kilda-vic-3182-17191746,"7/9-11 Vale Street, St Kilda VIC 3182",Apartment / Unit / Flat,$725.00,-37.866256,144.982408,2 Beds,1 Bath,2 Parking,"Friday, 13th September 2024",Kerttu  Luik
https://www.domain.com.au/313-9-commercial-road-melbourne-vic-3004-17191730,"313/9 Commercial Road, Melbourne VIC 3004",Apartment / Unit / Flat,$490 Per Week,-37.8452869,144.9797891,1 Bed,1 Bath,1 Parking,"Wednesday, 11th September 2024",Frazer Downes
https://www.domain.com.au/33-willana-avenue-hamlyn-heights-vic-3215-17191674,"33 Willana Avenue, Hamlyn Heights VIC 3215",Apartment / Unit / Flat,$320.00,-38.11956960000001,144.3296957,1 Bed,1 Bath,4 Parking,"Monday, 23rd September 2024",Tim Callander
https://www.domain.com.au/3-88-normanby-avenue-thornbury-vic-3071-17191646,"3/88 Normanby Avenue, Thornbury VIC 3071",Apartment / Unit / Flat,$600.00,-37.7584648,144.9917469,2 Beds,1 Bath,2 Parking,"Tuesday, 1st October 2024",Alicia Cannizzaro
https://www.domain.com.au/8-352-koornang-road-carnegie-vic-3163-17191597,"8/352 Koornang Road, Carnegie VIC 3163",Apartment / Unit / Flat,$380.00,-37.90149690000001,145.0549441,1 Bed,1 Bath,1 Parking,Available Now,Veronica Coco
https://www.domain.com.au/911-63-whiteman-st-southbank-vic-3006-17191555,"911/63 Whiteman St, Southbank VIC 3006",Apartment / Unit / Flat,$520 weekly,-37.82593730000001,144.9567897,1 Bed,1 Bath,N/A,"Monday, 23rd September 2024",Leasing Concierge
https://www.domain.com.au/125-131-lonsdale-street-melbourne-vic-3000-17191501,"125/131 Lonsdale Street, Melbourne VIC 3000",Apartment / Unit / Flat,$500 per week,-37.810779,144.9685513,1 Bed,1 Bath,N/A,"Monday, 16th September 2024",Wimpie Santoso
https://www.domain.com.au/2004-618-lonsdale-street-melbourne-vic-3000-17191385,"2004/618 Lonsdale Street, Melbourne VIC 3000",Apartment / Unit / Flat,$470 pw,-37.81441450000001,144.9539107,1 Bed,1 Bath,N/A,Available Now,Trish Ha
https://www.domain.com.au/104-10-mills-boulevard-alphington-vic-3078-17191373,"104/10 Mills Boulevard, Alphington VIC 3078",Apartment / Unit / Flat,$800 per week,-37.7838942,145.0265459,3 Beds,2 Baths,2 Parking,Available Now,Lauren Harris
https://www.domain.com.au/109b-72-ascot-vale-road-flemington-vic-3031-16602596,"109B/72 Ascot Vale Road, Flemington VIC 3031",Apartment / Unit / Flat,$630 per week,-37.7840953,144.9230675,2 Beds,2 Baths,1 Parking,"Friday, 4th October 2024",Angus Brayshaw
https://www.domain.com.au/1505-8-joseph-road-footscray-vic-3011-15242434,"1505/8 Joseph Road, Footscray VIC 3011",Apartment / Unit / Flat,$620 per week,-37.8003267,144.9095584,2 Beds,2 Baths,1 Parking,"Friday, 6th September 2024",Angus Brayshaw
https://www.domain.com.au/2-11a-redan-street-st-kilda-vic-3182-17191252,"2/11A Redan Street, St Kilda VIC 3182",Apartment / Unit / Flat,$575 pw,-37.8599608,144.9890336,2 Beds,1 Bath,1 Parking,Available Now,Joanne Pearson
https://www.domain.com.au/1-9-jordan-street-malvern-vic-3144-17191223,"1/9 Jordan Street, Malvern VIC 3144",Apartment / Unit / Flat,$460 per week,-37.8627242,145.037974,2 Beds,1 Bath,N/A,"Friday, 20th September 2024",Lauren Jackson 
https://www.domain.com.au/11-15-poplar-grove-carnegie-vic-3163-17191218,"11/15 Poplar Grove, Carnegie VIC 3163",Apartment / Unit / Flat,$340 weekly,-37.8861274,145.06312,1 Bed,1 Bath,1 Parking,"Friday, 6th September 2024",Jamie-Lee Fox
https://www.domain.com.au/2-23-clifton-road-hawthorn-east-vic-3123-17191167,"2/23 Clifton Road, Hawthorn East VIC 3123",Apartment / Unit / Flat,$595.00,-37.8436283,145.0518547,2 Beds,1 Bath,1 Parking,"Monday, 30th September 2024",Adam Cusinato
https://www.domain.com.au/307-771-toorak-road-hawthorn-east-vic-3123-17191156,"307/771 Toorak Road, Hawthorn East VIC 3123",Apartment / Unit / Flat,$500.00,-37.8450397,145.043,1 Bed,1 Bath,1 Parking,"Monday, 16th September 2024",Larissa Rael
https://www.domain.com.au/3-62-davidson-street-traralgon-vic-3844-17191142,"3/62 Davidson Street, Traralgon VIC 3844",Apartment / Unit / Flat,$320.00,-38.1904574,146.5447537,1 Bed,1 Bath,1 Parking,"Friday, 13th September 2024",Jackie Levy
https://www.domain.com.au/2-254-wattletree-road-malvern-vic-3144-17191064,"2/254 Wattletree Road, Malvern VIC 3144",Apartment / Unit / Flat,$1200 per week,-37.86393290000001,145.0388632,3 Beds,3 Baths,2 Parking,"Wednesday, 2nd October 2024",Jodi Sherr
https://www.domain.com.au/102-14-elizabeth-street-malvern-vic-3144-17191053,"102/14 Elizabeth Street, Malvern VIC 3144",Apartment / Unit / Flat,$440 pw,-37.8517262,145.0370645,1 Bed,1 Bath,1 Parking,"Wednesday, 11th September 2024",Joanne Pearson
https://www.domain.com.au/4-22-pine-avenue-elwood-vic-3184-17150108,"4/22 Pine Avenue, Elwood VIC 3184",Apartment / Unit / Flat,$560 weekly,-37.887513,144.9878034,2 Beds,1 Bath,N/A,Available Now,Shakira Jaisingh-Fluitsma
https://www.domain.com.au/214-59-autumn-terrace-clayton-south-vic-3169-17190969,"214/59 Autumn Terrace, Clayton South VIC 3169",Apartment / Unit / Flat,$550.00,-37.9392219,145.1384575,2 Beds,2 Baths,1 Parking,"Thursday, 26th September 2024",Cameron  Gibson 
https://www.domain.com.au/4-21-alicia-street-hampton-vic-3188-17190965,"4/21 Alicia Street, Hampton VIC 3188",Apartment / Unit / Flat,$610.00,-37.9431298,145.0039837,2 Beds,1 Bath,2 Parking,"Friday, 4th October 2024",Kerry West
https://www.domain.com.au/203-118-cairnlea-drive-cairnlea-vic-3023-17190952,"203/118 Cairnlea Drive, Cairnlea VIC 3023",Apartment / Unit / Flat,$500 per week,-37.7575338,144.7905404,2 Beds,2 Baths,1 Parking,"Monday, 7th October 2024",Jasmine Ignacio
https://www.domain.com.au/2-16-kokaribb-road-carnegie-vic-3163-17190899,"2/16 Kokaribb Road, Carnegie VIC 3163",Apartment / Unit / Flat,$360 weekly,-37.8876854,145.0558686,1 Bed,1 Bath,1 Parking,"Friday, 6th September 2024",Stefania Tartiris
https://www.domain.com.au/911-2-joseph-road-footscray-vic-3011-17190827,"911/2 Joseph Road, Footscray VIC 3011",Apartment / Unit / Flat,$600 per week,-37.8003267,144.9095584,2 Beds,2 Baths,1 Parking,"Tuesday, 8th October 2024",Kim Te
https://www.domain.com.au/331-220-bay-road-sandringham-vic-3191-17190713,"331/220 Bay Road, Sandringham VIC 3191",Apartment / Unit / Flat,$495 pw,-37.9545616,145.0251373,1 Bed,1 Bath,1 Parking,"Friday, 27th September 2024",Artem Chereshkov
https://www.domain.com.au/906-238-flinders-street-melbourne-vic-3000-14781843,"906/238 Flinders Street, Melbourne VIC 3000",Apartment / Unit / Flat,$400 per week,-37.8175167,144.9664983,1 Bed,1 Bath,N/A,"Saturday, 28th September 2024",Wimpie Santoso
https://www.domain.com.au/715-39-lonsdale-st-melbourne-vic-3000-15483048,"715/39 Lonsdale St, Melbourne VIC 3000",Apartment / Unit / Flat,$520 per week,-37.8099061,144.9711071,2 Beds,1 Bath,N/A,"Monday, 30th September 2024",Wimpie Santoso
https://www.domain.com.au/5209-35-queens-bridge-street-southbank-vic-3006-17190609,"5209/35 Queens Bridge Street, Southbank VIC 3006",Apartment / Unit / Flat,"$1,400 pw",-37.8230583,144.9614033,2 Beds,2 Baths,1 Parking,Available Now,Sara Sis
https://www.domain.com.au/9-204-neerim-road-carnegie-vic-3163-17190597,"9/204 Neerim Road, Carnegie VIC 3163",Apartment / Unit / Flat,$430 weekly,-37.8875452,145.049701,2 Beds,1 Bath,1 Parking,Available Now,Leasing Concierge
https://www.domain.com.au/11-13-cooma-street-preston-vic-3072-17190561,"11-13 Cooma Street, Preston VIC 3072",Apartment / Unit / Flat,$275 per week,-37.7413374,145.0060685,1 Bed,1 Bath,N/A,"Friday, 13th September 2024",Filippa Joensson
https://www.domain.com.au/2-18-kelso-street-richmond-vic-3121-17190444,"2/18 Kelso Street, Richmond VIC 3121",Apartment / Unit / Flat,$550 weekly,-37.828237,144.989708,1 Bed,1 Bath,1 Parking,"Tuesday, 15th October 2024",Harry Whitford
https://www.domain.com.au/504-740-swanston-street-carlton-vic-3053-17190342,"504/740 Swanston Street, Carlton VIC 3053",Apartment / Unit / Flat,$425 pw,-37.7989846,144.9647364,1 Bed,1 Bath,N/A,"Monday, 7th October 2024",Mona Wang
https://www.domain.com.au/10-30-32-tivoli-road-south-yarra-vic-3141-17190173,"10/30-32 Tivoli Road, South Yarra VIC 3141",Apartment / Unit / Flat,$500 Per Week,-37.8382751,144.9986023,1 Bed,1 Bath,1 Parking,"Wednesday, 9th October 2024",Tom Koller
https://www.domain.com.au/209-25-hotham-street-east-melbourne-vic-3002-17190063,"209/25 Hotham Street, East Melbourne VIC 3002",Apartment / Unit / Flat,$330,-37.8148822,144.9895395,1 Bed,1 Bath,N/A,"Tuesday, 24th September 2024",DIANA JURISIC
https://www.domain.com.au/16-21-roydon-street-hampton-east-vic-3188-17190057,"16/21 Roydon Street, Hampton East VIC 3188",Apartment / Unit / Flat,$420.00,-37.9349217,145.0268334,2 Beds,1 Bath,1 Parking,"Friday, 6th September 2024",Amy Ferguson
https://www.domain.com.au/8-229-brighton-road-elwood-vic-3184-17190025,"8/229 Brighton Road, Elwood VIC 3184",Apartment / Unit / Flat,$490 pw,-37.8809333,144.994706,2 Beds,1 Bath,N/A,"Wednesday, 11th September 2024",Artem Chereshkov
https://www.domain.com.au/2-13-rolls-court-glen-waverley-vic-3150-17189958,"2/13 Rolls Court, Glen Waverley VIC 3150",Apartment / Unit / Flat,$800.00,-37.8798632,145.1722204,3 Beds,2 Baths,2 Parking,"Friday, 13th September 2024",Jasmine Palioportas
https://www.domain.com.au/8-28-watson-grove-glen-huntly-vic-3163-17189878,"8/28 Watson Grove, Glen Huntly VIC 3163",Apartment / Unit / Flat,$650 Per Week,-37.8871848,145.0433699,2 Beds,2 Baths,1 Parking,"Friday, 13th September 2024",Leasing Team
https://www.domain.com.au/8-206-whitehorse-road-balwyn-vic-3103-17189850,"8/206 Whitehorse Road, Balwyn VIC 3103",Apartment / Unit / Flat,$500 per week,-37.81258,145.077728,2 Beds,1 Bath,1 Parking,"Thursday, 19th September 2024",Leasing Team
https://www.domain.com.au/402-757-toorak-rd-hawthorn-east-vic-3123-15421865,"402/757 Toorak Rd, Hawthorn East VIC 3123",Apartment / Unit / Flat,$520 per week,-37.8449443,145.0423684,1 Bed,1 Bath,1 Parking,"Saturday, 5th October 2024",Chris Bai
https://www.domain.com.au/12-6-karbarook-avenue-prahran-vic-3181-17189794,"12/6 Karbarook Avenue, Prahran VIC 3181",Apartment / Unit / Flat,$440.00,-37.8591688,145.0098707,1 Bed,1 Bath,1 Parking,Available Now,Cameron  Gibson 
https://www.domain.com.au/2-22-well-street-brighton-vic-3186-17189773,"2/22 Well Street, Brighton VIC 3186",Apartment / Unit / Flat,$630.00,-37.915654,144.993947,2 Beds,1 Bath,1 Parking,"Friday, 4th October 2024",Carolyn Stephens
https://www.domain.com.au/6-11-griffith-street-wodonga-vic-3690-17189731,"6/11 Griffith Street, Wodonga VIC 3690",Apartment / Unit / Flat,$400 per week,-36.133983,146.884315,2 Beds,1 Bath,1 Parking,"Monday, 7th October 2024",Kerri-Ann Hudson
https://www.domain.com.au/3-5-estella-street-glen-iris-vic-3146-17189719,"3/5 Estella Street, Glen Iris VIC 3146",Apartment / Unit / Flat,$650.00,-37.8624026,145.0637361,2 Beds,1 Bath,1 Parking,Available Now,Thea Toogood
https://www.domain.com.au/1-24-northcote-avenue-balwyn-vic-3103-17189689,"1/24 Northcote Avenue, Balwyn VIC 3103",Apartment / Unit / Flat,$795.00,-37.8170858,145.0872497,3 Beds,2 Baths,2 Parking,Available Now,Adam Cusinato
https://www.domain.com.au/1-16-toward-street-murrumbeena-vic-3163-17189688,"1/16 Toward Street, Murrumbeena VIC 3163",Apartment / Unit / Flat,$495 pw,-37.8930841,145.0698461,2 Beds,1 Bath,1 Parking,Available Now,Artem Chereshkov
https://www.domain.com.au/21-14-mcmillan-street-elsternwick-vic-3185-17189680,"21/14 McMillan Street, Elsternwick VIC 3185",Apartment / Unit / Flat,$520.00,-37.8871217,145.0016318,2 Beds,1 Bath,1 Parking,"Friday, 6th September 2024",Cameron  Gibson 
https://www.domain.com.au/2-73-river-street-richmond-vic-3121-17189643,"2/73 River Street, Richmond VIC 3121",Apartment / Unit / Flat,$880 Per Week,-37.8189348,145.0131539,3 Beds,2 Baths,2 Parking,"Friday, 11th October 2024",Frazer Downes
https://www.domain.com.au/7-70-carlisle-street-st-kilda-vic-3182-17189612,"7/70 Carlisle Street, St Kilda VIC 3182",Apartment / Unit / Flat,$350 pw,-37.8673078,144.9846731,1 Bed,1 Bath,1 Parking,"Thursday, 26th September 2024",Artem Chereshkov
https://www.domain.com.au/2-316-neerim-road-carnegie-vic-3163-17189592,"2/316 Neerim Road, Carnegie VIC 3163",Apartment / Unit / Flat,$420 per week,-37.8893249,145.059463,1 Bed,1 Bath,1 Parking,Available Now,Carnegie Leasing
https://www.domain.com.au/403-20-burnley-street-richmond-vic-3121-17189582,"403/20 Burnley Street, Richmond VIC 3121",Apartment / Unit / Flat,$675 per week,-37.8126488,145.0093583,2 Beds,2 Baths,1 Parking,"Sunday, 29th September 2024",Kosta Karas
https://www.domain.com.au/2008-288-spencer-street-melbourne-vic-3000-17189489,"2008/288 Spencer Street, Melbourne VIC 3000",Studio,$390 Per Week,-37.8138268,144.9520213,0 Beds,1 Bath,N/A,"Thursday, 3rd October 2024",Frazer Downes
https://www.domain.com.au/409-11-wellington-street-collingwood-vic-3066-17189414,"409/11 Wellington Street, Collingwood VIC 3066",Apartment / Unit / Flat,$660 per week,-37.8083754,144.9855244,1 Bed,1 Bath,N/A,"Monday, 30th September 2024",Angus Brayshaw
https://www.domain.com.au/3-77-gipps-st-east-melbourne-vic-3002-17189408,"3/77 Gipps St, East Melbourne VIC 3002",Apartment / Unit / Flat,$490 weekly,-37.8134132,144.9879151,2 Beds,1 Bath,N/A,"Monday, 9th September 2024",Mikayla Lastavec
https://www.domain.com.au/7-72-grosvenor-street-balaclava-vic-3183-17189387,"7/72 Grosvenor Street, Balaclava VIC 3183",Apartment / Unit / Flat,$500.00,-37.8730714,144.9958521,2 Beds,1 Bath,2 Parking,"Tuesday, 1st October 2024",Veronica Coco
https://www.domain.com.au/706-632-640-doncaster-road-doncaster-vic-3108-17189256,"706/632-640 Doncaster Road, Doncaster VIC 3108",Apartment / Unit / Flat,$470.00,-37.7875232,145.1266175,1 Bed,1 Bath,1 Parking,"Saturday, 7th September 2024",Sahar Ebadi
https://www.domain.com.au/4-39-cook-street-flinders-vic-3929-17189233,"4/39 Cook Street, Flinders VIC 3929",Apartment / Unit / Flat,$650,-38.4742537,145.017952,2 Beds,2 Baths,1 Parking,Available Now,Andrew Hall
https://www.domain.com.au/2204-350-william-street-melbourne-vic-3000-17189230,"2204/350 William Street, Melbourne VIC 3000",Apartment / Unit / Flat,$475 pw,-37.8112625,144.9566204,1 Bed,1 Bath,N/A,Available Now,Trish Ha
https://www.domain.com.au/6-28-holloway-street-ormond-vic-3204-17189200,"6/28 Holloway Street, Ormond VIC 3204",Apartment / Unit / Flat,$440.00,-37.9021203,145.0479148,2 Beds,1 Bath,1 Parking,"Wednesday, 18th September 2024",Hannah Alderson
https://www.domain.com.au/4-15-cardigan-street-st-kilda-east-vic-3183-17189193,"4/15 Cardigan Street, St Kilda East VIC 3183",Apartment / Unit / Flat,$465 per week,-37.8655719,145.0015899,1 Bed,1 Bath,1 Parking,"Monday, 9th September 2024",Lauren Harris
https://www.domain.com.au/203-41-43-park-street-hawthorn-vic-3122-16856544,"203/41-43 Park Street, Hawthorn VIC 3122",Apartment / Unit / Flat,$300 pw,-37.8198792,145.0389592,1 Bed,1 Bath,N/A,"Monday, 23rd September 2024",Daniel Hamilton
https://www.domain.com.au/201-14-david-street-richmond-vic-3121-17189140,"201/14 David Street, Richmond VIC 3121",Apartment / Unit / Flat,$675 weekly,-37.8154413,145.0111408,2 Beds,1 Bath,1 Parking,"Friday, 6th September 2024",Ysabella Dimitrakopoulos
https://www.domain.com.au/103-219-barkly-street-st-kilda-vic-3182-17189082,"103/219 Barkly Street, St Kilda VIC 3182",Apartment / Unit / Flat,$950 per week,-37.8700828,144.9804776,3 Beds,2 Baths,1 Parking,Available Now,Dragan Mrkela
https://www.domain.com.au/4-71-kirkwood-avenue-seaford-vic-3198-17189063,"4/71 Kirkwood Avenue, Seaford VIC 3198",Apartment / Unit / Flat,$520.00,-38.1225469,145.1315259,2 Beds,1 Bath,1 Parking,"Monday, 7th October 2024",Lynn Xu
https://www.domain.com.au/707-2-14-albert-road-south-melbourne-vic-3205-17189044,"707/2-14 Albert Road, South Melbourne VIC 3205",Apartment / Unit / Flat,$650.00,-37.83282639999999,144.970907,1 Bed,1 Bath,1 Parking,"Friday, 13th September 2024",Adam Cusinato
https://www.domain.com.au/2-15-leonard-avenue-noble-park-vic-3174-17189042,"2/15 Leonard Avenue, Noble Park VIC 3174",Apartment / Unit / Flat,$360.00,-37.9689418,145.1760768,1 Bed,1 Bath,1 Parking,"Friday, 11th October 2024",Lynn Xu
https://www.domain.com.au/13-2-thistle-grove-highett-vic-3190-17188964,"13/2 Thistle Grove, Highett VIC 3190",Apartment / Unit / Flat,$550.00,-37.9504853,145.0423637,2 Beds,1 Bath,1 Parking,"Thursday, 26th September 2024",Tara Stewart
https://www.domain.com.au/3-33-bevan-street-albert-park-vic-3206-17188939,"3/33 Bevan Street, Albert Park VIC 3206",Apartment / Unit / Flat,$575.00,-37.8399588,144.9563729,1 Bed,1 Bath,N/A,"Tuesday, 1st October 2024",Jade Sterland
https://www.domain.com.au/305-136-burnley-street-richmond-vic-3121-17188838,"305/136 Burnley Street, Richmond VIC 3121",Apartment / Unit / Flat,$620 per week,-37.817429,145.0084018,2 Beds,1 Bath,1 Parking,Available Now,Leasing Team
https://www.domain.com.au/3102-188-whitehorse-road-balwyn-vic-3103-17188778,"3102/188 Whitehorse Road, Balwyn VIC 3103",Apartment / Unit / Flat,$500 pw,-37.8124498,145.0757629,1 Bed,1 Bath,1 Parking,"Friday, 20th September 2024",Stephanie Allen
https://www.domain.com.au/1206-20-wardens-walk-coburg-vic-3058-17188727,"1206/20 Wardens Walk, Coburg VIC 3058",Apartment / Unit / Flat,$480 PER WEEK,-37.7385722,144.968578,1 Bed,1 Bath,1 Parking,Available Now,Mary Corso
https://www.domain.com.au/1-42-bay-road-sandringham-vic-3191-17188724,"1/42 Bay Road, Sandringham VIC 3191",Apartment / Unit / Flat,$490.00,-37.9520577,145.0052921,1 Bed,1 Bath,1 Parking,"Wednesday, 25th September 2024",Molly Rogerson
https://www.domain.com.au/1205-20-wardens-walk-coburg-vic-3058-17188681,"1205/20 Wardens Walk, Coburg VIC 3058",Apartment / Unit / Flat,$480 PER WEEK,-37.7385722,144.968578,1 Bed,1 Bath,1 Parking,Available Now,Mary Corso
https://www.domain.com.au/1106-20-wardens-walk-coburg-vic-3058-17188628,"1106/20 Wardens Walk, Coburg VIC 3058",Apartment / Unit / Flat,$480 PER WEEK,-37.7385722,144.968578,1 Bed,1 Bath,1 Parking,Available Now,Mary Corso
https://www.domain.com.au/814-32-bray-street-south-yarra-vic-3141-17188606,"814/32 Bray Street, South Yarra VIC 3141",Apartment / Unit / Flat,$550 pw,-37.8444692,144.9955271,2 Beds,1 Bath,1 Parking,Available Now,Carson Mair
https://www.domain.com.au/708-20-wardens-walk-coburg-vic-3058-17188586,"708/20 Wardens Walk, Coburg VIC 3058",Apartment / Unit / Flat,$480 PER WEEK,-37.7385722,144.968578,1 Bed,1 Bath,1 Parking,Available Now,Mary Corso
https://www.domain.com.au/901-422-collins-street-melbourne-vic-3000-17188552,"901/422 Collins Street, Melbourne VIC 3000",Apartment / Unit / Flat,$675 per week,-37.8170971,144.9601487,2 Beds,1 Bath,N/A,"Tuesday, 17th September 2024",Mikaele Horsnell
https://www.domain.com.au/407-20-wardens-walk-coburg-vic-3058-17188535,"407/20 Wardens Walk, Coburg VIC 3058",Apartment / Unit / Flat,$480 PER WEEK,-37.7385722,144.968578,1 Bed,1 Bath,1 Parking,Available Now,Mary Corso
https://www.domain.com.au/102-56-stockade-avenue-coburg-vic-3058-17188461,"102/56 Stockade Avenue, Coburg VIC 3058",Apartment / Unit / Flat,$480 PER WEEK,-37.7389869,144.9688669,1 Bed,1 Bath,1 Parking,Available Now,Mary Corso
https://www.domain.com.au/6-754-high-street-armadale-vic-3143-17188444,"6/754 High Street, Armadale VIC 3143",Apartment / Unit / Flat,$630.00,-37.8548043,145.014153,2 Beds,1 Bath,1 Parking,"Thursday, 26th September 2024",Danielle Crumblehulme
https://www.domain.com.au/3-66-simpson-st-east-melbourne-vic-3002-17188416,"3/66 Simpson St, East Melbourne VIC 3002",Apartment / Unit / Flat,$475 weekly,-37.8148573,144.9883739,1 Bed,1 Bath,N/A,"Friday, 6th September 2024",Preet Sandhu
https://www.domain.com.au/107-16-pentridge-boulevard-coburg-vic-3058-17188411,"107/16 Pentridge Boulevard, Coburg VIC 3058",Apartment / Unit / Flat,$480 PER WEEK,-37.7384534,144.9694507,1 Bed,1 Bath,1 Parking,Available Now,Mary Corso
https://www.domain.com.au/6-52-grange-road-toorak-vic-3142-17188367,"6/52 Grange Road, Toorak VIC 3142",Apartment / Unit / Flat,$600.00,-37.8350551,145.0120389,2 Beds,1 Bath,1 Parking,Available Now,Danielle Crumblehulme
https://www.domain.com.au/316-350-victoria-street-north-melbourne-vic-3051-17188316,"316/350 Victoria Street, North Melbourne VIC 3051",Apartment / Unit / Flat,$900 per week,-37.8055188,144.9547344,2 Beds,1 Bath,1 Parking,Available Now,Jim Georgiou
https://www.domain.com.au/2-14-north-road-brighton-vic-3186-17188307,"2/14 North Road, Brighton VIC 3186",Apartment / Unit / Flat,$990 weekly,-37.8979193,144.9884519,2 Beds,2 Baths,2 Parking,Available Now,Shakira Jaisingh-Fluitsma
https://www.domain.com.au/11-37-hotham-street-st-kilda-vic-3182-17188292,"11/37 Hotham Street, St Kilda VIC 3182",Apartment / Unit / Flat,$395 pw,-37.864,144.982,1 Bed,1 Bath,1 Parking,"Monday, 9th September 2024",Artem Chereshkov
https://www.domain.com.au/20-24-springfield-avenue-toorak-vic-3142-17188280,"20/24 Springfield Avenue, Toorak VIC 3142",Apartment / Unit / Flat,$925.00,-37.84506409999999,145.0118834,3 Beds,1 Bath,1 Parking,Available Now,Renee Hewstone
https://www.domain.com.au/403-258-flinders-ln-melbourne-vic-3000-17188244,"403/258 Flinders Ln, Melbourne VIC 3000",Apartment / Unit / Flat,$585 weekly,-37.8167822,144.96558,2 Beds,1 Bath,N/A,"Friday, 6th September 2024",Preet Sandhu
https://www.domain.com.au/24-9-the-avenue-windsor-vic-3181-17188231,"24/9 The Avenue, Windsor VIC 3181",Apartment / Unit / Flat,$490 Per Week,-37.8568378,144.9973078,1 Bed,1 Bath,1 Parking,"Wednesday, 2nd October 2024",Tom Koller
https://www.domain.com.au/17-25-williams-road-prahran-vic-3181-17188213,"17/25 Williams Road, Prahran VIC 3181",Apartment / Unit / Flat,$400 Per Week,-37.8563538,145.0016353,1 Bed,1 Bath,N/A,"Thursday, 3rd October 2024",Tom Koller
https://www.domain.com.au/11-7-truganini-road-carnegie-vic-3163-17188212,"11/7 Truganini Road, Carnegie VIC 3163",Apartment / Unit / Flat,$375 weekly,-37.8870547,145.0551269,1 Bed,1 Bath,1 Parking,"Thursday, 12th September 2024",Lachlan Hardiman
https://www.domain.com.au/31-82-park-street-st-kilda-west-vic-3182-17188186,"31/82 Park Street, St Kilda West VIC 3182",Apartment / Unit / Flat,$485 Per Week,-37.857018,144.9703825,1 Bed,1 Bath,1 Parking,"Friday, 20th September 2024",Tom Koller
https://www.domain.com.au/202-572-st-kilda-road-melbourne-vic-3004-17188106,"202/572 St Kilda Road, Melbourne VIC 3004",Apartment / Unit / Flat,$550 per week,-37.8475988,144.9792431,1 Bed,1 Bath,N/A,Available Now,Flo Djaja
https://www.domain.com.au/5-15-oak-grove-ripponlea-vic-3185-17188103,"5/15 Oak Grove, Ripponlea VIC 3185",Apartment / Unit / Flat,$550 weekly,-37.8759867,144.9966596,2 Beds,1 Bath,1 Parking,"Thursday, 19th September 2024",Leasing Concierge
https://www.domain.com.au/3-36-byron-street-elwood-vic-3184-17188005,"3/36 Byron Street, Elwood VIC 3184",Apartment / Unit / Flat,$500.00,-37.8778563,144.9877962,2 Beds,1 Bath,1 Parking,Available Now,Richard Beck
https://www.domain.com.au/1807-60-lorimer-street-docklands-vic-3008-17187969,"1807/60 Lorimer Street, Docklands VIC 3008",Apartment / Unit / Flat,$850 pw,-37.8249678,144.9469264,2 Beds,1 Bath,1 Parking,"Wednesday, 2nd October 2024",Mica Viotti
https://www.domain.com.au/107-77-83-nicholson-street-brunswick-east-vic-3057-15706136,"107/77-83 Nicholson Street, Brunswick East VIC 3057",Apartment / Unit / Flat,$800,-37.7747768,144.9787431,3 Beds,2 Baths,1 Parking,"Monday, 30th September 2024",Barbara Thomas
https://www.domain.com.au/2601-288-spencer-street-melbourne-vic-3000-17187879,"2601/288 Spencer Street, Melbourne VIC 3000",Apartment / Unit / Flat,$550 pw,-37.8138136,144.9520272,1 Bed,1 Bath,N/A,"Friday, 4th October 2024",Mica Viotti
https://www.domain.com.au/2-46-lorikeet-street-nunawading-vic-3131-17187873,"2/46 Lorikeet Street, Nunawading VIC 3131",Apartment / Unit / Flat,$605 weekly,-37.8279479,145.1854421,3 Beds,2 Baths,2 Parking,"Monday, 30th September 2024",Justine Sawford
https://www.domain.com.au/512-87-franklin-street-melbourne-vic-3000-17187871,"512/87 Franklin Street, Melbourne VIC 3000",Apartment / Unit / Flat,$525 weekly,-37.8079459,144.9617001,1 Bed,1 Bath,1 Parking,"Wednesday, 18th September 2024",Preet Sandhu
https://www.domain.com.au/2-60-simpson-street-east-melbourne-vic-3002-17187839,"2/60 Simpson Street, East Melbourne VIC 3002",Apartment / Unit / Flat,$740 pw,-37.8150768,144.9883529,2 Beds,1 Bath,1 Parking,"Friday, 20th September 2024",Stephanie Allen
https://www.domain.com.au/4-1-manningtree-road-hawthorn-vic-3122-17187836,"4/1 Manningtree Road, Hawthorn VIC 3122",Apartment / Unit / Flat,$550.00,-37.822548,145.026865,2 Beds,1 Bath,1 Parking,Available Now,Adam Cusinato
https://www.domain.com.au/202-687-toorak-rd-kooyong-vic-3144-17187815,"202/687 Toorak Rd, Kooyong VIC 3144",Apartment / Unit / Flat,$600 weekly,-37.8436093,145.0317836,2 Beds,2 Baths,1 Parking,"Monday, 21st October 2024",Michelle De Luca
https://www.domain.com.au/3-6-te-arai-avenue-st-kilda-east-vic-3183-17187738,"3/6 Te-Arai Avenue, St Kilda East VIC 3183",Apartment / Unit / Flat,$330 pw,-37.8625505,145.0077538,1 Bed,1 Bath,1 Parking,Available Now,Artem Chereshkov
https://www.domain.com.au/414-163-169-inkerman-street-st-kilda-vic-3182-17187735,"414/163-169 Inkerman Street, St Kilda VIC 3182",Apartment / Unit / Flat,$575 pw,-37.8652594,144.9882331,2 Beds,1 Bath,1 Parking,"Thursday, 19th September 2024",Artem Chereshkov
https://www.domain.com.au/g04-5-olive-york-way-brunswick-west-vic-3055-15164044,"G04/5 Olive York Way, Brunswick West VIC 3055",Apartment / Unit / Flat,$550,-37.7588332,144.9388279,2 Beds,1 Bath,1 Parking,"Wednesday, 25th September 2024",Angus Brayshaw
https://www.domain.com.au/1402-45-clarke-street-southbank-vic-3006-17187719,"1402/45 Clarke Street, Southbank VIC 3006",Apartment / Unit / Flat,$700 pw,-37.8267241,144.95949,2 Beds,2 Baths,N/A,"Thursday, 26th September 2024",Mina Boa
https://www.domain.com.au/13-88-franklin-street-melbourne-vic-3000-17187720,"13/88 Franklin Street, Melbourne VIC 3000",Apartment / Unit / Flat,$440 pw,-37.8080595,144.9597639,1 Bed,1 Bath,N/A,"Saturday, 7th September 2024",Barbara Baltas
https://www.domain.com.au/2-381-danks-st-middle-park-vic-3206-16373513,"2/381 Danks St, Middle Park VIC 3206",Apartment / Unit / Flat,$800,-37.8528738,144.9627632,2 Beds,1 Bath,N/A,"Friday, 4th October 2024",Leasing Team
https://www.domain.com.au/517-93-furlong-road-cairnlea-vic-3023-16332267,"517/93 Furlong Road, Cairnlea VIC 3023",Apartment / Unit / Flat,$525 per week,-37.75751109999999,144.7904877,2 Beds,2 Baths,1 Parking,"Friday, 11th October 2024",Jasmine Ignacio
https://www.domain.com.au/6-68-edgar-street-north-glen-iris-vic-3146-17187602,"6/68 Edgar Street North, Glen Iris VIC 3146",Apartment / Unit / Flat,$550.00,-37.8496561,145.0466169,2 Beds,1 Bath,1 Parking,Available Now,Thea Toogood
https://www.domain.com.au/2313-250-elizabeth-street-melbourne-vic-3000-17187548,"2313/250 Elizabeth Street, Melbourne VIC 3000",Apartment / Unit / Flat,$650 per week furnished,-37.8125509,144.9627482,1 Bed,1 Bath,N/A,"Monday, 9th September 2024",Precinct Leasing
https://www.domain.com.au/313-1050-mt-alexander-road-essendon-vic-3040-17187529,"313/1050 Mt Alexander Road, Essendon VIC 3040",Apartment / Unit / Flat,$530 pw,-37.7483971,144.9133872,2 Beds,2 Baths,1 Parking,Available Now,Carson Mair
https://www.domain.com.au/311-333-ascot-vale-road-moonee-ponds-vic-3039-17187477,"311/333 Ascot Vale Road, Moonee Ponds VIC 3039",Apartment / Unit / Flat,$630 pw,-37.7683858,144.9244458,2 Beds,2 Baths,1 Parking,Available Now,Carson Mair
https://www.domain.com.au/501-446-malvern-road-prahran-vic-3181-17187423,"501/446 Malvern Road, Prahran VIC 3181",Apartment / Unit / Flat,$2200 Per Week,-37.8479885,145.0012197,3 Beds,2 Baths,2 Parking,Available Now,Nathan Emmett
https://www.domain.com.au/1-45-william-street-wodonga-vic-3690-17187379,"1/45 William Street, Wodonga VIC 3690",Apartment / Unit / Flat,$420 per week,-36.1285828,146.8828127,2 Beds,1 Bath,1 Parking,Available Now,Renee Saunders
https://www.domain.com.au/808-408-lonsdale-street-melbourne-vic-3000-16597255,"808/408 Lonsdale Street, Melbourne VIC 3000",Studio,$400,-37.8125979,144.9604012,1 Bed,1 Bath,N/A,Available Now,Manuel Flores
https://www.domain.com.au/g14-45-linden-avenue-ivanhoe-vic-3079-17187351,"G14/45 Linden Avenue, Ivanhoe VIC 3079",Apartment / Unit / Flat,$470 PER WEEK,-37.754952,145.0540423,1 Bed,1 Bath,1 Parking,Available Now,Mary Corso
https://www.domain.com.au/11-36-kensington-road-south-yarra-vic-3141-17187331,"11/36 Kensington Road, South Yarra VIC 3141",Apartment / Unit / Flat,$625 Per Week,-37.8364859,145.0017852,2 Beds,1 Bath,1 Parking,Available Now,Lucas Russell
https://www.domain.com.au/32-115-oxford-street-collingwood-vic-3066-17150676,"32/115 Oxford Street, Collingwood VIC 3066",Apartment / Unit / Flat,Fully Furnished- $1000 / Unfurnished- $960,-37.8026024,144.9847895,2 Beds,1 Bath,1 Parking,"Tuesday, 10th September 2024",Jayde Cashion
https://www.domain.com.au/309-88-cambridge-street-collingwood-vic-3066-15175691,"309/88 Cambridge Street, Collingwood VIC 3066",Apartment / Unit / Flat,$580 per week,-37.8060423,144.9854966,1 Bed,1 Bath,1 Parking,"Wednesday, 18th September 2024",Angus Brayshaw
https://www.domain.com.au/4-1-canberra-road-toorak-vic-3142-17187020,"4/1 Canberra Road, Toorak VIC 3142",Apartment / Unit / Flat,$1200 Per Week,-37.836645,145.0096942,3 Beds,2 Baths,1 Parking,Available Now,Hudson Keppell
https://www.domain.com.au/111-226-bay-road-sandringham-vic-3191-17186826,"111/226 Bay Road, Sandringham VIC 3191",Apartment / Unit / Flat,$950 Per Week,-37.9552626,145.0262991,3 Beds,2 Baths,2 Parking,Available Now,Megan Taylor
https://www.domain.com.au/7-61-marne-street-south-yarra-vic-3141-17186789,"7/61 Marne Street, South Yarra VIC 3141",Apartment / Unit / Flat,$650 Per Week,-37.834675,144.9840715,2 Beds,1 Bath,N/A,Available Now,Hudson Keppell
https://www.domain.com.au/5-32-darling-street-south-yarra-vic-3141-17186733,"5/32 Darling Street, South Yarra VIC 3141",Apartment / Unit / Flat,$500 pw,-37.836706,144.9919495,1 Bed,1 Bath,N/A,Available Now,Paul Tunney
https://www.domain.com.au/20-114-dodds-street-southbank-vic-3006-17186715,"20/114 Dodds Street, Southbank VIC 3006",Apartment / Unit / Flat,$650 Per Week,-37.8290502,144.9659461,2 Beds,1 Bath,1 Parking,"Monday, 30th September 2024",Frazer Downes
https://www.domain.com.au/125-33-47-la-trobe-street-melbourne-vic-3000-17186710,"125/33-47 La Trobe Street, Melbourne VIC 3000",Apartment / Unit / Flat,$600.00,-37.8079019,144.9703422,2 Beds,1 Bath,1 Parking,"Wednesday, 2nd October 2024",Jack Alexander
https://www.domain.com.au/2104-18-yarra-street-south-yarra-vic-3141-17186708,"2104/18 Yarra Street, South Yarra VIC 3141",Apartment / Unit / Flat,$650 Per Week,-37.8362196,144.9932185,2 Beds,1 Bath,N/A,"Thursday, 12th September 2024",Darren McMullin
https://www.domain.com.au/5-15-maling-road-canterbury-vic-3126-17186705,"5/15 Maling Road, Canterbury VIC 3126",Apartment / Unit / Flat,$650 Per Week,-37.8283188,145.0740245,2 Beds,1 Bath,1 Parking,"Monday, 9th September 2024",Dylan Archer
https://www.domain.com.au/4-258-hope-street-brunswick-west-vic-3055-16195281,"4/258 Hope Street, Brunswick West VIC 3055",Apartment / Unit / Flat,$560,-37.7618939,144.9434662,2 Beds,1 Bath,1 Parking,Available Now,Hassan Allouche
https://www.domain.com.au/9b-131-lonsdale-street-melbourne-vic-3000-17186660,"9B/131 Lonsdale Street, Melbourne VIC 3000",Apartment / Unit / Flat,$450 per week,-37.810779,144.9685513,1 Bed,1 Bath,N/A,"Saturday, 7th September 2024",Serena Fonua
https://www.domain.com.au/808-800-chapel-street-south-yarra-vic-3141-17186642,"808/800 Chapel Street, South Yarra VIC 3141",Apartment / Unit / Flat,$700 Per Week,-37.83604,144.9966822,2 Beds,1 Bath,1 Parking,Available Now,Evelyne Surja
https://www.domain.com.au/127-88-kavanagh-street-southbank-vic-3006-17186615,"127/88 Kavanagh Street, Southbank VIC 3006",Apartment / Unit / Flat,$725 pw,-37.8246292,144.9630105,2 Beds,2 Baths,1 Parking,Available Now,Trish Ha
https://www.domain.com.au/1-34-mcintyre-street-burwood-vic-3125-17186581,"1/34 McIntyre Street, Burwood VIC 3125",Apartment / Unit / Flat,$500 weekly,-37.8512989,145.105742,2 Beds,1 Bath,1 Parking,"Wednesday, 18th September 2024",Jamie-Lee Fox
https://www.domain.com.au/28-220-barkly-street-st-kilda-vic-3182-17186553,"28/220 Barkly Street, St Kilda VIC 3182",Apartment / Unit / Flat,$850 pw,-37.8709428,144.980705,2 Beds,2 Baths,1 Parking,"Thursday, 12th September 2024",Joanne Pearson
https://www.domain.com.au/1015-338-kings-way-south-melbourne-vic-3205-17186518,"1015/338 Kings Way, South Melbourne VIC 3205",Apartment / Unit / Flat,$450.00,-37.8349184,144.9699899,1 Bed,1 Bath,1 Parking,"Monday, 16th September 2024",Jayde Cashion
https://www.domain.com.au/10-516-glenferrie-road-hawthorn-vic-3122-17186498,"10/516 Glenferrie Road, Hawthorn VIC 3122",Apartment / Unit / Flat,$460 Per Week,-37.82971,145.034241,1 Bed,1 Bath,1 Parking,Available Now,Dylan Archer
https://www.domain.com.au/3-60-serrell-st-malvern-east-vic-3145-17186489,"3/60 Serrell St, Malvern East VIC 3145",Apartment / Unit / Flat,$630 weekly,-37.8799819,145.0631351,3 Beds,1 Bath,1 Parking,"Friday, 13th September 2024",Jamie-Lee Fox
https://www.domain.com.au/107-3-dixon-street-clayton-vic-3168-17186363,"107/3 Dixon Street, Clayton VIC 3168",Apartment / Unit / Flat,$475 pw,-37.9190393,145.1218592,2 Beds,1 Bath,1 Parking,"Friday, 4th October 2024",Daniel Hamilton
https://www.domain.com.au/3-9-homebush-crescent-hawthorn-east-vic-3123-17186348,"3/9 Homebush Crescent, Hawthorn East VIC 3123",Apartment / Unit / Flat,$550.00,-37.8242828,145.0565345,2 Beds,1 Bath,1 Parking,Available Now,Thea Toogood
https://www.domain.com.au/3-1480-malvern-road-glen-iris-vic-3146-16168425,"3/1480 Malvern Road, Glen Iris VIC 3146",Apartment / Unit / Flat,$485 per week,-37.8539422,145.0467966,2 Beds,1 Bath,1 Parking,Available Now,Karen Pearce
https://www.domain.com.au/3-23-fernhill-road-sandringham-vic-3191-17186280,"3/23 Fernhill Road, Sandringham VIC 3191",Apartment / Unit / Flat,$650.00,-37.9531401,145.0089644,2 Beds,1 Bath,1 Parking,"Thursday, 3rd October 2024",Alvin Vitor
https://www.domain.com.au/85-73-river-street-richmond-vic-3121-17186253,"85/73 River Street, Richmond VIC 3121",Apartment / Unit / Flat,$700 Per Week,-37.8189479,145.013148,2 Beds,2 Baths,1 Parking,"Friday, 6th September 2024",Frazer Downes
https://www.domain.com.au/4-1275-burke-road-kew-vic-3101-17186042,"4/1275 Burke Road, Kew VIC 3101",Apartment / Unit / Flat,$650.00,-37.80728680000001,145.0610459,2 Beds,1 Bath,1 Parking,"Monday, 16th September 2024",Adam Cusinato
https://www.domain.com.au/1005-16-pentridge-boulevard-coburg-vic-3058-17185983,"1005/16 Pentridge Boulevard, Coburg VIC 3058",Apartment / Unit / Flat,$520 Per Week,-37.7384534,144.9694507,1 Bed,1 Bath,1 Parking,Available Now,Brooke Davis
https://www.domain.com.au/29-10-clifton-street-prahran-vic-3181-17185982,"29/10 Clifton Street, Prahran VIC 3181",Apartment / Unit / Flat,$600 per week,-37.851499,144.9952126,2 Beds,1 Bath,1 Parking,"Sunday, 22nd September 2024",Leasing Team
https://www.domain.com.au/205-16-pentridge-boulevard-coburg-vic-3058-17185966,"205/16 Pentridge Boulevard, Coburg VIC 3058",Apartment / Unit / Flat,$670 Per Week,-37.7384534,144.9694507,2 Beds,2 Baths,1 Parking,Available Now,Kim Te
https://www.domain.com.au/801-52-park-street-south-melbourne-vic-3205-17185954,"801/52 Park Street, South Melbourne VIC 3205",Apartment / Unit / Flat,$450 per week,-37.8328037,144.969168,1 Bed,1 Bath,N/A,"Friday, 13th September 2024",Leasing Team
https://www.domain.com.au/4-324-high-street-windsor-vic-3181-17185938,"4/324 High Street, Windsor VIC 3181",Apartment / Unit / Flat,$560 per week,-37.852918,144.998826,2 Beds,1 Bath,1 Parking,"Thursday, 5th September 2024",Kosta Karas
https://www.domain.com.au/1-1-bates-street-malvern-east-vic-3145-17185899,"1/1 Bates Street, Malvern East VIC 3145",Apartment / Unit / Flat,$440.00,-37.874861,145.0435908,2 Beds,1 Bath,1 Parking,"Monday, 30th September 2024",Paula Porter
https://www.domain.com.au/6-5-vautier-street-elwood-vic-3184-17185876,"6/5 Vautier Street, Elwood VIC 3184",Apartment / Unit / Flat,$750 Per Week,-37.885826,144.9870232,2 Beds,1 Bath,1 Parking,"Friday, 27th September 2024",Hudson Keppell
https://www.domain.com.au/6-5-vautier-street-elwood-vic-3184-17185877,"6/5 Vautier Street, Elwood VIC 3184",Apartment / Unit / Flat,$750 Per Week,-37.885826,144.9870232,2 Beds,1 Bath,1 Parking,"Friday, 27th September 2024",Hudson Keppell
https://www.domain.com.au/3-39-vautier-street-elwood-vic-3184-17185875,"3/39 Vautier Street, Elwood VIC 3184",Apartment / Unit / Flat,$550 Per Week,-37.8872705,144.9855967,2 Beds,1 Bath,2 Parking,"Friday, 27th September 2024",Hudson Keppell
https://www.domain.com.au/12-1a-jean-street-cheltenham-vic-3192-17185827,"12/1A Jean Street, Cheltenham VIC 3192",Apartment / Unit / Flat,$550 per week,-37.9627328,145.0535221,2 Beds,1 Bath,1 Parking,"Friday, 27th September 2024",Leasing Team
https://www.domain.com.au/3-146-alma-road-st-kilda-east-vic-3183-17185720,"3/146 Alma Road, St Kilda East VIC 3183",Apartment / Unit / Flat,$600.00,-37.8622918,144.9994509,2 Beds,1 Bath,1 Parking,"Friday, 13th September 2024",Jay Jacob-Green
https://www.domain.com.au/4-103-grosvenor-street-balaclava-vic-3183-17185695,"4/103 Grosvenor Street, Balaclava VIC 3183",Apartment / Unit / Flat,$750 pw,-37.8736416,144.997204,2 Beds,1 Bath,1 Parking,"Wednesday, 25th September 2024",Artem Chereshkov
https://www.domain.com.au/401-126-chapel-street-st-kilda-vic-3182-17185654,"401/126 Chapel Street, St Kilda VIC 3182",Apartment / Unit / Flat,"$1,200 pw",-37.8690955,144.9904281,3 Beds,3 Baths,2 Parking,"Tuesday, 1st October 2024",Joanne Pearson
https://www.domain.com.au/307-33-batman-street-west-melbourne-vic-3003-16668342,"307/33 Batman Street, West Melbourne VIC 3003",Apartment / Unit / Flat,$570 per week,-37.8108602,144.9518268,2 Beds,1 Bath,N/A,"Tuesday, 24th September 2024",Ismaeel Hussain
https://www.domain.com.au/1-28-esplanade-esplanade-brighton-vic-3186-17185480,"1/28 Esplanade Esplanade, Brighton VIC 3186",Apartment / Unit / Flat,$1995 Per Week,-37.9259736,144.9873857,3 Beds,2 Baths,2 Parking,Available Now,Megan Taylor
https://www.domain.com.au/2012-551-swanston-street-carlton-vic-3053-16226330,"2012/551 Swanston Street, Carlton VIC 3053",Apartment / Unit / Flat,$610 per week,-37.8057727,144.9628609,2 Beds,2 Baths,1 Parking,Available Now,Ismaeel Hussain
https://www.domain.com.au/57-352-canterbury-road-st-kilda-vic-3182-17185276,"57/352 Canterbury Road, St Kilda VIC 3182",Apartment / Unit / Flat,$600.00,-37.8590101,144.9767581,1 Bed,1 Bath,1 Parking,"Thursday, 12th September 2024",Jay Jacob-Green
https://www.domain.com.au/g03-1309-toorak-road-camberwell-vic-3124-17185244,"G03/1309 Toorak Road, Camberwell VIC 3124",Apartment / Unit / Flat,$620 weekly,-37.8493832,145.0893113,2 Beds,1 Bath,1 Parking,"Monday, 7th October 2024",Mikayla Lastavec
https://www.domain.com.au/3-1222-dandenong-road-murrumbeena-vic-3163-17185152,"3/1222 Dandenong Road, Murrumbeena VIC 3163",Apartment / Unit / Flat,$410 weekly,-37.8849484,145.0700001,2 Beds,1 Bath,1 Parking,"Friday, 20th September 2024","*** Please click ""register now"" to receive information regarding our inspection times ***"
https://www.domain.com.au/112-1-graham-street-port-melbourne-vic-3207-17121589,"112/1 Graham Street, Port Melbourne VIC 3207",Apartment / Unit / Flat,$800 weekly,-37.8428872,144.9448802,3 Beds,1 Bath,2 Parking,Available Now,Shakira Jaisingh-Fluitsma
https://www.domain.com.au/309-179-boundary-road-north-melbourne-vic-3051-17185081,"309/179 Boundary Road, North Melbourne VIC 3051",Apartment / Unit / Flat,$580.00,-37.7889129,144.9392885,2 Beds,1 Bath,1 Parking,"Thursday, 26th September 2024",Jayde Cashion
https://www.domain.com.au/10-317-inkerman-street-st-kilda-east-vic-3183-17185026,"10/317 Inkerman Street, St Kilda East VIC 3183",Apartment / Unit / Flat,$500 Per Week,-37.8659998,144.9951414,1 Bed,1 Bath,1 Parking,"Wednesday, 2nd October 2024",Frazer Downes
https://www.domain.com.au/20-130-alma-road-st-kilda-east-vic-3183-17184824,"20/130 Alma Road, St Kilda East VIC 3183",Apartment / Unit / Flat,$495 pw,-37.8620498,144.9974015,1 Bed,1 Bath,1 Parking,Available Now,Carson Mair
https://www.domain.com.au/1113-639-lonsdale-street-melbourne-vic-3000-17184799,"1113/639 Lonsdale Street, Melbourne VIC 3000",Apartment / Unit / Flat,$800 pw,-37.8150105,144.9534188,2 Beds,2 Baths,1 Parking,"Friday, 27th September 2024",Mica Viotti
https://www.domain.com.au/2601-65-dudley-street-west-melbourne-vic-3003-15760997,"2601/65 Dudley Street, West Melbourne VIC 3003",Apartment / Unit / Flat,$540 per Week,-37.8101364,144.9503935,1 Bed,1 Bath,N/A,N/A,Conny Yang
https://www.domain.com.au/10-212-walsh-street-south-yarra-vic-3141-17184777,"10/212 Walsh Street, South Yarra VIC 3141",Apartment / Unit / Flat,$450.00,-37.8330798,144.9859351,1 Bed,1 Bath,1 Parking,"Monday, 30th September 2024",Thea Toogood
https://www.domain.com.au/9-403-toorak-road-south-yarra-vic-3141-17184746,"9/403 Toorak Road, South Yarra VIC 3141",Apartment / Unit / Flat,$525 pw,-37.8403868,145.0044789,1 Bed,1 Bath,1 Parking,"Friday, 6th September 2024",Bridgid Nolan
https://www.domain.com.au/1-10-tennyson-st-st-kilda-vic-3182-17184740,"1/10 Tennyson St, St Kilda VIC 3182",Apartment / Unit / Flat,$800 weekly,-37.8702104,144.9852191,2 Beds,2 Baths,1 Parking,"Monday, 23rd September 2024",Jemma Wilksch
https://www.domain.com.au/26-4-victoria-street-windsor-vic-3181-17184601,"26/4 Victoria Street, Windsor VIC 3181",Apartment / Unit / Flat,$650.00,-37.8525244,144.9935664,2 Beds,1 Bath,1 Parking,"Thursday, 3rd October 2024",Danielle Crumblehulme
https://www.domain.com.au/4-42-disraeli-street-kew-vic-3101-17184571,"4/42 Disraeli Street, Kew VIC 3101",Apartment / Unit / Flat,$450.00,-37.8017578,145.0395322,2 Beds,1 Bath,1 Parking,"Tuesday, 10th September 2024",Adam Cusinato
https://www.domain.com.au/3-732-orrong-road-toorak-vic-3142-17184500,"3/732 Orrong Road, Toorak VIC 3142",Apartment / Unit / Flat,$700.00,-37.8393001,145.0144388,2 Beds,1 Bath,1 Parking,"Tuesday, 1st October 2024",Danielle Crumblehulme
https://www.domain.com.au/205-389-neerim-road-carnegie-vic-3163-17184436,"205/389 Neerim Road, Carnegie VIC 3163",Apartment / Unit / Flat,$575.00,-37.8904989,145.0648739,2 Beds,1 Bath,1 Parking,Available Now,Renee Hewstone
https://www.domain.com.au/502-4-joseph-rd-footscray-vic-3011-15472399,"502/4 Joseph Rd, Footscray VIC 3011",Apartment / Unit / Flat,$510 per week,-37.8003267,144.9095584,1 Bed,1 Bath,1 Parking,"Tuesday, 1st October 2024",Kim Te
https://www.domain.com.au/8-38-holyrood-street-hampton-vic-3188-17184258,"8/38 Holyrood Street, Hampton VIC 3188",Apartment / Unit / Flat,$550.00,-37.934181,144.99885,2 Beds,1 Bath,1 Parking,"Friday, 20th September 2024",Kerry West
https://www.domain.com.au/2-18-blackburn-street-surrey-hills-vic-3127-17184240,"2/18 Blackburn Street, Surrey Hills VIC 3127",Apartment / Unit / Flat,$500 per week,-37.8214328,145.0995979,2 Beds,1 Bath,1 Parking,"Monday, 30th September 2024",Lauren Jackson 
https://www.domain.com.au/908-478-st-kilda-road-melbourne-vic-3004-16192806,"908/478 St Kilda Road, Melbourne VIC 3004",Apartment / Unit / Flat,$795,-37.8425888,144.9770409,2 Beds,2 Baths,1 Parking,"Friday, 6th September 2024",David Hua
https://www.domain.com.au/2-52-pasley-street-south-yarra-vic-3141-17184161,"2/52 Pasley Street, South Yarra VIC 3141",Apartment / Unit / Flat,$695 Per Week,-37.8424582,144.9847259,2 Beds,1 Bath,1 Parking,Available Now,Tom Koller
https://www.domain.com.au/004b-12-albert-street-hawthorn-east-vic-3123-17183991,"004B/12 Albert Street, Hawthorn East VIC 3123",Apartment / Unit / Flat,$400 per week,-37.8236023,145.0480671,1 Bed,1 Bath,N/A,"Monday, 16th September 2024",Ismaeel Hussain
https://www.domain.com.au/27-27-avoca-street-south-yarra-vic-3141-17183789,"27/27 Avoca Street, South Yarra VIC 3141",Apartment / Unit / Flat,$570 per week,-37.8373287,144.989231,2 Beds,1 Bath,1 Parking,"Friday, 4th October 2024",Amanda Dojcinovic
https://www.domain.com.au/1-232-barkly-street-st-kilda-vic-3182-17183769,"1/232 Barkly Street, St Kilda VIC 3182",Apartment / Unit / Flat,$580 pw,-37.8719523,144.980559,2 Beds,2 Baths,1 Parking,"Friday, 20th September 2024",Artem Chereshkov
https://www.domain.com.au/208-601-little-collins-street-melbourne-vic-3000-17183673,"208/601 Little Collins Street, Melbourne VIC 3000",Apartment / Unit / Flat,$650 pw,-37.8179151,144.9548451,2 Beds,2 Baths,N/A,Available Now,Trish Ha
https://www.domain.com.au/6-28-burnley-street-richmond-vic-3121-16947663,"6/28 Burnley Street, Richmond VIC 3121",Apartment / Unit / Flat,$500,-37.8126488,145.0093583,1 Bed,1 Bath,1 Parking,"Thursday, 26th September 2024",Erin Napthine
https://www.domain.com.au/12-160-grange-road-carnegie-vic-3163-17183612,"12/160 Grange Road, Carnegie VIC 3163",Apartment / Unit / Flat,$400 per week,-37.8931283,145.0466313,2 Beds,1 Bath,1 Parking,Available Now,Carnegie Leasing
https://www.domain.com.au/13-12-robe-street-st-kilda-vic-3182-16598977,"13/12 Robe Street, St Kilda VIC 3182",Apartment / Unit / Flat,$465 per week,-37.864507,144.978038,1 Bed,1 Bath,1 Parking,Available Now,Kirk Stafford
https://www.domain.com.au/6-53-caroline-street-south-yarra-vic-3141-17183575,"6/53 Caroline Street, South Yarra VIC 3141",Apartment / Unit / Flat,$480 pw,-37.8369475,144.9881484,1 Bed,1 Bath,1 Parking,"Tuesday, 1st October 2024",Sara Sis
https://www.domain.com.au/1-170-st-kilda-road-st-kilda-vic-3182-17183564,"1/170 St Kilda Road, St Kilda VIC 3182",Apartment / Unit / Flat,$590 per week,-37.86118200000001,144.9849563,2 Beds,1 Bath,1 Parking,"Thursday, 26th September 2024",Leasing Team
https://www.domain.com.au/129-115-neerim-road-glen-huntly-vic-3163-17183549,"129/115 Neerim Road, Glen Huntly VIC 3163",Apartment / Unit / Flat,$550 per week,-37.8869388,145.0421254,2 Beds,1 Bath,1 Parking,Available Now,Carnegie Leasing
https://www.domain.com.au/301-113-pier-street-altona-vic-3018-17183490,"301/113 Pier Street, Altona VIC 3018",Apartment / Unit / Flat,$520.00,-37.8660079,144.830605,2 Beds,1 Bath,1 Parking,"Friday, 4th October 2024",Mark Hambling
https://www.domain.com.au/7-340-beaconsfield-parade-st-kilda-west-vic-3182-17183464,"7/340 Beaconsfield Parade, St Kilda West VIC 3182",Studio,$435 pw,-37.8583372,144.968941,0 Beds,1 Bath,N/A,Available Now,Rose Gilmour
https://www.domain.com.au/6213-172-edward-street-street-brunswick-east-vic-3057-17183456,"6213/172 Edward Street Street, Brunswick East VIC 3057",Apartment / Unit / Flat,$625 per week,-37.775312,144.9718123,2 Beds,1 Bath,1 Parking,Available Now,Jay Trikha
https://www.domain.com.au/7-10-osborne-avenue-glen-iris-vic-3146-17183438,"7/10 Osborne Avenue, Glen Iris VIC 3146",Apartment / Unit / Flat,$550.00,-37.8574188,145.0468099,2 Beds,1 Bath,1 Parking,Available Now,Thea Toogood
https://www.domain.com.au/2-688-inkerman-road-caulfield-north-vic-3161-17183437,"2/688 Inkerman Road, Caulfield North VIC 3161",Apartment / Unit / Flat,$485 Per Week,-37.8691857,145.0235204,1 Bed,1 Bath,1 Parking,"Thursday, 19th September 2024",Leasing Team
https://www.domain.com.au/4-260-st-kilda-road-st-kilda-vic-3182-17183373,"4/260 St Kilda Road, St Kilda VIC 3182",Apartment / Unit / Flat,$535 per week,-37.8634272,144.9857296,2 Beds,1 Bath,1 Parking,"Saturday, 21st September 2024",Leasing Team
https://www.domain.com.au/207-7-claremont-street-south-yarra-vic-3141-17183338,"207/7 Claremont Street, South Yarra VIC 3141",Apartment / Unit / Flat,$530 per week,-37.83820559999999,144.9935531,1 Bed,1 Bath,N/A,"Tuesday, 1st October 2024",Kim Te
https://www.domain.com.au/2006-19-37-a-beckett-street-melbourne-vic-3000-14507955,"2006/19-37 A'Beckett Street, Melbourne VIC 3000",Apartment / Unit / Flat,$600,-37.8089173,144.9626143,2 Beds,1 Bath,N/A,Available Now,David Hua
https://www.domain.com.au/2-2-boynton-street-bentleigh-east-vic-3165-17183197,"2/2 Boynton Street, Bentleigh East VIC 3165",Apartment / Unit / Flat,$580.00,-37.9262743,145.0628136,2 Beds,1 Bath,1 Parking,"Friday, 6th September 2024",Jaryd Bray
https://www.domain.com.au/9-299-burke-road-glen-iris-vic-3146-17183182,"9/299 Burke Road, Glen Iris VIC 3146",Apartment / Unit / Flat,$400 pw,-37.8528437,145.0521098,1 Bed,1 Bath,1 Parking,Available Now,Shelter Real Estate
https://www.domain.com.au/6-21-redan-street-st-kilda-vic-3182-17183167,"6/21 Redan Street, St Kilda VIC 3182",Apartment / Unit / Flat,$450.00,-37.8602186,144.990021,1 Bed,1 Bath,1 Parking,Available Now,Kerttu  Luik
https://www.domain.com.au/14-4-victoria-street-windsor-vic-3181-17183164,"14/4 Victoria Street, Windsor VIC 3181",Apartment / Unit / Flat,$720.00,-37.8525244,144.9935664,2 Beds,2 Baths,1 Parking,"Monday, 23rd September 2024",Kerttu  Luik
https://www.domain.com.au/310-3-greeves-street-st-kilda-vic-3182-17183163,"310/3 Greeves Street, St Kilda VIC 3182",Apartment / Unit / Flat,$450.00,-37.8645212,144.9832377,1 Bed,1 Bath,1 Parking,"Friday, 20th September 2024",Kerttu  Luik
https://www.domain.com.au/2-299-301-burke-road-glen-iris-vic-3146-17183153,"2/299-301 Burke Road, Glen Iris VIC 3146",Apartment / Unit / Flat,$400,-37.8529468,145.0523315,1 Bed,1 Bath,1 Parking,Available Now,Shelter Real Estate
https://www.domain.com.au/6-185-stawell-street-richmond-vic-3121-17183145,"6/185 Stawell Street, Richmond VIC 3121",Apartment / Unit / Flat,$395 weekly,-37.8259826,145.00983,1 Bed,1 Bath,1 Parking,"Thursday, 26th September 2024",Ysabella Dimitrakopoulos
https://www.domain.com.au/1001-294a-bell-street-heidelberg-west-vic-3081-16961350,"1001/294A Bell Street, Heidelberg West VIC 3081",Apartment / Unit / Flat,$575,-37.7500276,145.0431162,2 Beds,2 Baths,1 Parking,"Tuesday, 10th September 2024",Natalie Subotsch
https://www.domain.com.au/g08-48-blenheim-street-balaclava-vic-3183-17183107,"G08/48 Blenheim Street, Balaclava VIC 3183",Apartment / Unit / Flat,$720 weekly,-37.8685904,144.9945002,2 Beds,1 Bath,1 Parking,"Friday, 18th October 2024",Michelle De Luca
https://www.domain.com.au/104-18-lillimur-road-ormond-vic-3204-16571495,"104/18 Lillimur Road, Ormond VIC 3204",Apartment / Unit / Flat,$475 Per Week,-37.9024298,145.0417459,1 Bed,1 Bath,1 Parking,"Tuesday, 24th September 2024",Maddy Stubbs
https://www.domain.com.au/14-19-riversdale-road-hawthorn-vic-3122-17182295,"14/19 Riversdale Road, Hawthorn VIC 3122",Apartment / Unit / Flat,$450 weekly,-37.8277619,145.0271739,1 Bed,1 Bath,1 Parking,Available Now,Ysabella Dimitrakopoulos
https://www.domain.com.au/3601-81-a-beckett-street-melbourne-vic-3000-17179271,"3601/81 A'Beckett Street, Melbourne VIC 3000",Apartment / Unit / Flat,$700 weekly,-37.8092536,144.961181,2 Beds,1 Bath,N/A,Available Now,Edward Guo
https://www.domain.com.au/206-41-kerr-st-fitzroy-vic-3065-17179119,"206/41 Kerr St, Fitzroy VIC 3065",Apartment / Unit / Flat,$650 per week,-37.7963746,144.9768992,1 Bed,1 Bath,1 Parking,"Friday, 13th September 2024",Amanda Dojcinovic
https://www.domain.com.au/10-19-abbott-street-sandringham-vic-3191-17178707,"10/19 Abbott Street, Sandringham VIC 3191",Apartment / Unit / Flat,LEASED,-37.9484611,145.003068,2 Beds,1 Bath,1 Parking,"Saturday, 7th September 2024",Michelle Murray
https://www.domain.com.au/12-56-grange-rd-carnegie-vic-3163-17178065,"12/56 Grange Rd, Carnegie VIC 3163",Apartment / Unit / Flat,$410 weekly,-37.8848862,145.0477087,1 Bed,1 Bath,1 Parking,"Thursday, 12th September 2024",Zoe Swinnerton
https://www.domain.com.au/g02-141-149-roden-street-west-melbourne-vic-3003-17175717,"G02/141-149 Roden Street, West Melbourne VIC 3003",Apartment / Unit / Flat,$570 Per Week,-37.80844829999999,144.9473139,2 Beds,1 Bath,1 Parking,Available Now,Leasing Team
https://www.domain.com.au/12-27-lillimur-road-ormond-vic-3204-17173864,"12/27 Lillimur Road, Ormond VIC 3204",Apartment / Unit / Flat,$420 per week,-37.9011368,145.0415029,2 Beds,1 Bath,1 Parking,Available Now,Carnegie Leasing
https://www.domain.com.au/501-302-collins-street-melbourne-vic-3004-17173243,"501/302 Collins Street, Melbourne VIC 3004",Apartment / Unit / Flat,$650 weekly,-37.81597,144.964225,2 Beds,1 Bath,N/A,Available Now,Preet Sandhu
https://www.domain.com.au/2-6-manchester-lane-parkville-vic-3052-17171821,"2/6 Manchester Lane, Parkville VIC 3052",Apartment / Unit / Flat,$600,-37.7775432,144.9391463,1 Bed,1 Bath,1 Parking,"Saturday, 7th September 2024",GRE Rentals
https://www.domain.com.au/6-1-milburn-grove-st-kilda-vic-3182-17171355,"6/1 Milburn Grove, St Kilda VIC 3182",Apartment / Unit / Flat,$620 pw,-37.864,144.982,2 Beds,1 Bath,2 Parking,Available Now,Artem Chereshkov
https://www.domain.com.au/109-52-dow-street-port-melbourne-vic-3207-17168902,"109/52 Dow Street, Port Melbourne VIC 3207",Apartment / Unit / Flat,$750 pw,-37.8430429,144.9402659,2 Beds,2 Baths,1 Parking,Available Now,Samridhi Munjal
https://www.domain.com.au/503-250-city-road-southbank-vic-3006-17164796,"503/250 City Road, Southbank VIC 3006",Apartment / Unit / Flat,$480 pw,-37.8257169,144.9597894,1 Bed,1 Bath,N/A,$2086,Andrea Picone
https://www.domain.com.au/2802-35-spring-st-melbourne-vic-3004-17163498,"2802/35 Spring St, Melbourne VIC 3004",Apartment / Unit / Flat,"$1,350 per week",-37.8141725,144.9740049,2 Beds,2 Baths,1 Parking,Available Now,Amy Fiske
https://www.domain.com.au/107-2-bailey-cres-oak-park-vic-3046-17161100,"107/2 Bailey Cres, Oak Park VIC 3046",Apartment / Unit / Flat,$400 weekly,-37.7207022,144.9220471,1 Bed,1 Bath,1 Parking,"Wednesday, 11th September 2024",Renee Whitehouse
https://www.domain.com.au/406-29-waterline-place-williamstown-vic-3016-17160499,"406/29 Waterline Place, Williamstown VIC 3016",Apartment / Unit / Flat,$700 per week,-37.8654162,144.908494,2 Beds,2 Baths,1 Parking,Available Now,Angus Brayshaw
https://www.domain.com.au/3-39-cook-street-flinders-vic-3929-17155332,"3/39 Cook Street, Flinders VIC 3929",Apartment / Unit / Flat,$600 Per Week,-38.4742537,145.017952,2 Beds,2 Baths,1 Parking,Available Now,Andrew Hall
https://www.domain.com.au/4-39-cook-street-flinders-vic-3929-17154370,"4/39 Cook Street, Flinders VIC 3929",Apartment / Unit / Flat,$650,-38.4742537,145.017952,2 Beds,2 Baths,1 Parking,Available Now,Andrew Hall
https://www.domain.com.au/20-29-35-george-street-east-melbourne-vic-3002-17154161,"20/29-35 George Street, East Melbourne VIC 3002",Apartment / Unit / Flat,$450.00,-37.8158477,144.9892078,1 Bed,1 Bath,N/A,"Friday, 6th September 2024",Nathan Roberts
https://www.domain.com.au/101-67-well-street-brighton-vic-3186-17150311,"101/67 Well Street, Brighton VIC 3186",Apartment / Unit / Flat,"$1,875.00",-37.9182278,144.9976923,3 Beds,2 Baths,2 Parking,Available Now,Ben McDonald
https://www.domain.com.au/701-43-hancock-street-southbank-vic-3006-17148838,"701/43 Hancock Street, Southbank VIC 3006",Apartment / Unit / Flat,$575 pw,-37.8279742,144.95884,1 Bed,1 Bath,N/A,Available Now,Andrea Picone
https://www.domain.com.au/1101-43-hancock-street-southbank-vic-3006-17148835,"1101/43 Hancock Street, Southbank VIC 3006",Apartment / Unit / Flat,$540 pw,-37.8279742,144.95884,1 Bed,1 Bath,N/A,Available Now,Andrea Picone
https://www.domain.com.au/1-13-myrniong-street-glen-iris-vic-3146-17147615,"1/13 Myrniong Street, Glen Iris VIC 3146",Apartment / Unit / Flat,$545 weekly,-37.8523174,145.093691,3 Beds,1 Bath,1 Parking,Available Now,Amy Ma
https://www.domain.com.au/221-14-elizabeth-street-malvern-vic-3144-17144503,"221/14 Elizabeth Street, Malvern VIC 3144",Apartment / Unit / Flat,$610 pw,-37.8517262,145.0370645,2 Beds,2 Baths,1 Parking,Available Now,Carson Mair
https://www.domain.com.au/610-33-mackenzie-street-melbourne-vic-3000-17133563,"610/33 MacKenzie Street, Melbourne VIC 3000",Apartment / Unit / Flat,$595,-37.8078362,144.9669868,2 Beds,1 Bath,N/A,$2585,Fiona Tennant
https://www.domain.com.au/3-5-6-201-spring-street-melbourne-vic-3000-17130096,"3.5 & 6/201 Spring Street, Melbourne VIC 3000",Apartment / Unit / Flat,$670 per week,-37.81009299999999,144.9721794,2 Beds,2 Baths,1 Parking,Available Now,Leasing Team
https://www.domain.com.au/121-109-manningham-st-parkville-vic-3052-16206811,"121 109 Manningham St, Parkville VIC 3052",Apartment / Unit / Flat,$540per week Parkside living Highspeed unlimited WiFi PetFriendly,-37.7843956,144.9407607,1 Bed,1 Bath,1 Parking,"Friday, 13th September 2024",UKO Royal Park Community Host
https://www.domain.com.au/3-10-elm-avenue-elsternwick-vic-3185-14315252,"3/10 Elm Avenue, Elsternwick VIC 3185",Apartment / Unit / Flat,$620 Per Week,-37.8910718,145.0042754,2 Beds,1 Bath,1 Parking,"Friday, 6th September 2024",Louise Reid
https://www.domain.com.au/705a-125-bell-street-ivanhoe-vic-3079-17183018,"705A/125 Bell Street, Ivanhoe VIC 3079",Apartment / Unit / Flat,$420 per week,-37.7534426,145.0515863,1 Bed,1 Bath,1 Parking,Available Now,Ismaeel Hussain
https://www.domain.com.au/1405-45-clarke-street-southbank-vic-3006-17182966,"1405/45 Clarke Street, Southbank VIC 3006",Apartment / Unit / Flat,$700 pw,-37.8267241,144.95949,2 Beds,1 Bath,N/A,"Tuesday, 17th September 2024",Andrea Picone
https://www.domain.com.au/3-19-albert-street-east-melbourne-vic-3002-17182934,"3/19 Albert Street, East Melbourne VIC 3002",Apartment / Unit / Flat,$475,-37.8113524,144.9901835,1 Bed,1 Bath,N/A,"Tuesday, 10th September 2024",DIANA JURISIC
https://www.domain.com.au/44-16-18-bennetts-lane-melbourne-vic-3000-17182913,"44/16-18 Bennetts Lane, Melbourne VIC 3000",Apartment / Unit / Flat,$490 pw,-37.8089424,144.9678684,2 Beds,1 Bath,N/A,Available Now,Trish Ha
https://www.domain.com.au/2-35-rowena-parade-richmond-vic-3121-17182864,"2/35 Rowena Parade, Richmond VIC 3121",Apartment / Unit / Flat,$335 weekly,-37.8204004,144.9917784,1 Bed,1 Bath,1 Parking,"Tuesday, 24th September 2024",Preet Sandhu
https://www.domain.com.au/1310-80-abeckett-street-melbourne-vic-3000-16640131,"1310/80 ABeckett Street, Melbourne VIC 3000",Apartment / Unit / Flat,$450 per week,-37.8090227,144.9610587,1 Bed,1 Bath,N/A,"Thursday, 26th September 2024",Ismaeel Hussain
https://www.domain.com.au/1-54-sutherland-road-armadale-vic-3143-15985751,"1/54 Sutherland Road, Armadale VIC 3143",Apartment / Unit / Flat,$430 per week,-37.8576467,145.0173312,1 Bed,1 Bath,1 Parking,"Wednesday, 25th September 2024",Ismaeel Hussain
https://www.domain.com.au/408-19-pentridge-boulevard-coburg-vic-3058-17182823,"408/19 Pentridge Boulevard, Coburg VIC 3058",Apartment / Unit / Flat,$550 Per Week,-37.7378417,144.9683508,2 Beds,1 Bath,1 Parking,"Friday, 6th September 2024",Frazer Downes
https://www.domain.com.au/504-576-578-st-kilda-road-melbourne-vic-3004-17182768,"504/576-578 St Kilda Road, Melbourne VIC 3004",Apartment / Unit / Flat,$880.00,-37.8484013,144.9795382,2 Beds,2 Baths,1 Parking,"Friday, 4th October 2024",Jack Alexander
https://www.domain.com.au/7-30-selwyn-avenue-elwood-vic-3184-17182761,"7/30 Selwyn Avenue, Elwood VIC 3184",Apartment / Unit / Flat,$520 weekly,-37.8859946,144.9834827,1 Bed,1 Bath,1 Parking,Available Now,Shakira Jaisingh-Fluitsma
https://www.domain.com.au/2-247-burke-road-glen-iris-vic-3146-17182676,"2/247 Burke Road, Glen Iris VIC 3146",Apartment / Unit / Flat,$525 pw,-37.8560082,145.0517573,2 Beds,1 Bath,1 Parking,Available Now,Shelter Real Estate
https://www.domain.com.au/1111-55-merchant-street-docklands-vic-3008-17182653,"1111/55 Merchant Street, Docklands VIC 3008",Apartment / Unit / Flat,$640 pw,-37.8208778,144.943907,2 Beds,1 Bath,1 Parking,"Thursday, 12th September 2024",Maria Gutterson
https://www.domain.com.au/1113-2-joseph-road-footscray-vic-3011-15096132,"1113/2 Joseph Road, Footscray VIC 3011",Apartment / Unit / Flat,$610 per week,-37.8003267,144.9095584,2 Beds,2 Baths,1 Parking,"Thursday, 26th September 2024",Kim Te
https://www.domain.com.au/1-95-brighton-road-elwood-vic-3184-17182582,"1/95 Brighton Road, Elwood VIC 3184",Apartment / Unit / Flat,$495.00,-37.8733584,144.9894969,2 Beds,1 Bath,2 Parking,Available Now,Cameron  Gibson 
https://www.domain.com.au/413-70-batesford-road-chadstone-vic-3148-17182461,"413/70 Batesford Road, Chadstone VIC 3148",Apartment / Unit / Flat,$550 per week,-37.8757869,145.0930605,2 Beds,1 Bath,1 Parking,"Wednesday, 18th September 2024",Leasing Team
https://www.domain.com.au/104-250-252-wattletree-road-malvern-vic-3144-17182425,"104/250-252 Wattletree Road, Malvern VIC 3144",Apartment / Unit / Flat,$845.00,-37.8639534,145.0384998,2 Beds,2 Baths,2 Parking,"Friday, 6th September 2024",Tina Jin
https://www.domain.com.au/5-1-milton-street-carnegie-vic-3163-17182423,"5/1 Milton Street, Carnegie VIC 3163",Apartment / Unit / Flat,$670 weekly,-37.8861545,145.0499916,2 Beds,1 Bath,1 Parking,"Friday, 6th September 2024",Angela Skarlatos
https://www.domain.com.au/204-528-swanston-street-carlton-vic-3053-17182391,"204/528 Swanston Street, Carlton VIC 3053",Apartment / Unit / Flat,$400 pw,-37.8043194,144.9636086,1 Bed,1 Bath,N/A,Available Now,Clementina Tralongo
https://www.domain.com.au/1-118-campbell-street-collingwood-vic-3066-17182331,"1/118 Campbell Street, Collingwood VIC 3066",Apartment / Unit / Flat,$450 weekly,-37.800065,144.9896576,1 Bed,1 Bath,1 Parking,"Friday, 27th September 2024",Liam Mulligan
https://www.domain.com.au/p22-394-collins-street-melbourne-vic-3000-17182316,"P22/394 Collins Street, Melbourne VIC 3000",Apartment / Unit / Flat,$525 per week,-37.81668,144.96104,1 Bed,1 Bath,N/A,"Tuesday, 17th September 2024",Mikaele Horsnell
https://www.domain.com.au/402-218-lygon-street-brunswick-east-vic-3057-17176364,"402/218 Lygon Street, Brunswick East VIC 3057",Apartment / Unit / Flat,$700,-37.7716412,144.9718807,2 Beds,2 Baths,1 Parking,Available Now,Sharie Kerr
https://www.domain.com.au/102-88-bay-road-sandringham-vic-3191-17182254,"102/88 Bay Road, Sandringham VIC 3191",Apartment / Unit / Flat,$520.00,-37.95269589999999,145.0091312,1 Bed,1 Bath,1 Parking,"Wednesday, 25th September 2024",Alvin Vitor
https://www.domain.com.au/11-13-15-lambert-street-richmond-vic-3121-17182204,"11/13-15 Lambert Street, Richmond VIC 3121",Apartment / Unit / Flat,$350 weekly,-37.8122803,145.0028469,1 Bed,1 Bath,1 Parking,"Thursday, 19th September 2024",Edward Guo
https://www.domain.com.au/8-30-balaclava-road-st-kilda-east-vic-3183-17182196,"8/30 Balaclava Road, St Kilda East VIC 3183",Apartment / Unit / Flat,$575 per week,-37.8698618,145.0036384,2 Beds,1 Bath,1 Parking,Available Now,Ismaeel Hussain
https://www.domain.com.au/1501-655-chapel-st-south-yarra-vic-3141-17182186,"1501/655 Chapel St, South Yarra VIC 3141",Apartment / Unit / Flat,"$1,200.00",-37.83713820000001,144.9958094,2 Beds,2 Baths,2 Parking,Available Now,Meggan Eade
https://www.domain.com.au/5-39-eildon-road-st-kilda-vic-3182-17181987,"5/39 Eildon Road, St Kilda VIC 3182",Apartment / Unit / Flat,$430 pw,-37.8613521,144.9781909,1 Bed,1 Bath,N/A,"Monday, 16th September 2024",Robyn Rech
https://www.domain.com.au/206-16-pentridge-boulevard-coburg-vic-3058-17181866,"206/16 Pentridge Boulevard, Coburg VIC 3058",Apartment / Unit / Flat,$650 PER WEEK,-37.7384534,144.9694507,2 Beds,2 Baths,1 Parking,Available Now,Mary Corso
https://www.domain.com.au/205-668-swanston-street-carlton-vic-3053-17181825,"205/668 Swanston Street, Carlton VIC 3053",Apartment / Unit / Flat,$670 per week,-37.80090939999999,144.9641566,2 Beds,1 Bath,1 Parking,Available Now,DIANA JURISIC
https://www.domain.com.au/516-20-burnley-street-richmond-vic-3121-17181800,"516/20 Burnley Street, Richmond VIC 3121",Apartment / Unit / Flat,$530,-37.8126488,145.0093583,1 Bed,1 Bath,1 Parking,Available Now,Anna Potaris
https://www.domain.com.au/1145-toorak-road-camberwell-vic-3124-17181785,"1145 Toorak Road, Camberwell VIC 3124",Apartment / Unit / Flat,$750.00,-37.8481095,145.0771785,3 Beds,1 Bath,1 Parking,Available Now,Alexander Vingos
https://www.domain.com.au/4-6-melbourne-street-murrumbeena-vic-3163-17181769,"4/6 Melbourne Street, Murrumbeena VIC 3163",Apartment / Unit / Flat,$510 weekly,-37.8890347,145.0687961,2 Beds,1 Bath,1 Parking,"Saturday, 14th September 2024",Kellie Finlayson
https://www.domain.com.au/2618-555-swanston-street-carlton-vic-3053-17181710,"2618/555 Swanston Street, Carlton VIC 3053",Apartment / Unit / Flat,$640,-37.8057745,144.9626168,2 Beds,1 Bath,N/A,"Monday, 16th September 2024",Lorena Lore
https://www.domain.com.au/3809-260-spencer-street-melbourne-vic-3000-17181592,"3809/260 Spencer Street, Melbourne VIC 3000",Apartment / Unit / Flat,LEASED,-37.81463249999999,144.9526152,2 Beds,2 Baths,N/A,"Saturday, 7th September 2024",Lorena Lore
https://www.domain.com.au/201-1-mount-street-prahran-vic-3181-17181455,"201/1 Mount Street, Prahran VIC 3181",Apartment / Unit / Flat,$470.00,-37.8520058,144.9956264,1 Bed,1 Bath,N/A,"Friday, 6th September 2024",Cameron  Gibson 
https://www.domain.com.au/315-9-darling-street-south-yarra-vic-3141-17181413,"315/9 Darling Street, South Yarra VIC 3141",Apartment / Unit / Flat,$800 Per Week,-37.8378907,144.9913461,2 Beds,2 Baths,1 Parking,"Saturday, 21st September 2024",Leasing Team
https://www.domain.com.au/905n-883-collins-street-docklands-vic-3008-17181377,"905N/883 Collins Street, Docklands VIC 3008",Apartment / Unit / Flat,$595 pw,-37.8210902,144.9426353,1 Bed,1 Bath,N/A,"Thursday, 12th September 2024",Maria Gutterson
https://www.domain.com.au/21-19a-ellesmere-road-windsor-vic-3181-17181307,"21/19A Ellesmere Road, Windsor VIC 3181",Apartment / Unit / Flat,$440.00,-37.85746719999999,145.0008324,1 Bed,1 Bath,1 Parking,"Friday, 20th September 2024",Kerttu  Luik
https://www.domain.com.au/101-7-9-cowra-street-brighton-vic-3186-17181260,"101/7-9 Cowra Street, Brighton VIC 3186",Apartment / Unit / Flat,$620 per week,-37.904925,145.007231,2 Beds,1 Bath,1 Parking,"Saturday, 28th September 2024",Leasing Team
https://www.domain.com.au/10-21-rockley-road-south-yarra-vic-3141-17181182,"10/21 Rockley Road, South Yarra VIC 3141",Apartment / Unit / Flat,$475 pw,-37.8373212,144.9997284,1 Bed,1 Bath,1 Parking,Available Now,Paul Tunney
https://www.domain.com.au/3-26-gold-street-collingwood-vic-3066-17181180,"3/26 Gold Street, Collingwood VIC 3066",Apartment / Unit / Flat,$500 pw,-37.7982881,144.9895184,2 Beds,1 Bath,1 Parking,Available Now,Shermta Flomo
https://www.domain.com.au/1105-20-wardens-walk-coburg-vic-3058-17181170,"1105/20 Wardens Walk, Coburg VIC 3058",Apartment / Unit / Flat,$520 per week,-37.7385722,144.968578,1 Bed,1 Bath,1 Parking,Available Now,Angus Brayshaw
https://www.domain.com.au/4-56-stockade-ave-coburg-vic-3058-17181166,"4/56 Stockade Ave, Coburg VIC 3058",Apartment / Unit / Flat,$500 per week,-37.7389869,144.9688669,1 Bed,1 Bath,1 Parking,Available Now,Angus Brayshaw
https://www.domain.com.au/1-703-heatherton-road-clayton-vic-3168-17181000,"1/703 Heatherton Road, Clayton VIC 3168",Apartment / Unit / Flat,$595,-37.9145479,145.127492,3 Beds,2 Baths,2 Parking,Available Now,David Hua
https://www.domain.com.au/519-11-urquhart-street-coburg-vic-3058-15759475,"519/11 Urquhart Street, Coburg VIC 3058",Apartment / Unit / Flat,$450 Per Week,-37.7401403,144.9679734,1 Bed,1 Bath,N/A,Available Now,Kim Te
https://www.domain.com.au/1-19-fisher-street-malvern-east-vic-3145-17180884,"1/19 Fisher Street, Malvern East VIC 3145",Apartment / Unit / Flat,$550 per week,-37.8816514,145.0569326,2 Beds,1 Bath,1 Parking,Available Now,Leasing Team
https://www.domain.com.au/4-49-maitland-street-glen-iris-vic-3146-17180819,"4/49 Maitland Street, Glen Iris VIC 3146",Apartment / Unit / Flat,$490 per week,-37.8546702,145.0427511,2 Beds,1 Bath,1 Parking,"Thursday, 26th September 2024",Lauren Jackson 
https://www.domain.com.au/230-33-quay-boulevard-werribee-south-vic-3030-17180791,"230/33 Quay Boulevard, Werribee South VIC 3030",Apartment / Unit / Flat,$500.00,-37.9651652,144.706802,1 Bed,1 Bath,1 Parking,Available Now,Mark Hambling
https://www.domain.com.au/3-2-4-radley-street-mornington-vic-3931-17180781,"3/2-4 Radley Street, Mornington VIC 3931",Apartment / Unit / Flat,$600.00,-38.2292155,145.0425316,2 Beds,1 Bath,1 Parking,"Thursday, 3rd October 2024",Jennifer O'Connell
https://www.domain.com.au/308-405-neerim-rd-carnegie-vic-3163-17180754,"308/405 Neerim Rd, Carnegie VIC 3163",Apartment / Unit / Flat,$520 weekly,-37.8903216,145.0655707,1 Bed,1 Bath,1 Parking,"Monday, 9th September 2024",Robert Litinetsky
https://www.domain.com.au/3-8-burns-avenue-clayton-south-vic-3169-17180681,"3/8 Burns Avenue, Clayton South VIC 3169",Apartment / Unit / Flat,$450,-37.9370204,145.1350552,2 Beds,1 Bath,1 Parking,"Thursday, 12th September 2024",Dylan Reeves
https://www.domain.com.au/5-42-nicholson-street-south-yarra-vic-3141-17180573,"5/42 Nicholson Street, South Yarra VIC 3141",Apartment / Unit / Flat,$550 pw,-37.8428437,144.9883276,2 Beds,1 Bath,1 Parking,Available Now,Shermta Flomo
https://www.domain.com.au/804-1-porter-street-hawthorn-east-vic-3123-17180503,"804/1 Porter Street, Hawthorn East VIC 3123",Apartment / Unit / Flat,$530 per week,-37.8290269,145.0550272,1 Bed,1 Bath,1 Parking,Available Now,Leasing Team
https://www.domain.com.au/2-19-mcmillan-avenue-geelong-vic-3220-17180415,"2/19 McMillan Avenue, Geelong VIC 3220",Apartment / Unit / Flat,$430.00,-38.1342226,144.3522204,2 Beds,1 Bath,1 Parking,Available Now,Tim Callander
https://www.domain.com.au/406-39-park-street-south-melbourne-vic-3205-17180387,"406/39 Park Street, South Melbourne VIC 3205",Apartment / Unit / Flat,$560 per week,-37.8334792,144.9691815,1 Bed,1 Bath,N/A,"Saturday, 28th September 2024",Leasing Team
https://www.domain.com.au/3-22-griffiths-street-caulfield-south-vic-3162-17180378,"3/22 Griffiths Street, Caulfield South VIC 3162",Apartment / Unit / Flat,$650 per week,-37.8900532,145.0318278,2 Beds,1 Bath,1 Parking,"Friday, 20th September 2024",Carnegie Leasing
https://www.domain.com.au/106-471-malvern-road-south-yarra-vic-3141-17180312,"106/471 Malvern Road, South Yarra VIC 3141",Apartment / Unit / Flat,$520 pw,-37.8478382,145.002178,1 Bed,1 Bath,1 Parking,"Saturday, 14th September 2024",Abir Ayadi
https://www.domain.com.au/5-66-foam-street-elwood-vic-3184-17180248,"5/66 Foam Street, Elwood VIC 3184",Apartment / Unit / Flat,$500 weekly,-37.88869589999999,144.9879774,2 Beds,1 Bath,1 Parking,"Friday, 11th October 2024",Shakira Jaisingh-Fluitsma
https://www.domain.com.au/213-150-clarendon-street-east-melbourne-vic-3002-17180246,"213/150 Clarendon Street, East Melbourne VIC 3002",Apartment / Unit / Flat,"$2,200",-37.8120899,144.9835967,2 Beds,2 Baths,1 Parking,"Friday, 4th October 2024",JORDAN PALMA
https://www.domain.com.au/403-21-healeys-lane-melbourne-vic-3000-17180235,"403/21 Healeys Lane, Melbourne VIC 3000",Apartment / Unit / Flat,$680 per week,-37.8135217,144.9557383,2 Beds,1 Bath,N/A,Available Now,Flo Djaja
https://www.domain.com.au/g08-11-urquhart-street-coburg-vic-3058-15379308,"G08/11 Urquhart Street, Coburg VIC 3058",Apartment / Unit / Flat,$550 per week,-37.73988689999999,144.9681533,2 Beds,1 Bath,1 Parking,"Monday, 7th October 2024",Kim Te
https://www.domain.com.au/6-61-little-oxford-st-collingwood-vic-3066-17180201,"6/61 Little Oxford St, Collingwood VIC 3066",Apartment / Unit / Flat,$650 weekly,-37.8046348,144.9839719,2 Beds,1 Bath,1 Parking,Available Now,Liam Mulligan
https://www.domain.com.au/19-151-fitzroy-street-st-kilda-vic-3182-17180088,"19/151 Fitzroy Street, St Kilda VIC 3182",Apartment / Unit / Flat,$650 Per Week,-37.8590921,144.9789965,2 Beds,1 Bath,1 Parking,"Tuesday, 17th September 2024",Tom Koller
https://www.domain.com.au/43-161-sturt-street-southbank-vic-3006-17180082,"43/161 Sturt Street, Southbank VIC 3006",Apartment / Unit / Flat,$550 Per Week,-37.8280917,144.9662792,1 Bed,1 Bath,1 Parking,"Tuesday, 24th September 2024",Tom Koller
https://www.domain.com.au/4-8-bailey-avenue-armadale-vic-3143-17180055,"4/8 Bailey Avenue, Armadale VIC 3143",Apartment / Unit / Flat,$350 per week,-37.8627021,145.0243337,1 Bed,1 Bath,N/A,"Tuesday, 17th September 2024",Tom Koller
https://www.domain.com.au/5-18-20-nightingale-street-balaclava-vic-3183-17180040,"5/18-20 Nightingale Street, Balaclava VIC 3183",Apartment / Unit / Flat,$420 pw,-37.8703337,144.9912208,1 Bed,1 Bath,1 Parking,"Thursday, 17th October 2024",Daniel Hamilton
https://www.domain.com.au/207-16-pentridge-boulevard-coburg-vic-3058-17180022,"207/16 Pentridge Boulevard, Coburg VIC 3058",Apartment / Unit / Flat,$520 per week,-37.7384534,144.9694507,1 Bed,1 Bath,1 Parking,Available Now,Angus Brayshaw
https://www.domain.com.au/3-26-shelley-st-elwood-vic-3184-17179995,"3/26 Shelley St, Elwood VIC 3184",Apartment / Unit / Flat,$770 weekly,-37.8805508,144.9831979,2 Beds,1 Bath,1 Parking,Available Now,Jemma Wilksch
https://www.domain.com.au/709-16-pentridge-boulevard-coburg-vic-3058-17179908,"709/16 Pentridge Boulevard, Coburg VIC 3058",Apartment / Unit / Flat,$670 per week,-37.7384534,144.9694507,2 Beds,2 Baths,1 Parking,Available Now,Angus Brayshaw
https://www.domain.com.au/g02-41-nott-street-port-melbourne-vic-3207-17179877,"G02/41 Nott Street, Port Melbourne VIC 3207",Apartment / Unit / Flat,$500 weekly,-37.8416246,144.9375171,1 Bed,1 Bath,N/A,Available Now,Jemma Wilksch
https://www.domain.com.au/4-105-murray-street-caulfield-vic-3162-17179833,"4/105 Murray Street, Caulfield VIC 3162",Apartment / Unit / Flat,$820 per week,-37.8853696,145.0195381,2 Beds,2 Baths,1 Parking,"Saturday, 7th September 2024",Leasing Team
https://www.domain.com.au/6-58-glen-orme-avenue-ormond-vic-3204-17179793,"6/58 Glen Orme Avenue, Ormond VIC 3204",Apartment / Unit / Flat,$560.00,-37.9059824,145.0383113,2 Beds,1 Bath,1 Parking,Available Now,Bradley Small
https://www.domain.com.au/16-9-kooyong-road-caulfield-north-vic-3161-17179783,"16/9 Kooyong Road, Caulfield North VIC 3161",Apartment / Unit / Flat,$530.00,-37.8642518,145.0189597,2 Beds,1 Bath,1 Parking,"Friday, 4th October 2024",Paula Porter
https://www.domain.com.au/6-1802-dandenong-road-clayton-vic-3168-17179711,"6/1802 Dandenong Road, Clayton VIC 3168",Apartment / Unit / Flat,$600.00,-37.9179672,145.1320795,3 Beds,1 Bath,1 Parking,Available Now,Alexander Vingos
https://www.domain.com.au/1515-22-dorcas-street-south-melbourne-vic-3205-17179701,"1515/22 Dorcas Street, South Melbourne VIC 3205",Apartment / Unit / Flat,$550 pw,-37.8301828,144.969727,1 Bed,1 Bath,1 Parking,"Tuesday, 17th September 2024",Daniel Hamilton
https://www.domain.com.au/3210-14-16-the-esplanade-st-kilda-vic-3182-16707575,"3210/14-16 The Esplanade, St Kilda VIC 3182",Apartment / Unit / Flat,"$1,950",-37.8652646,144.9747513,3 Beds,2 Baths,1 Parking,"Friday, 4th October 2024",Danielle Boyd
https://www.domain.com.au/210-380-bell-street-preston-vic-3072-17179688,"210/380 Bell Street, Preston VIC 3072",Apartment / Unit / Flat,$560 PER WEEK,-37.7445401,144.9997768,2 Beds,2 Baths,1 Parking,Available Now,Mary Corso
https://www.domain.com.au/106-380-bell-street-preston-vic-3072-17179537,"106/380 Bell Street, Preston VIC 3072",Apartment / Unit / Flat,$550 PER WEEK,-37.7445401,144.9997768,2 Beds,1 Bath,1 Parking,Available Now,Mary Corso
https://www.domain.com.au/522-199-william-street-melbourne-vic-3000-15575316,"522/199 William Street, Melbourne VIC 3000",Apartment / Unit / Flat,$720,-37.8145716,144.9573479,2 Beds,2 Baths,N/A,"Sunday, 15th September 2024",Manuel Flores
https://www.domain.com.au/4703-4-yarra-street-geelong-vic-3220-17179389,"4703/4 Yarra Street, Geelong VIC 3220",Apartment / Unit / Flat,$510 - per week - Fully Furnished,-38.1454467,144.3641424,1 Bed,1 Bath,1 Parking,"Monday, 9th September 2024",Tim Callander
https://www.domain.com.au/16hi-131-lonsdale-street-melbourne-vic-3000-15348379,"16HI/131 Lonsdale Street, Melbourne VIC 3000",Apartment / Unit / Flat,$700,-37.810779,144.9685513,2 Beds,2 Baths,N/A,"Monday, 30th September 2024",Natalie Subotsch
https://www.domain.com.au/2601-245-city-road-southbank-vic-3006-17167097,"2601/245 City Road, Southbank VIC 3006",Apartment / Unit / Flat,$675 pw,-37.826641,144.9596778,2 Beds,1 Bath,1 Parking,Available Now,Mina Boa
https://www.domain.com.au/804-32-lilydale-grove-hawthorn-east-vic-3123-17179326,"804/32 Lilydale Grove, Hawthorn East VIC 3123",Apartment / Unit / Flat,$650.00,-37.8231602,145.0476363,2 Beds,1 Bath,1 Parking,"Monday, 23rd September 2024",Nathan Roberts
https://www.domain.com.au/1-8-closeburn-avenue-prahran-vic-3181-17179301,"1/8 Closeburn Avenue, Prahran VIC 3181",Apartment / Unit / Flat,$510 pw,-37.8581254,145.0045535,2 Beds,1 Bath,1 Parking,"Thursday, 26th September 2024",Whiting &amp; Co Property Management
https://www.domain.com.au/18-24-brixton-rise-glen-iris-vic-3146-17179195,"18/24 Brixton Rise, Glen Iris VIC 3146",Apartment / Unit / Flat,$400 weekly,-37.8588298,145.0596395,1 Bed,1 Bath,1 Parking,Available Now,Amber Brombara
https://www.domain.com.au/2-21-rockley-road-south-yarra-vic-3141-17179180,"2/21 Rockley Road, South Yarra VIC 3141",Apartment / Unit / Flat,$450 pw,-37.83734159999999,144.9997579,1 Bed,1 Bath,1 Parking,Available Now,Paul Tunney
https://www.domain.com.au/206-24-oleander-drive-mill-park-vic-3082-17178858,"206/24 Oleander Drive, Mill Park VIC 3082",Apartment / Unit / Flat,$520,-37.6525219,145.0798697,2 Beds,2 Baths,1 Parking,"Wednesday, 2nd October 2024",Chris Bai
https://www.domain.com.au/2-84-campbell-road-hawthorn-east-vic-3123-17178783,"2/84 Campbell Road, Hawthorn East VIC 3123",Apartment / Unit / Flat,$460,-37.8338613,145.0550278,1 Bed,1 Bath,1 Parking,"Wednesday, 18th September 2024",Chris Bai
https://www.domain.com.au/g03-42-ralston-street-south-yarra-vic-3141-17178776,"G03/42 Ralston Street, South Yarra VIC 3141",Apartment / Unit / Flat,$880.00,-37.8387289,144.9872827,2 Beds,2 Baths,1 Parking,Available Now,Bo Natoli
https://www.domain.com.au/7-4-mcgrath-court-richmond-vic-3121-17178738,"7/4 McGrath Court, Richmond VIC 3121",Apartment / Unit / Flat,$400 pw,-37.8238327,144.9991046,1 Bed,1 Bath,1 Parking,"Monday, 23rd September 2024",Sara Sis
https://www.domain.com.au/604-6-joseph-road-footscray-vic-3011-15336283,"604/6 Joseph Road, Footscray VIC 3011",Apartment / Unit / Flat,$500PW,-37.8003267,144.9095584,1 Bed,1 Bath,1 Parking,"Saturday, 21st September 2024",Angus Brayshaw
https://www.domain.com.au/1-29-larnook-street-prahran-vic-3181-17178648,"1/29 Larnook Street, Prahran VIC 3181",Apartment / Unit / Flat,$500 Per Week,-37.8573338,145.0098051,3 Beds,1 Bath,1 Parking,Available Now,Tom Koller
https://www.domain.com.au/1601-8-mccrae-street-docklands-vic-3008-17178593,"1601/8 McCrae Street, Docklands VIC 3008",Apartment / Unit / Flat,$750 pw,-37.8216688,144.9509893,2 Beds,2 Baths,1 Parking,Available Now,Maria Gutterson
https://www.domain.com.au/5-45-evansdale-road-hawthorn-vic-3122-17178589,"5/45 Evansdale Road, Hawthorn VIC 3122",Apartment / Unit / Flat,$600 per week,-37.8233283,145.0233911,2 Beds,1 Bath,1 Parking,"Saturday, 5th October 2024",Lauren Jackson 
https://www.domain.com.au/112-11-wellington-street-collingwood-vic-3066-16569426,"112/11 Wellington Street, Collingwood VIC 3066",Apartment / Unit / Flat,$840,-37.8083754,144.9855244,2 Beds,2 Baths,1 Parking,"Monday, 23rd September 2024",Anna Nguyen
https://www.domain.com.au/1-11-scott-street-elwood-vic-3184-16240645,"1/11 Scott Street, Elwood VIC 3184",Apartment / Unit / Flat,$425 pw,-37.8798637,144.9925284,2 Beds,1 Bath,1 Parking,"Thursday, 26th September 2024",Daniel Hamilton
https://www.domain.com.au/level-1-222-glenferrie-road-malvern-vic-3144-17178320,"Level 1/222 Glenferrie Road, Malvern VIC 3144",Apartment / Unit / Flat,"$1,150.00",-37.85869599999999,145.029118,3 Beds,1 Bath,N/A,Available Now,Kate Humphreys
https://www.domain.com.au/228-40-stanley-street-collingwood-vic-3066-17178289,"228/40 Stanley Street, Collingwood VIC 3066",Apartment / Unit / Flat,$600,-37.8018212,144.9853651,2 Beds,1 Bath,1 Parking,"Sunday, 15th September 2024",DIANA JURISIC
https://www.domain.com.au/401-1-olive-york-way-brunswick-west-vic-3055-17178282,"401/1 Olive York Way, Brunswick West VIC 3055",Apartment / Unit / Flat,$525,-37.7585213,144.9386181,2 Beds,1 Bath,1 Parking,"Monday, 30th September 2024",Aaron Boal
https://www.domain.com.au/1104-422-collins-street-melbourne-vic-3000-17178264,"1104/422 Collins Street, Melbourne VIC 3000",Apartment / Unit / Flat,$560,-37.8170971,144.9601487,2 Beds,1 Bath,N/A,"Monday, 9th September 2024",DIANA JURISIC
https://www.domain.com.au/804-51-galada-avenue-parkville-vic-3052-15805854,"804/51 Galada Avenue, Parkville VIC 3052",Apartment / Unit / Flat,$500.00 per week,-37.7803496,144.9397616,1 Bed,1 Bath,1 Parking,"Friday, 6th September 2024",Lauren Harris
https://www.domain.com.au/804-480-st-kilda-road-melbourne-vic-3000-17178112,"804/480 St Kilda Road, Melbourne VIC 3000",Apartment / Unit / Flat,$480 pw,-37.8427264,144.9773176,1 Bed,1 Bath,1 Parking,Available Now,Carson Mair
https://www.domain.com.au/221-15-lithgow-street-abbotsford-vic-3067-17178088,"221/15 Lithgow Street, Abbotsford VIC 3067",Apartment / Unit / Flat,$880,-37.8096352,144.9982731,2 Beds,2 Baths,2 Parking,"Wednesday, 11th September 2024",DIANA JURISIC
https://www.domain.com.au/103-59-63-warrigal-road-hughesdale-vic-3166-17178079,"103/59-63 Warrigal Road, Hughesdale VIC 3166",Apartment / Unit / Flat,$600 pw,-37.8988832,145.0869246,2 Beds,2 Baths,1 Parking,"Friday, 27th September 2024",Daniel Hamilton
https://www.domain.com.au/204-86-altona-street-kensington-vic-3031-17177988,"204/86 Altona Street, Kensington VIC 3031",Apartment / Unit / Flat,$450 pw,-37.7967163,144.9254997,1 Bed,1 Bath,1 Parking,"Friday, 27th September 2024",Mona Wang
https://www.domain.com.au/505-4-joseph-road-footscray-vic-3011-16140206,"505/4 Joseph Road, Footscray VIC 3011",Apartment / Unit / Flat,$520 per week,-37.8003267,144.9095584,1 Bed,1 Bath,1 Parking,"Friday, 18th October 2024",Kim Te
https://www.domain.com.au/1004-18-yarra-street-south-yarra-vic-3141-17177898,"1004/18 Yarra Street, South Yarra VIC 3141",Apartment / Unit / Flat,$600,-37.83623499999999,144.993184,2 Beds,1 Bath,N/A,"Monday, 9th September 2024",DIANA JURISIC
https://www.domain.com.au/1211-1-freshwater-place-southbank-vic-3006-17177882,"1211/1 Freshwater Place, Southbank VIC 3006",Apartment / Unit / Flat,$600.00,-37.8219262,144.962153,1 Bed,1 Bath,N/A,"Friday, 6th September 2024",Neil Harris
https://www.domain.com.au/204-6-sydney-street-prahran-vic-3181-17177831,"204/6 Sydney Street, Prahran VIC 3181",Apartment / Unit / Flat,$950 Per Week,-37.8518789,145.0108367,2 Beds,2 Baths,2 Parking,"Monday, 9th September 2024",Andrew Pettman
https://www.domain.com.au/406-38-inkerman-street-st-kilda-vic-3182-17177687,"406/38 Inkerman Street, St Kilda VIC 3182",Apartment / Unit / Flat,$560 per week,-37.8641295,144.9832661,2 Beds,1 Bath,1 Parking,Available Now,Kirk Stafford
https://www.domain.com.au/706-325-collins-street-melbourne-vic-3000-17177667,"706/325 Collins Street, Melbourne VIC 3000",Apartment / Unit / Flat,$575.00 pw,-37.816598,144.9634599,2 Beds,1 Bath,N/A,Available Now,Barbara Baltas
https://www.domain.com.au/301-72-acland-street-st-kilda-vic-3182-17177593,"301/72 Acland Street, St Kilda VIC 3182",Apartment / Unit / Flat,$730.00,-37.8667759,144.9783246,2 Beds,2 Baths,1 Parking,Available Now,Lucy Redman
https://www.domain.com.au/20-259-domain-road-south-yarra-vic-3141-17177494,"20/259 Domain Road, South Yarra VIC 3141",Apartment / Unit / Flat,$390.00,-37.8349882,144.9878275,1 Bed,1 Bath,N/A,"Friday, 6th September 2024",Danielle Crumblehulme
https://www.domain.com.au/1-1-kingfisher-drive-wodonga-vic-3690-17177435,"1/1 Kingfisher Drive, Wodonga VIC 3690",Apartment / Unit / Flat,$420 per week,-36.1263464,146.8510833,2 Beds,1 Bath,1 Parking,"Thursday, 26th September 2024",Renee Saunders
https://www.domain.com.au/10-2a-brougham-st-richmond-vic-3121-17177342,"10/2a Brougham St, Richmond VIC 3121",Apartment / Unit / Flat,$695 weekly,-37.821852,144.9996121,2 Beds,2 Baths,1 Parking,Available Now,Preet Sandhu
https://www.domain.com.au/4-24-melbourne-st-murrumbeena-vic-3163-17177249,"4/24 Melbourne St, Murrumbeena VIC 3163",Apartment / Unit / Flat,$320 weekly,-37.8888919,145.0675724,1 Bed,1 Bath,1 Parking,Available Now,Kellie Finlayson
https://www.domain.com.au/5-358-beaconsfield-parade-st-kilda-west-vic-3182-17177241,"5/358 Beaconsfield Parade, St Kilda West VIC 3182",Apartment / Unit / Flat,$870.00,-37.8604775,144.9724135,2 Beds,2 Baths,1 Parking,"Saturday, 21st September 2024",Jack Alexander
https://www.domain.com.au/711-631-victoria-street-abbotsford-vic-3067-17177200,"711/631 Victoria Street, Abbotsford VIC 3067",Apartment / Unit / Flat,$750 per week,-37.8112281,145.0094575,2 Beds,2 Baths,1 Parking,Available Now,Chris Bai
https://www.domain.com.au/10-1-lawson-grove-south-yarra-vic-3141-17177186,"10/1 Lawson Grove, South Yarra VIC 3141",Studio,$400 pw,-37.833581,144.9902449,0 Beds,1 Bath,N/A,Available Now,Daniel Hamilton
https://www.domain.com.au/27-62-72-bay-road-sandringham-vic-3191-17177181,"27/62-72 Bay Road, Sandringham VIC 3191",Apartment / Unit / Flat,$350.00,-37.9522388,145.0070249,1 Bed,1 Bath,1 Parking,"Wednesday, 18th September 2024",Alvin Vitor
https://www.domain.com.au/g05-627-victoria-street-abbotsford-vic-3067-17177160,"G05/627 Victoria Street, Abbotsford VIC 3067",Apartment / Unit / Flat,$550 per week,-37.810674,145.0086713,1 Bed,1 Bath,1 Parking,Available Now,Chris Bai
https://www.domain.com.au/unit-1001-52-park-st-south-melbourne-vic-3205-13672635,"Unit 1001/52 Park St, South Melbourne VIC 3205",Apartment / Unit / Flat,$410 per week,-37.8328037,144.969168,1 Bed,1 Bath,N/A,"Thursday, 12th September 2024",Wimpie Santoso
https://www.domain.com.au/16-42-44-clarendon-street-thornbury-vic-3071-17177100,"16/42-44 Clarendon Street, Thornbury VIC 3071",Apartment / Unit / Flat,$650 pw,-37.7600156,145.0033671,3 Beds,1 Bath,1 Parking,"Monday, 23rd September 2024",Dianne Smith
https://www.domain.com.au/27-125-ormond-road-elwood-vic-3184-17177089,"27/125 Ormond Road, Elwood VIC 3184",Apartment / Unit / Flat,$775 weekly,-37.8856563,144.9884063,2 Beds,2 Baths,2 Parking,Available Now,Jemma Wilksch
https://www.domain.com.au/702-368-smith-street-collingwood-vic-3066-17177056,"702/368 Smith Street, Collingwood VIC 3066",Apartment / Unit / Flat,"$2,000.00",-37.797961,144.984692,3 Beds,3 Baths,2 Parking,Available Now,Jayde Cashion
https://www.domain.com.au/214-101-bay-street-port-melbourne-vic-3207-17177043,"214/101 Bay Street, Port Melbourne VIC 3207",Apartment / Unit / Flat,$700 weekly,-37.8406398,144.9400238,2 Beds,2 Baths,1 Parking,"Tuesday, 24th September 2024",Shakira Jaisingh-Fluitsma
https://www.domain.com.au/12-844-malvern-road-armadale-vic-3143-17177040,"12/844 Malvern Road, Armadale VIC 3143",Apartment / Unit / Flat,$500.00,-37.8502676,145.018506,2 Beds,1 Bath,1 Parking,Available Now,Cameron  Gibson 
https://www.domain.com.au/7-90-bourke-street-melbourne-vic-3000-17177016,"7/90 Bourke Street, Melbourne VIC 3000",Apartment / Unit / Flat,$525 pw,-37.8117761,144.9706661,2 Beds,1 Bath,N/A,Available Now,Barbara Baltas
https://www.domain.com.au/10-12-pakington-street-st-kilda-vic-3182-17176999,"10/12 Pakington Street, St Kilda VIC 3182",Apartment / Unit / Flat,$650 pw,-37.8656775,144.9871768,2 Beds,1 Bath,1 Parking,"Monday, 23rd September 2024",Dianne Smith
https://www.domain.com.au/11-343-church-street-richmond-vic-3121-17176950,"11/343 Church Street, Richmond VIC 3121",Apartment / Unit / Flat,$775 weekly,-37.8227623,144.9986687,2 Beds,1 Bath,1 Parking,"Monday, 23rd September 2024",Preet Sandhu
