id,lat,lon,amenity,name
647402239,-36.2280815,145.5605266,park,Katandra Football Netball Club
1466700636,-37.7477873,145.1555882,park,Websters Reserve
1805855695,-36.7437933,147.1837952,park,Cattle Yards
1805856011,-36.7386048,147.1862469,park,Wombat's Junction
1805858135,-36.7400436,147.1896364,park,Dart Spur Junction
1805858856,-36.7406465,147.1865902,park,5 ways
1808391938,-35.94472,141.87417,park,Lake Hindmarsh Lake Reserve
2399159519,-36.4144632,143.6053369,park,Hard Hill Tourist Reserve
2426036477,-38.1400017,146.4462323,park,Wirilda Environment Park
2483459467,-37.8581272,144.7709804,park,Skate Park
2495574517,-37.168787,142.5381544,park,Halls Gap Fitness Park
2614540924,-36.8946377,147.0614909,park,Clarrie Keating Memorial Park
2614541069,-36.8960551,147.0694065,park,Tronoh Dredge Reserve
2622212976,-37.9757646,145.1946697,park,Fotheringham Reserve
2782520464,-37.9163727,145.3585786,park,Belgrave Lake Park
2843123748,-37.7682833,145.2045614,park,Stintons Reserve
2960612433,-37.8624036,144.904169,park,Commonwealth Reserve
3003930248,-37.7207688,145.0509645,park,Sculpture Park
3068361882,-37.9420711,145.0534056,park,
3453910649,-37.795989,145.1283327,park,Tram Road Reserve
3605056308,-34.2090857,142.042048,park,
3606325764,-38.004114,145.3950388,park,Critchley Parker Junior Reserve
3636679557,-36.6490516,143.704083,park,Rheola Pioneers Park
4017426048,-37.8426034,144.8824624,park,A.W. Knight Reserve
4064875839,-37.4413612,143.912121,park,Koala Park
4588581658,-37.5419436,143.8143167,park,
4636033169,-38.0691567,145.3256073,park,Duck Pond
4636054300,-38.0682245,145.3260674,park,Esplanade Kiddie Park
4636062385,-38.0612948,145.3228649,park,Berwick Kiddie Park
4636069607,-38.0713326,145.3230415,park,Duck Watchers Point
4636069608,-38.070672,145.3236518,park,Duck Watchers Point
4636069609,-38.0699813,145.3243935,park,Duck Watchers Point
4679778554,-38.6664086,145.6102139,park,Cape Farm
5215398897,-37.1736288,146.5627328,park,Upper Howqua Camping Area
5324409313,-38.5485285,143.9809198,park,Queens Park
5436484557,-37.7266503,144.9204346,park,
5577550565,-37.5922913,149.1493554,park,Cann River State Forest
5742290790,-38.3712159,146.2742954,park,Boolarra Memorial Park
5759927121,-37.7542943,145.686437,park,Story Restaurant
6023989929,-38.2398188,145.0844651,park,Tabulum Park
6310275257,-37.8362251,145.2488215,park,Dexters Bush
6764091721,-37.7547814,144.8832467,park,Lily Reserve
6829877815,-36.5739968,146.7462375,park,
7108455223,-37.2126266,145.0414261,park,reserve
7108455241,-37.2062505,145.0463058,park,Art And Place For a Quick Break
7196549117,-37.5475049,149.2120138,park,Unidentified tower
7428891872,-37.5496138,148.1063047,park,Buchan South Vege Garden
7428891873,-37.5494926,148.1061625,park,Yellow Waterholes
7443741667,-36.3918666,146.7433018,park,Lysa Polana
7465157709,-38.7828537,146.0584669,park,
7579578465,-37.0757771,144.2401766,park,Forest Creek Gold Workings Heritage Walk
7844240440,-37.8155391,145.0858517,park,
8386112284,-37.7827333,145.6304062,park,Blue Lotus Garden
8723625030,-37.8599318,145.2787069,park,Public BBQ
8735321696,-37.0888651,143.471844,park,
8735321698,-37.0905461,143.4746785,park,
8945445062,-37.7751312,144.9605853,park,Wilson Avenue Park
9262216551,-37.7364754,145.2220618,park,wonguim wilam
9587111018,-37.8661307,144.6562575,park,Prominence Boulevard Park
9997008060,-37.8574831,142.0242421,park,Mount Napier State Park Entry
10050451681,-36.3149506,146.8828483,park,Ridgeways Reserve
10239585588,-37.9926775,145.2688782,park,David Collins Drive Reserve
10829611925,-37.8384737,145.2672107,park,Bayswater Park Bike Training Area
10970328981,-37.6397362,145.1923848,park,Hurstbridge Station Gardens
11076349033,-37.9696122,145.3939612,park,Cardinia Reservoir Park
11235259576,-37.508111,149.69294,park,Sou West Arm
11278697030,-37.9144076,145.5697715,park,Nature Walk
11428939080,-38.1671761,144.3293304,park,Yolinko Wetlands
11474858795,-36.2535539,142.3876932,park,Apex Park
11555542182,-37.0380398,144.1960412,park,Walmer Recreation Site
11576565218,-37.8143074,144.9430448,park,Monument Park
11634091266,-37.0164985,144.309232,park,Old Koala Park
11671783943,-37.7193018,145.2362338,park,Pigeon Bank Reserve
4394426,-37.87906961666667,145.14901661666667,park,
4396215,-37.88324673333333,145.1481034666667,park,Scotchmans Creek Reserve
4396376,-37.886392988888886,145.15177796666666,park,Scotchmans Creek Reserve
4472473,-37.880811678571426,145.15695618571428,park,Bogong Reserve
4536039,-37.88063575757576,145.13513913030303,park,Valley Conservation Reserve
4575382,-37.88428570465116,145.1408046651163,park,Scotchman's Creek Linear Park
4576794,-37.88004902307692,145.14912296153847,park,
4609928,-37.87373699999999,145.16602918461538,park,
4721862,-37.88810600000001,145.13278352857145,park,Scotchman's Creek Linear Park
4817020,-37.81374352500001,144.98124215,park,Fitzroy Gardens
4817056,-37.800205225,144.97309235,park,Murchison Square
4817077,-37.80260951,144.96586987999999,park,Argyle Square
4817082,-37.81040131818182,144.95461176363636,park,Flagstaff Gardens
4817097,-37.81433011428572,144.97568652857143,park,Treasury Gardens
4831169,-37.76504227272727,144.93878235454548,park,Denzil Don Reserve
4856049,-37.76875872592593,144.95087608148145,park,Gilpin Park
4856979,-37.7642598090909,144.9514445636364,park,Alex S Gillon Oval
4941381,-37.76055325,144.93983012500001,park,Shiel's Reserve
4941389,-37.7651208,144.94990908333332,park,Reaburn Reserve
4953457,-37.757116915384614,144.94624164615385,park,Jacob's Reserve
4965315,-37.784571377941184,144.96215369705882,park,Princes Park
4965731,-37.874081271428565,145.14745602857144,park,
4965816,-37.77174254285713,144.9440259142857,park,Wylie Reserve
4976483,-37.76717071428572,144.95276235357144,park,Clifton Park
4978081,-37.770363100000004,144.93598251,park,Holbrook Reserve
4987027,-37.68346971774194,144.73073164032255,park,
4987681,-37.687580266666664,144.73241343846158,park,
5019820,-37.78149156,145.56762913000003,park,Jadodade Park
5055082,-37.76278585,144.938915345,park,Brady Reserve
5065841,-37.76854335,144.941443375,park,Hudson Reserve
5067096,-37.77134986666667,144.97343675555555,park,Methven Park
5103445,-37.79497466666667,144.95115845,park,Royal Park
5110090,-37.748013199999995,144.9437318111111,park,Shore Reserve
5118648,-37.766816160000005,144.97223712,park,Anderson Park
5123815,-37.80707761111111,144.95144623333331,park,Eades Park
5170254,-37.76080375526316,144.933774618421,park,Fanny Reserve
5213103,-37.89186468,145.11781362,park,
5213109,-37.89085507272727,145.12233333181817,park,Scotchman's Creek Linear Park
5213161,-37.912006863636364,145.17535450909088,park,Lum Reserve
5213167,-37.915213499999986,145.18555470769232,park,Columbia Park
5366450,-37.914248657142856,145.2410726857143,park,
5440345,-37.86031601428572,145.29120845714286,park,Chandler Park
5455440,-37.79814075000001,144.9505243333333,park,
5455443,-37.797495,144.95060860555554,park,
5455674,-37.797517,144.95040156666667,park,
5593729,-37.7621212125,144.93596697499999,park,Turner Street Reserve
5595287,-37.75851935,144.930190475,park,
5595752,-37.7560741,144.93162456250002,park,Montgomery Reserve
5800919,-37.76190465,144.92440589999998,park,Queens Park
5829534,-37.755035166666666,144.93986092666668,park,Dunstan Reserve
5829536,-37.75390895714286,144.93755524285714,park,L.D. Johns Reserve
6054509,-37.85489016499999,145.230897295,park,W.G Morris Reserve
6054589,-37.85340331923077,145.23326722307692,park,Merivale Drive Reserve
6249272,-37.78833644,145.5711089,park,
8013685,-37.748355520000004,144.9100556933333,park,Lincoln Park
8103809,-37.744934837500004,144.89708548125,park,Buckley Park
8655963,-37.81467745897435,145.12179086410256,park,Box Hill Gardens
8656012,-37.88198453333333,145.15406253333333,park,
8930337,-37.890025473913035,145.12903719565216,park,Fairway Reserve
8932405,-37.886798794117645,145.1164719,park,Mayfield Park
8965117,-37.89375789761904,145.11120588809524,park,Huntingdale Wetlands
8966195,-37.89410695384615,145.10257064615388,park,Scotchmans Run Reserve
8968614,-37.89453354705882,145.09870034117648,park,Brickmakers Park
8969138,-37.89659999166667,145.10001101666668,park,Hurst Reserve
8979148,-37.86025421739131,145.22543622391305,park,Templeton Reserve
9288225,-37.74144484285715,144.91944182857142,park,Napier Park
9337872,-37.80961346,145.11763241333335,park,Hagenauer Reserve
9470186,-37.75232319285715,144.89347466428572,park,Bradshaw Reserve
9702000,-37.76959488333333,144.93028586666668,park,
9859084,-37.755429309090914,144.9356957272727,park,Fraser Reserve
9859086,-37.75628686086957,144.9345401347826,park,
9899267,-37.74555069473684,144.93126683157894,park,F W Olver Reserve
9899425,-37.74926231333334,144.93340622000002,park,Morris Reserve
9923487,-37.750082524999996,144.958517025,park,Anderson Reserve
9923662,-37.75236119333333,144.95454687333333,park,Mailer Reserve
9923775,-37.75429051428572,144.9615548714286,park,Gandolfo Gardens
10255129,-37.76736305,144.9405933,park,Hudson Reserve
10255368,-37.768534970000005,144.93858889,park,Barker Reserve
10585428,-37.90444933636364,145.12572082727272,park,Carlson Avenue Reserve
10629894,-37.77445661666667,144.95335095000002,park,Temple Park
10670972,-37.88864337,145.13950669000002,park,Pinewood Reserve
10670981,-37.89074164545454,145.13221313636367,park,
10670990,-37.89103315806452,145.13661883548386,park,
10844610,-37.874780748387096,145.2859449935484,park,Tim Neville Arboretum
10848330,-37.76942093636364,144.9645056818182,park,Randazzo Park
10853464,-37.745170011999996,144.937068776,park,W. Mitchell Reserve
10861407,-37.73957884090909,144.93475903636366,park,Brearley Reserve
10897260,-37.86954852857143,145.12923015714287,park,
10897861,-37.86102151333333,145.12326089333334,park,Federal Reserve
10898099,-37.86397589787234,145.12751273404257,park,Damper Creek Reserve
10898144,-37.86845648571428,145.12294382857144,park,Damper Creek Reserve
10937073,-37.76936948181819,144.97632000909087,park,Fleming Park
10941760,-37.189778363636364,144.38117748181818,park,Malmsbury Botanical Gardens
11182590,-37.77449086428572,144.9773599,park,Balfe Park
11188039,-37.789254080000006,144.97323268,park,Curtain Square
11317644,-37.812442114999996,145.239668595,park,Ringwood Lake Park
11338900,-37.815068567999994,145.237316828,park,Bedford Park
11740381,-37.766970442857144,145.17486677142858,park,Whickson Court Reserve
11740533,-37.77011284285714,145.17928684285712,park,Pine Hill Reserve
11741593,-37.7757687928934,145.17123868527918,park,Milgate Park
11744131,-37.76514535,145.17074798125,park,Anderson Park
11786625,-37.7914686,145.2294758,park,Athelstane Drive Reserve
12091447,-37.76685467857142,145.16220487142857,park,Green Gully Park
12091657,-37.76469572272727,145.16299721363634,park,Jenkins Park
12092667,-37.77069418000001,145.16130307999998,park,
12096607,-37.775830165217386,145.1358288326087,park,Ruffey Lake Park
12247208,-37.88070690333333,145.22734744166667,park,Knox Gardens Reserve
12273713,-37.84025705161291,144.98318316451613,park,Fawkner Park
12543371,-37.802818820000006,144.9555262,park,Bedford Street Reserve
12899241,-37.9199353,145.1310009,park,Evelyn Street Reserve
12906827,-37.76890046666667,144.96952456666668,park,Symons Park
12908086,-37.77010671428572,145.14878261428572,park,The Grange Reserve
13123716,-37.90936849,145.11652893,park,Princes Highway Reserve
13127129,-37.904562659999996,145.10929568,park,
13145019,-37.760040680487805,144.97732270487805,park,Allard Park
13294700,-37.898383100000004,145.11309985,park,Reg-Harris Reserve
13739264,-37.89905413571428,145.1176995357143,park,F.E. Hunt Reserve
13815924,-37.787514401923076,144.98296812307692,park,Edinburgh Gardens
14014854,-37.936629512500005,145.19619815000001,park,
14415724,-37.79556881515151,144.9536817545454,park,Ievers Reserve
14600586,-37.77807308571428,145.16133136666667,park,Zerbes Reserve
14600934,-37.7787150875,145.1464708125,park,Rieschiecks Reserve
14963677,-37.869332325,145.160272855,park,Glen Waverley North Reserve
15144379,-37.84098695,145.22278685,park,Juniper Reserve
15145986,-37.841895725,145.22824839999998,park,
15241872,-37.8999593,145.11948344285716,park,F.E. Hunt Reserve
15361725,-37.9023682375,145.11692181249998,park,
15362189,-37.90142205,145.11455890000002,park,
15477554,-37.86754324545455,144.9776155045455,park,O'Donnell Gardens
15478787,-37.86626835,144.980980575,park,Talbot Reserve
15478945,-37.872003275,144.9785623375,park,Renfrey Reserve
15478950,-37.870132222222225,144.9787649333333,park,Peanut Farm Reserve
15479037,-37.87092950624999,144.98388566875002,park,St Kilda Botanic Gardens
15609701,-37.81685562222222,145.2791238777778,park,Croydon South Park
15865305,-37.845838382638895,144.97088948194445,park,Albert Park
16711763,-38.372944499999996,144.84392313333333,park,
16993581,-37.91822115000001,145.136966575,park,
16993629,-37.917929900000004,145.1349566,park,
17113801,-38.270526022123896,144.66148656725665,park,
17133324,-37.8845541,145.1277221166667,park,
17592793,-37.77495823333334,144.95858367777774,park,Jewell Station Reserve
18043576,-37.86160073797468,144.97109472531648,park,Catani Gardens
18470925,-37.935592449999994,145.19469217857142,park,
18523406,-37.853452999999995,144.98726455384616,park,Gladstone Gardens
18594356,-37.87086886666666,145.15604586666666,park,
18595099,-37.8652797,145.16366790833334,park,
18596393,-37.866312083333334,145.15328121666667,park,David Crawford Reserve
18952749,-37.864289442857135,145.16723702142858,park,Highview Park
18954653,-37.8621961,145.16661041000003,park,
18955149,-37.747333546666674,144.95962036,park,Robinson Reserve
18956174,-37.743871075,144.9628821,park,Coburg Station Reserve
19201843,-37.86267153,145.16818729,park,
19500709,-37.86057445081967,145.21890748524595,park,Milpera Reserve
19777907,-37.74737641666666,144.86545121666668,park,
19923571,-37.88922433846154,145.12177903076923,park,Transmission Line Linear Reserve
19936003,-37.87261365,145.13532107499998,park,Mount Waverley Reserve
20080108,-37.7541742,144.85438647692305,park,
20080166,-37.75328954117648,144.85726959411767,park,The Crossway South Reserve
20084823,-37.74874685294118,144.85488867058825,park,Arcade Way Reserve
20087622,-37.74161355555556,144.8541979888889,park,Parkside Reserve
20087666,-37.74704056,144.85457576,park,
20087727,-37.746721588,144.85606386400002,park,
20087869,-37.74790998518519,144.85845935555554,park,J H Allan Reserve
20087906,-37.74615221818182,144.85706591818183,park,
20088104,-37.74327329375,144.85726405625,park,
20253171,-37.748474064999996,144.87296770499998,park,Rosehill Park
20265456,-37.73616094545454,144.8624911,park,Benaud Close Reserve
20265559,-37.738426733333334,144.859567425,park,Hassett Crescent Walkway
20266477,-37.732825325,144.86090670000002,park,Moyangul Reserve
20283467,-37.783837524999996,145.1554981,park,
21133506,-37.80338988571429,144.99443157142858,park,Gahan Reserve
21419505,-37.79043184545454,144.99165583181818,park,Darling Gardens
21420462,-37.78906561428572,144.99457475714286,park,Mayors Park
21522362,-37.28481863472222,142.92648716944444,park,Edith Cavell Reserve
21638879,-37.86242364615385,145.14497120769232,park,Tally Ho Reserve
21930242,-37.863668749999995,145.113731325,park,Essex Heights Reserve
22562115,-37.81289624,144.98899492,park,Darling Square
22562116,-37.8115631125,144.9870605375,park,Powlett Reserve
22664465,-37.89508890434783,145.14864009565218,park,
22664506,-37.89804372727273,145.15283042727276,park,
22664507,-37.8993186125,145.15250225,park,
22664513,-37.89709928809524,145.1531872404762,park,
22693853,-37.871049406249995,145.16962284375,park,Larpent Reserve
22716785,-37.785379337500004,144.9663184875,park,Hardy Reserve
22724348,-37.87181043571429,145.1806902642857,park,Capital Reserve
22736223,-37.84561271111111,145.14314142222221,park,Eley Road Reserve
22740078,-37.89312022380953,145.23578199047617,park,Benedikt Reserve
22740084,-37.889775925,145.23509554999998,park,Bamber Reserve
22749023,-37.88965961666667,145.24370259999998,park,
22769294,-37.788036575,144.96996335,park,Shakespeare Street Reserve
22780369,-37.765963374358975,144.9838126564102,park,CERES Environment Park
22781496,-37.91811662916667,145.16703119583335,park,Freeway Reserve
22788988,-37.860962566666664,144.81360200000003,park,A.H. Ford Reserve
22803395,-37.753568474999994,144.970418225,park,Gilmour Park
22818856,-37.80155993265306,144.96026890816327,park,University Square
22881658,-37.798624365517234,144.960016062069,park,South Lawn
22898660,-37.93085085108696,145.2003276695652,park,Gladeswood Reserve
22902372,-37.880744850000006,145.17361389444446,park,Hinkler Reserve
22929134,-37.9307515,145.19803984705885,park,
22929149,-37.926584616,145.200447424,park,
22929177,-37.92483210454545,145.1995404772727,park,
22929203,-37.925507024,145.199186776,park,
22929213,-37.93411169230769,145.2033619153846,park,
22954425,-37.85352551304348,145.20822031614907,park,Koomba Park
22970861,-37.879229550000005,145.18064675,park,Brynor Playground
22971229,-37.88333594583334,145.21866304166667,park,Llewellyn Park
22979222,-37.796891535,144.961950455,park,North Lawn
22979390,-37.8840666875,145.1049401125,park,
22980936,-36.21642885,147.17757106666667,park,
22998189,-37.868147549999996,145.14856485,park,
23000753,-37.776060571428566,145.00947302857145,park,Johnson Park
23014236,-37.868590312500004,145.10924260000002,park,Electra Reserve
23014237,-37.872000762499994,145.11010935,park,
23014265,-37.85164804285714,145.00105441428573,park,Victoria Gardens
23023673,-37.82881089999999,145.00146733333335,park,Barkly Gardens
23024170,-37.82607687142856,144.98684811785716,park,Gosch's Paddock
23090688,-37.83598130000001,145.10181792857142,park,
23142087,-37.7797575962963,144.93719000000002,park,Travancore Reserve
23143919,-37.803841588888886,144.90229602222223,park,Ercildoune Reserve
23144061,-37.82808667826087,144.8956527043478,park,Westgate Bridge Memorial Park
23144087,-37.83204368,144.88797663999998,park,Craig Street Park
23144141,-37.83970574285714,144.89017527142857,park,Digman Reserve
23144562,-37.84702995,144.8883201,park,Armstrong Reserve
23146043,-37.85063518205128,144.89722366153848,park,Charles Bates Reserve
23146245,-37.84457106315789,144.8946845,park,Newport Park
23146301,-37.83207689047619,144.89543871428572,park,Newport River Bank Reserve
23146584,-37.79934688333333,144.90551018333335,park,Fordham Reserve
23169562,-37.743140700000005,144.8912784,park,
23169916,-37.857502634375,145.173656703125,park,Billabong Park
23201021,-37.74352188,144.9059292,park,L.T. Thompson Park
23227919,-37.876319238095235,145.09987204761904,park,Batesford Reserve
23272937,-37.81030985,144.96826465,park,
23274556,-37.880793422222226,145.10315056666667,park,
23632084,-37.863413125,145.1106418,park,
23632097,-37.864466026086966,145.10146535217396,park,
23691183,-37.84929538333333,145.2377593666667,park,Schultz Reserve
23691432,-37.850596925000005,145.24206300000003,park,Greenock Crescent Reserve
23692035,-37.84963782307692,145.2298688076923,park,Ainsdale Avenue Reserve
23717107,-37.79780042,144.96260177999997,park,Chemical Engineering Lawn
23717114,-37.79765023,144.96359206000002,park,
23731012,-37.76336552,144.88930476000002,park,
23766733,-37.80002584545454,144.9630605636364,park,1888 South Lawn
23780206,-37.846902549999996,145.24337947499998,park,Glenbarry Road Reserve
23782189,-37.78449148064516,144.8783115483871,park,Scovell Reserve
23797061,-37.896673746428576,145.08106886785714,park,Galbally Reserve
23797898,-37.84505956666667,145.22946293333337,park,
23798030,-37.845036369999995,145.23448386,park,Talbik Court Reserve
23810508,-37.90641375,145.11230725000001,park,
23873368,-38.062452307142856,145.290718675,park,Strathaird Reserve
23907995,-37.945382336363636,145.15875367499999,park,Warner Reserve
23908211,-37.96354559230769,145.15177323846152,park,Burden Park Reserve
23909867,-37.82178744848485,144.97178770303026,park,Queen Victoria Gardens
23910919,-37.9780273,145.16889685833334,park,Noble Park Reserve
23912224,-37.98159363333334,145.2083926,park,Hemmings Park
23926716,-37.9777934735849,145.1182407320755,park,
23946469,-37.99444550277778,145.21901677222223,park,Dandenong Park
23946495,-37.999048886666664,145.23867951066669,park,Eumemmerring Park
23948252,-38.06594492058824,145.2921356,park,
23974995,-37.955148799999996,145.15031685,park,Erickson Gardens
24040078,-37.842822325,145.16162312777777,park,Mahoneys Reserve
24040616,-37.85413152222222,145.1942947,park,Terrara Park
24054620,-37.87948298888889,145.19750138888887,park,Nortons Park
24054695,-37.8815558220339,145.1925229,park,Shepherds Bush
24054815,-37.91645136793103,145.2225413334483,park,
24107642,-37.924347127777786,145.0920731833333,park,Murumba Drive Reserve
24115218,-37.85739739130435,145.16062921304348,park,East Burwood Reserve
24122811,-37.91201296666667,145.09268540000002,park,W.A. Scammell Reserve
24219949,-38.06542296315789,145.28422238947368,park,Sherwood Park
24219962,-38.06086723888889,145.28533866111113,park,Kings Park
24237881,-37.920048442857144,145.10327225714283,park,Davies Reserve
24237882,-37.92590598333334,145.10412599999998,park,Talbot Reserve
24237884,-37.92267105714286,145.11598135714286,park,Jack Meade Reserve
24373546,-37.815174033333335,145.22557742916666,park,Staley Gardens
24399671,-37.89604363076923,145.25922414038462,park,Knox Park
24411855,-37.87304504117647,145.23883929705883,park,Walker Reserve
24412058,-37.86888253513514,145.2563152486486,park,
24530888,-37.82404948888889,144.9875377111111,park,Melbourne Park
24577603,-37.820768083333334,145.13632218333336,park,Whitehorse Reserve
24577635,-37.81754942222222,145.13750885555555,park,Bolton Park
24591396,-37.85986284642858,144.99542784285714,park,Alma Park East
24593719,-37.82073858367347,144.97198865510202,park,Alexandra Gardens
24593788,-37.826692099999995,144.97197834000002,park,Memorial Reserve
24593804,-37.82482064999999,144.97157325999999,park,Tom's Block
24593825,-37.82601522619047,144.97434070833336,park,Kings Domain
24603991,-37.515014425000004,145.116611525,park,Railway Reserve
24660220,-38.18463880810812,146.55545725945947,park,Sanctuary Waters
24671235,-37.85332407,145.22594739000002,park,Stratford Square Reserve
24677537,-38.1838245,146.5427946111111,park,Explorers Park
24677628,-38.18432365862069,146.55520318275865,park,
24677669,-38.181832785714285,146.55227798928573,park,
24677738,-38.21069863999999,146.52877992999998,park,Traralgon Railway Reservoir Recreation Reserve
24691959,-37.79072577142857,144.87888337142857,park,Suffolk Triangle Reserve
24693973,-38.18278355,146.55318851666667,park,
24694037,-38.1835354,146.55278357000003,park,
24694105,-38.18606321000001,146.55343021,park,
24694180,-38.18782821875,146.5566476875,park,
24694202,-38.18816089166667,146.55918154166667,park,
24783462,-38.187856800000006,146.55072846153845,park,
24783463,-38.18715436,146.55186682000001,park,
24820950,-37.688675638513516,144.9049837601351,park,Moonee Ponds Creek Parklands
24885735,-37.837469600000006,145.26802992045455,park,Marie Wallace Bayswater Park
24931686,-37.850634910714284,145.23082436428572,park,Chichester Square Reserve
24985125,-37.835073722222226,145.2738370333333,park,Glen Park
24985128,-37.832518099999994,145.27847121666665,park,
25093065,-37.72991984285714,144.95526445714285,park,Richards Reserve
25134054,-37.733607199999994,144.95228014999998,park,Harmony Park
25342912,-37.811693671428564,145.10062542857145,park,Mont Albert Park
25404607,-37.77238156315789,144.98716719473686,park,Merri Park
25451485,-37.85121788333333,145.04929255,park,Gardiner Park
25466333,-38.0641368875,145.30937430625,park,The Promenade Reserve
25518359,-37.733329275,144.92636385,park,Tate Park
25518507,-37.73551276,144.930400985,park,Kelvin Thomson Reserve
25546632,-37.754067736363645,144.96219481818184,park,Gandolfo Gardens
25560743,-37.78084606666667,144.95676492222225,park,
25562981,-37.73114207857144,144.92557412142855,park,Esslemont Reserve
25563042,-37.72759451428572,144.92961218095238,park,Austin Crescent Reserve
25563125,-37.729068375,144.93435887500002,park,James Reserve
25606281,-38.21607715609756,145.0346947804878,park,Mornington Park
25606415,-38.22615148571429,145.03569094285714,park,
25608361,-37.863650041666666,145.235800175,park,
25621870,-38.23990354,145.03119636000002,park,
25739077,-37.77206204210527,144.935011631579,park,Ormond Park
25739520,-37.786964274285715,144.93731410285713,park,Debneys Park
25740011,-37.920673973999996,145.25969109800002,park,Pine Hill Reserve
25779370,-37.74422831,144.93278721,park,
25779604,-37.728820199999994,144.92640120000002,park,Bert Payne Reserve
25793297,-37.7209351,144.92772053636364,park,Rayner Reserve
25793600,-37.719910444444444,144.9351796111111,park,K.W. Joyce Reserve
25793709,-37.72424828513514,144.9338799216216,park,Gavin Park
25794254,-37.72195843000001,144.93858619,park,Cole Reserve
25794439,-37.716581455555556,144.9317708,park,H.M. Dowd Reserve
25794553,-37.707344414285714,144.92227319999998,park,Bridget Shortell Reserve
25794628,-37.708629342857144,144.93416384285712,park,S.G. Sewell Reserve
25841606,-37.798156327777775,144.9968749611111,park,Victoria Park
25866200,-37.878733488095236,145.2860038785714,park,Dobson Park
25866575,-37.89726201666667,145.23124266666667,park,Scoresby Recreation Reserve
25869183,-37.77137007142857,144.90974695714286,park,Tom Edmunds Reserve
25932861,-37.93383800714286,145.1777893,park,Southern Reserve
25932862,-37.926969255555555,145.16275724444446,park,Wellington Reserve
25947381,-37.79648724235294,144.99999331411766,park,Dights Falls Park
25972760,-37.79924544848485,144.95052970909092,park,Errol Street Park
25992653,-37.731919610000006,144.88408931,park,Weather Station Reserve
26033862,-37.753807525,144.88621187500001,park,Bourke Street Reserve
26114605,-37.77333431111111,144.89799923518518,park,Fairbairn Park
26115219,-37.78363363529412,144.90368896470588,park,Thornbury Park
26115225,-37.7846894625,144.90462287500003,park,
26116508,-37.790603796774185,145.00395486129034,park,Quarries Park
26116510,-37.7921454,145.00333362105263,park,Ramsden Street Reserve
26130973,-38.07045763424657,145.29621386301372,park,Casey Central Town Park
26131217,-37.77903892727273,144.96836169393939,park,Linear Park Reserve
26157722,-37.046508159999995,143.81799324000002,park,C.L. Bucknall Park
26178175,-37.9998251125,145.12732557083334,park,Braeside Park
26208954,-37.90932341183879,145.22816375440806,park,Event Central at Caribbean Park
26257184,-37.74310726666667,144.91276098888886,park,Woodlands Park
26257201,-37.740939870000005,144.91446421999999,park,
26257209,-37.74266155714286,144.91611688571427,park,
26257777,-37.74817441142857,144.9270539057143,park,Five Mile Creek Reserve
26262196,-37.80607171,144.94763809,park,Hawke Street Reserve
26274713,-37.73897257777778,144.91340169999998,park,
26274767,-36.213852875,147.176528175,park,Memorial Park
26274770,-37.73724801428572,144.91331487142858,park,
26274772,-37.73574111666667,144.91241891666667,park,
26274776,-37.73425500769231,144.9098411,park,Alf Pearce Reserve
26274879,-37.7338702,144.92083241249998,park,Max Johnson Reserve
26275226,-37.74386976842106,144.9172758631579,park,Salmon Reserve
26322931,-37.8306327,144.94224228333334,park,Port Melbourne Cricket Ground
26353084,-37.8426064,144.96323737999998,park,Coot Picnic Area
26382751,-37.71081135000001,144.89219724000003,park,Collier Reserve
26382921,-37.71188862857144,144.8952638714286,park,Glenscott Reserve
26382982,-37.71507532,144.90069678,park,Boeing Reserve
26383264,-37.72446915,144.91284310999998,park,KT Smith Reserve
26383738,-37.72739189473685,144.92146475789477,park,Lebanon Reserve
26405735,-37.79496583636364,144.87815637272726,park,Shorten Reserve
26407727,-37.79176980810811,144.87535550810813,park,Johnson Reserve
26408530,-37.796071425,144.86952841250002,park,Gaudion Reserve
26408918,-37.789324458333326,144.86861691666664,park,Shepherd Gardens
26409086,-37.78705973181818,144.8666597227273,park,Dobson Reserve
26430088,-37.7699059,144.878569875,park,Rafa Park
26431323,-37.783473375,144.86692242499998,park,Costello Reserve
26431694,-37.78062116666666,144.94961320000002,park,McPherson Field
26431829,-37.78352944358974,144.94321851538461,park,Manningham Street Reserve
26447375,-37.901801,145.093368075,park,
26447419,-37.7765857625,144.859371946875,park,Cranwell Reserve
26448576,-37.78102048461538,144.85389293846154,park,Ash Reserve
26448635,-37.776495780000005,144.85111154,park,Pennell Reserve
26450620,-37.775214399999996,144.8377398125,park,Dempster Park
26489306,-37.78738247619048,144.8545952904762,park,Braybrook Park
26490144,-37.783944516666665,144.98817141666666,park,Edwardes Place
26494339,-37.787730249999996,144.8387295375,park,Dickson Street Reserve
26494368,-37.78640620588235,144.8378667,park,Kevin Wheelahan Gardens
26494882,-37.791345549999996,144.84183126666667,park,
26494909,-37.78889993333333,144.83912949999998,park,
26494911,-37.79181323333333,144.84242986666666,park,
26559040,-37.7695183,144.89952271428572,park,Rischbieth Reserves
26559193,-37.765787345161286,144.8991816903226,park,Coulson Gardens
26559282,-37.76551777272727,144.89685824545455,park,
26562763,-37.76840913142857,144.87172164,park,Canning Street Reserve
26562858,-37.770371475000005,144.8674546,park,
26563107,-37.77030045,144.85936085,park,Wilson Reserve
26564389,-37.80800699999999,144.96539627142857,park,Alumni Courtyard
26581018,-37.760632629999996,144.85386785500003,park,Thompson Reserve
26581064,-37.75733674,144.8549602,park,Mountainview Reserve
26581355,-37.747521375,144.86372595,park,
26581356,-37.74894296666667,144.8644927,park,
26581357,-37.74981688333334,144.86472698333333,park,
26581408,-37.7507402,144.865316975,park,
26581409,-37.7515782,144.8658467,park,
26581796,-37.76925288333333,144.86716231666668,park,Norma Court Reserve
26581849,-37.76921456666667,144.86762778888888,park,
26581911,-37.767595125,144.86787615,park,
26581946,-37.7666028,144.86803277500002,park,
26581956,-37.765067416666675,144.86832291666664,park,
26582758,-37.76661396973684,145.3534179144737,park,Lillydale Lake Park
26582915,-37.77444387941176,145.36049937941175,park,Hull Road Wetlands
26583357,-37.754177121052635,144.8670411210526,park,Monte Carlo Reserve
26583538,-37.75440938571428,144.87043652857142,park,Cannes Reserve
26583549,-37.75319676363636,144.87069119090907,park,
26583598,-37.7573053826087,144.86807161739128,park,San Remo Reserve
26583742,-37.756493973333335,144.87305136,park,Riviera Reserve
26584005,-37.75384019,144.87390991,park,
26601412,-37.73976521666666,144.96364395,park,
26601413,-37.739739725,144.96459535,park,McKay Street Reserve
26623603,-37.708799458333324,144.89573945,park,
26699284,-37.73457224999999,144.86531194166668,park,
26700574,-37.74474046363637,144.84946843636362,park,Sterling Reserve
26700654,-37.74735312,144.84857464,park,
26700748,-37.74944075,144.8512731125,park,Heatherlea Crescent Reserve
26719927,-37.75487795714286,144.88643237142855,park,Bourke Street Reserve
26744395,-37.71982843888889,144.85839642777776,park,
26765736,-37.776512158823536,144.93803080588236,park,Jack Tripovich Reserve
26765739,-37.77486335714286,144.93864829999998,park,
26787473,-37.86476887692308,145.22858197692307,park,Tyloid Square Reserve
26787500,-37.86542944615384,145.2326469076923,park,
26787812,-38.14640071290322,144.35672056774195,park,Johnstone Park
26791830,-37.8224803047619,145.26397249523808,park,Gracedale Park
26807306,-37.05481246666667,144.21323965000002,park,Charles Fleay Memorial Playground
26807369,-37.052128044444444,144.21479181666666,park,Castlemaine Botanic Garden
26830146,-37.798490509090904,145.01046331818185,park,Loop Picnic Area
26878250,-38.05556862564103,145.2963338025641,park,
26901932,-37.830966333962266,144.97564485849057,park,
26924184,-37.723664725,144.852020325,park,
26944595,-38.405856542857144,144.1762564857143,park,
26944596,-38.40157894117647,144.1829121764706,park,Coogoorah Park
26946703,-37.895981340000006,145.2509617257143,park,Gilbert Park
26947176,-37.735673774999995,144.89955665,park,
26968939,-37.85932152000001,145.23913852,park,
26968962,-37.855705476923085,145.2400091153846,park,
26968994,-37.85401903333333,145.24095344666665,park,
26971193,-37.76887766,144.84248714999998,park,Northumberland Reserve
26971412,-37.77238785,144.83925415,park,Suffolk Road Reserve
26987120,-37.7721358,144.84911095333334,park,
26988022,-37.7453448875,144.8824668375,park,Kelvin Close Reserve
27129412,-37.729702800000005,144.948635675,park,Martyn Reserve
27130432,-37.7299601,144.94323866363638,park,Raeburn Reserve
27152022,-37.839590550000004,145.2703435625,park,Bayswater Park
27166063,-37.850423325,145.247908075,park,
27166530,-37.846437951351355,145.25273704864864,park,Guy Turner Reserve
27166562,-37.8470716,145.24989411666667,park,Sydney Road Reserve
27210007,-38.13255221764706,145.27787589607843,park,Royal Botanic Gardens Cranbourne
27210890,-37.75896961428572,144.98680782857144,park,Mayer Park
27210898,-37.76184465,144.99225712499998,park,Alan Bird Reserve
27241596,-37.8523463125,145.23544930625,park,
27241600,-37.85306293243243,145.23169300270266,park,Courtney Square Reserve
27241603,-37.850729816666664,145.2343863416667,park,
27246174,-37.80468153076923,145.00073745384614,park,Andrews Reserve Picnic Area
27246264,-37.807573059999996,145.01024026666667,park,Dickinson Reserve Picnic Area
27246521,-37.80064732727273,145.0093809818182,park,Studley Park Picnic Area
27246595,-37.79786550645162,145.0070794903226,park,Galatea Point
27323515,-37.75242335833333,144.88840893333332,park,Neil Heinze Reserve
27370829,-37.7409244,144.891602175,park,
27401208,-37.7241886,144.8712936,park,Harrington Reserve
27443487,-37.80184597857143,145.1765518,park,Aranga Reserve
27447727,-37.72536979,144.95605879,park,Sanger Reserve
27447728,-37.7248546,144.95461738333333,park,Sanger Reserve
27447729,-37.72420897000001,144.95351364,park,Sanger Reserve
27447730,-37.723510088888894,144.9532489888889,park,Sanger Reserve
27447948,-37.724295545454545,144.96304079090908,park,R. McGregor Dawson Reserve
27448011,-37.72176986000001,144.95194368000003,park,Coburg North Linear Reserve
27448012,-37.720966675,144.95203345,park,Coburg North Linear Reserve
27448098,-37.719798850000004,144.95222518,park,Coburg North Linear Reserve
27448101,-37.71860085,144.95261575,park,Coburg North Linear Reserve
27448182,-37.72023102258064,144.9603913903226,park,Bain Reserve
27462510,-37.82175392777778,144.9566130388889,park,Batman Park
27479560,-37.706833,144.88032668333335,park,S. F. Hedger Reserve
27480588,-37.70284259230769,144.87503018461538,park,Leo Dineen Reserve
27480611,-37.7045277,144.87481995,park,
27480626,-37.705965219999996,144.87424494799998,park,Steele Creek Reserve (Sharps Road)
27507841,-37.293780860000005,143.78877595,park,Queens Park
27507851,-37.29565222352941,143.79007627058823,park,Pinetum
27507993,-37.29387108888889,143.78652771111112,park,Collins Place
27521406,-37.79396082857143,144.98192651428573,park,Smith Reserve
27522337,-37.80321795,144.97922033333333,park,Atherton Reserve
27527691,-37.76780298378378,145.00410023783783,park,All Nations Park
27530672,-37.76957321875,145.0139167625,park,McDonell Park
27549948,-37.83919165526316,144.95429362368424,park,St Vincent Gardens
27551687,-37.84235875555555,144.9470646111111,park,Gasworks Arts Park
27552421,-37.840908400000004,144.9442815375,park,Lagoon Reserve
27552706,-37.839171811111115,144.94467734444441,park,Edwards Park
27553134,-37.834233424999994,144.944329725,park,Sangster Reserve
27555879,-37.726279309090906,145.1178714636364,park,Cheverton Valley Park
27556049,-37.72834786153846,145.12519934615383,park,
27557492,-37.73697692500001,145.1277785,park,
27558341,-37.798366775000005,144.97156560000002,park,Macarthur Square
27576409,-37.70399822,144.87133292,park,Fisher Grove Reserve
27576955,-37.70004939,144.87115839999998,park,Churchill Avenue Reserve
27577539,-37.69728808888889,144.8756804111111,park,Phelan - Burvale Reserve
27577731,-37.74460425454545,144.9306170409091,park,Cross Keys Oval
27578006,-37.70988437777778,144.92065643333333,park,G.E. Clarke Reserve
27578243,-37.71605752857143,144.92014141428572,park,John Vandeloo Reserve
27590922,-37.696972010526316,144.87332431578946,park,
27592934,-37.738896975,144.881697275,park,P A  Reserve
27593681,-37.77603383333333,144.96517868333333,park,Barkly Street Park
27612949,-37.83765454,144.9229749,park,R. F. Julier Reserve
27613065,-37.69869015,144.88431085000002,park,Tangemere Avenue Reserve
27613070,-37.699728275,144.8810608,park,Camphill Park
27613086,-37.693930140000006,144.88413809999997,park,Lackenheath Drive Reserve
27613504,-37.695158649999996,144.879939225,park,Andlon Reserve
27613506,-37.69326658421053,144.8780326263158,park,Tadstan - Freight - Millar Reserve
27613507,-37.69154857142856,144.87456098571428,park,Melrose Drive Reserve
27613534,-37.6909853,144.87614208,park,
27617032,-37.7380675,144.96345636666666,park,
27630008,-37.82464220638298,145.0144483361702,park,Burnley Park
27675492,-37.87198445,145.03074238,park,Caulfield Park
27695408,-37.85723803333333,144.97112467407408,park,Jacoby Reserve
27703190,-37.7680299,144.99264625,park,Batman Park
27703382,-37.764489875,145.02605105625,park,John Cain Memorial Park
27703618,-37.77389046,145.02829325,park,Pitcher Park
27703706,-37.78268568333334,145.00271995,park,Oldis Gardens
27703771,-37.781480233333326,145.01261085555555,park,McAdam Reserve
27703817,-37.777343,144.9983987,park,Baden Morgan Reserve
27726920,-37.87748105,144.98586569999998,park,Clarke Reserve
27727140,-37.88112908333333,144.98692465000002,park,School Park
27727391,-37.893846512500005,145.2493417625,park,Otway Street Reserve
27727760,-37.836740308163265,144.93055019387754,park,Garden City Reserve
27727905,-37.882441113333336,145.24542162,park,R.D. Egan-Lee Reserve
27728597,-37.88060681052632,145.2437600868421,park,Wallace Road Reserve
27730869,-37.749754357142855,144.95607584285713,park,Palazzolo Park
27730935,-37.728019614285714,144.95855754285714,park,Coburg North Linear Reserve
27731400,-37.718270608333334,144.94591814166668,park,Hallam Reserve
27731693,-37.72915238421052,144.93726957894734,park,Rogers Memorial Reserve
27748919,-37.8126027,145.02613822499998,park,Foley Reserve
27766154,-37.866729400000004,144.9973797,park,Hewison Reserve
27768432,-37.721741175,145.124322925,park,Wooded Way
27772268,-37.83158923846154,144.90938667435896,park,Westgate Park
27773206,-37.82857173658537,145.05024501707317,park,Fritsch Holzer Park
27783990,-37.80983982307692,144.97340150769233,park,Parliament Gardens
27784473,-37.88945712258064,144.98565942580646,park,Elwood Park
27785354,-37.91584594090909,145.326053325,park,Upwey South Recreation Reserve
27787489,-37.80870645862069,144.94489207586207,park,Hawke and Adderley Street Park
27787610,-37.76204239999999,144.86740316190478,park,
27787653,-37.7608502625,144.865123175,park,Landau Lookout Reserve
27788037,-37.771332083333334,144.87050246666666,park,
27807177,-37.742657048484844,144.96850352727273,park,Bridges Reserve
27833531,-37.72338036086956,145.1301680608696,park,Olympic Avenue Reserve
27833553,-37.727760616666664,145.12765696666665,park,Harrington Reserve
27833620,-37.82541334166667,145.02353818333333,park,Morang Reserve
27834238,-37.71903555,145.12774604,park,Rattray Reserve
27859175,-37.91320501818181,145.00477424545457,park,William Street Reserve
27860065,-37.717367929411765,145.12642685294117,park,Petrie Park
27860189,-37.77429042727273,144.86153734025973,park,Grimes Flat
27860202,-37.7716912,144.85597165000001,park,Rhonda Davis Reserve
27860461,-37.76250504285714,144.85831055714286,park,Doyle Reserve
27862534,-37.72202851428572,145.12192750000003,park,Sylvan Reserve
27925061,-37.85091415714286,145.01133771428573,park,Orrong Park
27944647,-37.866308284210525,145.04908007894736,park,Central Park
27945339,-37.73259246,145.13729808,park,
27948034,-37.72866053076923,144.92306506153847,park,
27948248,-37.72580586428571,144.9211776357143,park,
27948254,-37.723390624,144.920716316,park,Oak Park Reserve
27948255,-37.722003972727265,144.92063392727275,park,
27948657,-37.7199087673913,144.9109406630435,park,John Pascoe Fawkner Reserve
27948860,-37.71683958888889,144.90640286111113,park,Bryant Family Reserve
27949080,-37.7162945375,144.91853322499998,park,Stevenson Reserve
27994116,-37.791310024999994,145.03431723333333,park,Kate Campbell Reserve
28045703,-37.755275050617286,145.1142919740741,park,Finns Reserve
28045883,-37.736576253571435,145.10845448214286,park,Cleveland Wetland Reserve
28046158,-37.749178372463774,145.12112786521737,park,Montpelier Reserve
28063837,-37.74320123571429,144.85530359285713,park,
28063948,-37.73962042000001,144.86130714,park,
28063952,-37.74007822,144.85958502,park,
28064006,-37.7391934,144.85563139047616,park,Border Drive Reserve
28064239,-37.73729986666666,144.85640411666668,park,
28064270,-37.736567799999996,144.85709143333335,park,
28064757,-37.73592691,144.85773947,park,
28064808,-37.73820973333333,144.85823425,park,
28064863,-37.737731350000004,144.8606808166667,park,
28064929,-37.73817508571428,144.8634434857143,park,
28064933,-37.73783936666667,144.86352966666666,park,
28065375,-37.9043098,145.23804517500002,park,Knox Model Aeroplane Club
28065603,-37.732833449999994,144.86676568333334,park,F J Davies Reserve
28065806,-37.734571290322585,144.87488070537637,park,Steele Creek Linear Park
28066084,-37.739323991666666,144.87249004166668,park,Quinn Grove Reserve
28066331,-37.73478385,144.86752314166668,park,
28066887,-37.73942335,144.867032575,park,Shelley Reserve
28067176,-37.743148399999995,144.872900275,park,Ashkansay Reserve
28067264,-37.746734875,144.87636885,park,Judith Reserve
28082675,-37.91638950588236,145.28907878823532,park,
28082685,-37.920504519999994,145.28356344000002,park,Heritage Way Reserve
28082688,-37.91676576808511,145.28031831702128,park,Greenbank Reserve
28082702,-37.91395356538462,145.28302358461536,park,
28084649,-37.8338322875,144.965326625,park,Eastern North Reserve
28084662,-37.8344153875,144.9655473125,park,Eastern South Reserve
28085445,-37.96587988,145.05282326,park,Native Flora & Fauna
28085472,-37.965852444999996,145.04945859,park,Cheltenham Park
28085512,-37.955698742857145,145.04925437857145,park,Sir William Fry Reserve
28101016,-37.7603026,144.9959166,park,Pearl Reserve
28118855,-37.8950832125,145.3009764,park,Kings Park
28133308,-37.88579485,145.16737915000002,park,
28133565,-37.87819782857142,145.06904481428572,park,Waverley Park
28135127,-37.902913079166666,145.30849182708334,park,Gilmour Park
28183415,-37.94152027777778,145.01657775,park,Thomas Street South Reserve
28185030,-37.947705625,145.0122034,park,AJ Steele Reserve
28185289,-37.84026267777778,145.09516377407408,park,Coopers Reserve
28185687,-37.93333168,145.01191207000002,park,Castlefield Reserve
28205552,-37.926326357692304,145.02384378846153,park,Dendy Park
28210110,-37.93583460909092,145.20499390909092,park,Portland Reserve
28210111,-37.936850379999996,145.20200589,park,
28221641,-37.9184415625,145.27393897083334,park,Barry Reserve
28221939,-37.80757008,145.03335557999998,park,Alexandra Gardens
28222626,-37.80221772564102,145.0486830461538,park,Victoria Park
28223210,-37.9587435375,145.07077285,park,Le Page Park
28223992,-37.80001875294118,145.03879,park,Eglinton Reserve
28242215,-37.77811155714285,145.32734522857143,park,Greenslopes Reserve
28242377,-37.737980094444445,145.14497322777777,park,Lenister Farm Wetlands
28242413,-37.73341278466666,145.14304898599997,park,Eltham Lower Park
28256452,-37.90605284000001,145.0120720266667,park,Landcox Park
28256948,-37.910379283720935,145.01409287674417,park,Hurlingham Park
28257257,-37.727274038235294,145.10757357058824,park,Glenauburn Park
28257492,-37.923750692,145.27312772800002,park,Major Crescent Reserve
28276968,-37.77200497692308,145.32941025384616,park,
28296558,-37.74679225263157,144.9975888473684,park,Ray Bramham Gardens
28315202,-37.7448094625,145.0095997875,park,G.H. Mott Reserve
28315754,-37.802990125,145.00271485,park,Convent Heritage Gardens
28315829,-37.741127600000006,145.0249167,park,T.W. Blake Park
28315886,-37.80401560833333,145.00245986666667,park,The French Meadow
28317520,-37.73455965,145.011278575,park,A.G. Davis Park
28338415,-37.73150768333334,144.99931035,park,L.W. Williams Reserve
28338494,-37.9050697,145.11962015,park,
28338828,-37.72199922,144.99734594,park,Crispe Park
28338955,-37.87895360833333,145.11930435,park,
28338963,-37.879720750000004,145.11760105,park,
28339222,-37.902318725,145.17165608333335,park,Brentwood Reserve
28356204,-37.83588908750001,145.085540225,park,Highfield Park
28356377,-37.8318225,145.0718673793103,park,Riversdale Park
28358182,-37.79759256153846,145.2836349076923,park,Croydon Park
28358257,-37.802415187179484,145.28202714358972,park,Town Park
28358421,-37.809809140625006,145.275413328125,park,Eastfield Park
28358442,-37.78819933076923,145.28840661153845,park,Silcock Reserve
28375252,-37.748695299999994,145.00898999999998,park,T.A. Cochrane Reserve
28375613,-37.75738095,145.0178055125,park,Hayes Park
28376037,-37.75458093333334,145.00754982222222,park,Penders Park
28380076,-37.28022085714286,142.92374182857142,park,Grump's Park
28393500,-37.91382983076923,145.03171268461537,park,Allnutt Park
28393728,-37.71599406666667,145.10554168666664,park,Central Park
28393747,-37.711479239999996,145.10239716666666,park,Grace Park
28393846,-37.71082394166667,145.10410132500002,park,De Blonay Reserve
28394152,-37.914431799999996,145.0509391,park,McKinnon Reserve
28408358,-37.897744325,145.0423771625,park,
28408695,-37.856319725,145.0350141125,park,Malvern Gardens
28460880,-37.843532425,145.04597465,park,Cato Park
28460882,-37.840513333333334,145.04875440833334,park,Anderson Park
28461428,-37.86755691111111,144.89496584444444,park,Fearon Reserve
28461440,-37.8668258,144.89290955,park,Sadler Reserve
28483951,-38.23659252857142,145.05163608571428,park,Civic Reserve
28487382,-37.81738004,144.88633020000003,park,Beaton Reserve
28487548,-37.81755034,144.89167677,park,Fels Reserve
28499229,-37.83001479473685,144.9649903736842,park,Sturt Street Reserve
28500873,-37.7540477,144.99698332499997,park,Henderson Reserve
28500884,-37.75206024666667,144.99610783333335,park,Sir Douglas Nicholls Reserve
28500895,-37.74857158,144.99554028,park,Newman Reserve
28501063,-37.73323229523809,145.02354623333332,park,W.R. Ruthven V.C. Reserve
28506882,-37.79707942571429,145.06188264285717,park,Stradbroke Park
28507044,-37.80042118000001,145.06410167333337,park,
28517620,-37.86018057999999,145.28010782,park,Tormore Reserve
28519812,-37.81998664230769,145.02080349615386,park,St. James Park
28522636,-37.72188615,145.01994655000001,park,Shand Reserve
28522653,-37.719644200000005,145.016811225,park,Howard Mendip Reserve
28533285,-37.72133159117647,144.9100155235294,park,
28533303,-37.70263605,144.912347,park,Anselm Grove Park
28533476,-37.71002885,144.908495875,park,Ivan Page Reserve
28533552,-37.70681080526315,144.901753681203,park,Jacana Valley
28547858,-37.90496400895522,145.06354901044776,park,Duncan Mackinnon Reserve
28547872,-37.90117598124999,145.05884790000002,park,Packer Park
28551967,-38.06530804347826,145.46058898260867,park,Toomuc Reserve
28572008,-37.7028046045977,145.12714245862068,park,Malcolm Blair Reserve
28573022,-37.7930058,144.98117746666665,park,Triangle Park
28575973,-37.70278479,145.02707703000002,park,Atkinson Reserve
28593325,-37.698406600000006,144.998997025,park,Ludeman Reserve
28594264,-37.71391185365854,144.99291042439023,park,Edwardes Lake Park
28594312,-37.7168256625,144.993897925,park,J.E. Moore Park
28594321,-37.72012505833333,145.00002655,park,Wright Reserve
28594546,-37.868459678571426,145.22264268214286,park,Flamingo Reserve
28594701,-37.86987270357143,145.22491496071427,park,Finley Reserve
28594819,-37.869052266666664,145.22747624333334,park,Avoca Way Reserve
28594836,-37.86803666,145.22964446666666,park,Old Orchard Reserve
28594847,-37.870929849999996,145.21655020625002,park,Cathies Lane Reserve
28614827,-37.81600526,145.06943348,park,Belmont Park
28615016,-37.81295587058823,145.0681419352941,park,Deepdene Park
28615311,-37.81353347058824,145.07852868235292,park,Balwyn Park
28615738,-37.823324571428564,145.0857037857143,park,Colville Reserve
28615745,-37.822317500000004,145.08831785714284,park,Canterbury Sports Ground
28616140,-37.828201825,145.06954852500002,park,Brinsley Road Reserve
28616157,-37.82452052,145.07926131333338,park,Canterbury Gardens
28616172,-37.82844135,145.08927725,park,Mary MacKillop Reserve
28616356,-37.817130625,145.094924025,park,Grovedale Park
28637308,-37.80799946,145.24294274666667,park,
28639779,-37.90786430666666,145.04579213333335,park,Joyce Park
28662194,-37.638791327272735,145.02331834545453,park,Epping Recreation Reserve
28664523,-37.840339539999995,145.04315241499995,park,John Gardiner Reserve
28678068,-37.878549500000005,145.05367735833332,park,Ardrie Park
28678615,-37.878768943478256,145.04652298695652,park,East Caulfield Reserve
28692760,-36.377341099999995,145.39932595,park,Queen's Gardens
28706872,-37.87045796666666,145.08214076666667,park,
28706879,-37.87079994444444,145.0846023,park,
28719089,-38.06733362432432,145.28365012972972,park,
28738319,-37.8496882614679,145.05005388807342,park,Burke Road South Reserve
28738708,-37.96522073333333,145.01896263333333,park,F.G. Tricks Reserve
28738975,-37.97108465675676,145.08228021081078,park,Hibiscus Avenue Reserve
28755549,-37.83555139999999,145.00396792666666,park,Como Park
28788095,-38.010394821052635,145.08940144736843,park,Attenborough Park
28788631,-38.0313854625,145.10909852499998,park,Regents Park
28805908,-37.88100905625,145.0890379,park,Peverill Park
28824756,-37.703248775,145.09668090833333,park,Fell Reserve
28824782,-37.70581146666667,145.09857661666663,park,Greensborough War Memorial Park
28842116,-37.79307428571428,144.9772072857143,park,Father Little Reserve
28842185,-37.7933601,144.980458275,park,J. D. Powderly Plantation
28843500,-37.81545635384615,145.11333311538462,park,Kingsley Gardens
28865619,-37.69916165151515,145.01539966363637,park,J.C. Donath Reserve
28865940,-37.70737016666667,145.02858056666668,park,Leslie Reserve
28866003,-37.710651396875,145.026912253125,park,Beenak / McMahon Reserve
28883688,-37.810650124999995,145.09216004499999,park,Beckett Park
28883978,-37.804691575,145.09602484375,park,Minifie Reserve
28884981,-37.798129450000005,145.09323941666665,park,Greythorn Park
28885008,-37.800897708,145.086872544,park,Gordon Barnard Reserve
28885126,-37.79967297142858,145.08093773809526,park,Hislop Reserve
28886084,-37.869658824999995,145.07405949999998,park,Watson Park
28902303,-38.0821118775,145.287706565,park,
28916603,-38.050057514705884,145.29195534705883,park,
28917110,-37.9317186125,145.10504613125,park,Bald Hill Park
28918051,-38.041925240816326,145.2857870632653,park,
28918073,-37.89393406,145.02391532800002,park,Princes Park
28918301,-37.909108714285715,144.99460829999998,park,Wilson Reserve
28918612,-37.75681726666667,144.92504641666667,park,
28918617,-37.756825875000004,144.924273625,park,
28920796,-38.0468388108108,145.27829595675675,park,
28929799,-37.81653362,145.18449256000002,park,Walker Park
28949239,-37.77684370769231,144.97924870769228,park,Langdon Reserve
28949300,-37.8268629875,145.1846991,park,Charles Rooks Reserve
28968862,-37.149201899999994,144.16390624285714,park,
28968864,-37.14973983333333,144.16527541666665,park,John Powell Reserve
28969857,-37.83655447209303,145.1751306372093,park,Forest Hill Reserve
28969957,-37.85131345769231,145.07075151538461,park,Back Creek Reserve
28969958,-37.85266105,145.0688840777778,park,Ferndale Park
28993859,-37.827070761538465,145.15140084615388,park,Furness Park
28997107,-37.921183616,145.20149496,park,Mulgrave Reserve
29042179,-37.934444739999996,145.13486238,park,
29047182,-37.88117021666666,145.26713637777777,park,Clyde Reserve
29047342,-37.885394992,145.26057082,park,Kent Park
29058720,-37.816789812500005,145.000637,park,Citizens' Park
29059847,-37.81757877272728,145.0840652136363,park,John August Reserve
29060206,-37.789822241818186,145.05899666363635,park,Hays Paddock
29060621,-37.841771875,144.87281234999998,park,Jack Madigan Reserve
29064385,-37.837788068965516,144.87239686206894,park,Newport Lakes Reserve
29078032,-37.8361364,144.851541925,park,A. W. Langshaw Reserve
29078801,-37.835304750000006,144.8594830375,park,R.J. Cooper Reserve
29079014,-37.843664233333335,144.85318199999998,park,Allen Street Reserve
29122150,-37.85588667142857,144.87607675714284,park,RJ Long Reserve
29122348,-37.86767576862745,144.91019599019606,park,Point Gellibrand Coastal Heritage Park
29122351,-37.86476405,144.901000475,park,Robertson Reserve
29122397,-37.8634947,144.901823375,park,Maclean Reserve
29123093,-37.860090225,144.84306665,park,Fell Reserve
29123410,-37.754053060000004,145.13710562,park,Templestowe Reserve
29131190,-37.825177950000004,144.86902066666667,park,
29131682,-37.81729670303031,144.86912769090907,park,Angliss Reserve
29165368,-37.826471042857136,144.88352512857142,park,Donald McLean Reserve
29167127,-37.82794647142857,144.8455924857143,park,A.W. Bond Reserve
29173083,-37.80544094,144.87698496000002,park,Anders Park
29173321,-37.803797659999994,144.87306858666665,park,Hansen Reserve
29202806,-37.69291566666667,144.92173048333333,park,Anderson Reserve
29202873,-37.69729079473684,144.9211721210526,park,A.T.C. Cook Reserve
29233113,-37.81508232,144.88423088999997,park,
29236160,-37.79314661111111,144.84887188888888,park,Pritchard Reserve
29236676,-37.78670799230769,144.80119573076922,park,Ainsworth Reserve
29273447,-36.99745079,144.28912559999998,park,Oak Plantation
29273828,-37.73284325454545,144.81422173636363,park,Churchill Reserve
29279978,-37.758079933333335,145.05786039999998,park,Remembrance Park
29308613,-37.748027300000004,145.0201070888889,park,H.L.T. Oulton Reserve
29333642,-37.773027191666664,145.0515111916667,park,Ivanhoe Park
29334957,-37.77706734,145.048892045,park,Chelsworth Park
29335394,-37.7682444,145.03516290000002,park,Miles Reserve
29361286,-37.74296658,145.0444339266667,park,Malahang Reserve
29392959,-38.03876035789474,145.3415330210526,park,Buchanan Park
29396997,-37.88697323333333,145.22747445333334,park,Balmoral Gardens Reserve
29397152,-37.88045989166666,145.22975214166667,park,
29416731,-37.78126804,145.14979334000003,park,Dehnert Street Reserve
29475217,-37.06630491666667,144.21724199999997,park,Victory Park
29475396,-37.06485912857143,144.21226927857145,park,Camp Reserve
29490315,-37.65776962142858,144.59702783571427,park,
29491818,-37.68389911,144.5895998866667,park,Hannah Watts Park
29784366,-37.701400628571434,145.02107717857143,park,I.W. Dole Reserve
29784853,-37.703901657142865,145.0172737714286,park,Frank Allen Arthur Dunstan Reserve
29975263,-37.862121540000004,144.84285246,park,Kim Reserve
29992116,-37.85653636944445,145.10379318055556,park,Gardiners Reserve
30086714,-37.856255583333336,145.003188425,park,Lumley Park
30124666,-37.89848339473684,145.03865150526318,park,E.E. Gunn Reserve
30124976,-37.8419193,145.253843375,park,Larne Avenue Reserve
30128817,-37.91630317083334,145.06129672083333,park,Bailey Reserve
30142129,-37.85848111111111,145.08718180000002,park,Liston Street Reserve
30265771,-37.863791150000004,144.9767134,park,
30288064,-37.754567834375,145.03776260625,park,Ford Park
30298185,-37.77515088333333,144.92095903333333,park,Rothwell Park
30327200,-37.947979075,145.00991711249998,park,Bamfield Playground
30376720,-38.14970002727273,144.37180809999998,park,Pevensey Park
30436305,-37.8513665,145.14634632500002,park,Burwood Highway Reserve
30511376,-37.73354569230769,145.03669951923075,park,C.H. Sullivan Memorial Park
30513369,-37.89487601764706,145.0541597882353,park,Koornang Park
30594058,-38.03793081375,145.27431281,park,
30634022,-38.058783150000004,145.28792843333335,park,
30653203,-38.041212775000005,145.2795721125,park,
30683177,-37.74567866521738,145.34437758695648,park,Gateway Reserve
30733360,-38.15096565769231,145.12210007307692,park,Victoria Park
30756144,-38.22162265,145.03614097500002,park,Mornington and District Memorial Park
30810056,-37.83648416,144.94070678,park,Crichton Reserve
30831992,-38.04458412727272,145.2816144909091,park,
30835044,-37.82256822000001,145.17307216,park,Candlebark Park
30837735,-37.8299379875,145.00116475,park,Allan Bain Reserve
30907894,-37.840141144444445,145.07187304444446,park,Willison Park
30908684,-37.8310684,145.1676443,park,
30908853,-37.832879074999994,145.169923875,park,Glen Valley Reserve
30925931,-38.0574066375,145.282681675,park,
30928659,-37.956839345000006,145.12834214499998,park,Heatherton Park
30931133,-37.7394989,144.80911485000001,park,Padley Park Community Garden
30967890,-37.77344668913044,145.0347450847826,park,Darebin Parklands
30968287,-37.77476227906977,145.03581236976743,park,Rockbeare Park
30971511,-38.03099126666666,145.27809371333333,park,
30994613,-38.0476663125,145.2733449875,park,
31006829,-38.044662620000004,145.27030533333334,park,
31009823,-37.84132489523809,145.03739127142856,park,Sir Zelman Cowen Park
31009882,-37.84559339999999,145.03622200000004,park,Sir Robert Menzies Reserve
31122709,-37.813934175,145.0452402,park,Kellet Reserve
31128896,-37.7621475,145.06121981666664,park,Albert Jones Reserve
31248700,-37.78548334901961,145.06746644705882,park,Musca Street Reserve
31248895,-37.78741387499999,145.06926329642857,park,Kyora Parade Reserve
31250080,-37.78331832000001,145.09416029130435,park,Koonung Creek Reserve
31250128,-38.156377963636366,144.35276106060604,park,Kardinia Park
31251191,-38.14089551111111,144.3411842888889,park,Sparrow Park
31252840,-37.740948941666666,145.049496625,park,Shelley Reserve
31253109,-37.71497391875,145.02450595625,park,Arch Gibson Reserve
31253383,-37.70516919086294,145.04274436192892,park,Bundoora Park
31271416,-37.84045754666666,144.85876159555556,park,Paisley Park
31271753,-37.8420384125,144.8682614,park,Loft Reserve
31274666,-37.88101949523809,145.2446531142857,park,
31274675,-37.88129308076923,145.2472207,park,
31296035,-37.866452828048786,145.24468173780488,park,Lewis Park
31298164,-37.10473942,144.06962188,park,Rotunda Park
31298268,-37.107709375,144.06045545,park,Newstead Park
31324898,-37.8135363125,144.89892087500002,park,Yarraville Gardens
31324961,-37.81275992777778,144.8988291611111,park,Hanmer Reserve
31331500,-36.996046678947366,144.0650522157895,park,Bill Woodfull Recreation Reserve
31336458,-38.14709413909092,144.31792365545454,park,Queens Park
31440747,-37.82845566,145.01001082,park,Golden Square Bicentennial Park
31441953,-37.81979365172414,145.0286406896552,park,Grace Park
31531481,-37.79154309333333,145.11042515333332,park,Wilsons Reserve
31533498,-38.16835162142858,144.34882304285713,park,Cameron Park
31611172,-37.886994906896554,145.11302159999997,park,
31612427,-37.87873032857142,145.11344352857142,park,Bayview Reserve
31654075,-37.76565866153847,145.0322442923077,park,Seddon Reserve
31654102,-37.778676635294126,145.0378846235294,park,Sparks Reserve
31655261,-37.92212381,145.04425381000001,park,Hodgson Reserve
31655309,-37.90544631428571,145.26162092142857,park,Karoo Reserve
31659062,-37.92016303333333,145.04204696666667,park,Bentleigh Gardens
31659240,-38.21806502222222,145.05678345555555,park,
31661031,-38.04005494545454,145.27094756363635,park,
31711625,-37.89795540344827,145.27815527931034,park,
31752867,-37.889705819999996,145.12648191,park,
31806404,-37.89779018695653,145.22407893478265,park,
31806405,-37.895949029166665,145.22248163333333,park,Chagall Reserve
31806474,-37.893994209090906,145.23063797272727,park,Sheppard Reserve
31820194,-37.7314861625,144.78569250833334,park,International Gardens Reserve
31833099,-37.87646290666667,145.37816009333335,park,Pirianda Gardens
31856896,-38.07976341666667,145.48530918333333,park,Burke Park
31877352,-37.696992312,144.989914024,park,L.E. Cotchin Reserve
31877449,-37.6978651875,144.99567096250001,park,Wilson Boulevard Reserve
31877509,-37.06077405,144.20753009999999,park,Morrissey Reserve
31877514,-37.70304395555556,144.99468118888888,park,William Ruthven Primary School (Demolished)
31877538,-37.0615038,144.20642058750002,park,West End Playground
31877688,-37.69340105,144.98096957500002,park,Doug Hannan Reserve
31877749,-37.700817900000004,144.994792,park,Tracey Reserve
31877825,-37.71962175,144.9893304,park,Hillcroft Reserve
31878298,-37.773989060000005,145.02223396000002,park,Breavington Reserve
31878368,-37.77169937142857,145.01519712857143,park,Rubie Thomson Reserve
31878456,-37.0652033,144.2046456888889,park,McDonalds Reserve
31878464,-37.065879214285715,144.19791837142859,park,
31878467,-37.06552257142857,144.19553518571428,park,
31880197,-37.14239292,144.35804317999998,park,Barkly Park
31887577,-37.728514275,145.023584025,park,McComas Reserve
31887628,-37.71392756666667,145.03501676666667,park,Link Reserve
31887662,-37.71781877959183,145.02964886938776,park,K.P. Hardiman Reserve
31889018,-37.824325,145.30049416551722,park,Melbourne Water Retarding Basin
31890385,-37.856281785714295,145.1355650428571,park,Ballyshannassy Park
31929425,-37.06786972,144.21758445333333,park,Western Reserve
31929741,-37.07586745,144.20863727857142,park,Norwood Hill Progress Association Recreation Reserve
32000008,-37.85803875909091,144.8708072,park,
32052298,-37.89461948666666,145.2198000666667,park,Redcourt Reserve
32052400,-37.89139241666666,145.2237869777778,park,Collendina Reserve
32052405,-37.890481494444444,145.22215467222222,park,
32052407,-37.89124978666667,145.21958011333334,park,Westburn Reserve
32052412,-37.890091993333336,145.21838515333332,park,Walsh Avenue Reserve
32052442,-37.89315083333334,145.22372959444445,park,Raphael Court Reserve
32052457,-37.895040225,145.2283077666667,park,
32052792,-37.88995678333333,145.255521025,park,
32052931,-37.880382357142864,145.2588871047619,park,
32056085,-37.82598933333333,145.3012035111111,park,
32078277,-37.895853948717956,145.26321426282053,park,Windermere Reserve
32078563,-37.89126504285714,145.26617577857144,park,
32078571,-37.89211247333333,145.26776148,park,Natasha Reserve
32078573,-37.89263975714285,145.2624459785714,park,
32078591,-37.89066123225806,145.27071322580645,park,H.V. Jones Park
32079938,-37.88130305384615,145.2765264846154,park,Pickett Reserve
32117361,-37.72794356944445,145.10673893055557,park,Yallambie Park
32123099,-37.77550265625,144.93593568749998,park,Fenton Reserve
32123104,-37.77636533846154,144.9351505923077,park,
32123126,-37.77187723529411,144.9378889235294,park,
32194946,-37.830719099999996,145.3077115909091,park,
32194950,-37.83042101111111,145.3061690111111,park,
32213351,-37.801987725000004,144.9764903875,park,King William Reserve
32254502,-38.113912408333334,147.08302056666668,park,
32254691,-37.70837436190476,145.16790473809522,park,Eltham Woods
32324235,-37.799908975,144.97568975000002,park,Frank King Park
32324320,-37.79527115,144.9766437,park,Garryowen Park
32324746,-37.80156792857143,144.97987731428572,park,Whitlam Place
32326412,-37.786912099999995,144.977697825,park,Brookes Crescent Reserve
32326433,-37.804121975,144.99726545,park,Browns Reserve
32329078,-37.799093622222216,144.9976296333333,park,Brearly Reserve
32329555,-37.80355886666667,144.9929983333333,park,Town Hall Reserve
32330535,-37.802352156249995,144.9807213875,park,Condell Reserve
32331472,-37.8029429,144.99379765,park,Eddy Court Reserve
32426946,-36.78350579090909,144.23156613636365,park,
32455920,-37.896574347619044,145.00981065714282,park,Gardenvale Park
32458979,-37.831105875000006,145.3109764625,park,
32461071,-38.1713688,144.35027116666666,park,Alsop Park
32483043,-37.87189924545456,144.9935484090909,park,William Street Reserve
32505792,-37.797819645454545,144.96154522727275,park,
32552033,-37.7485905826087,144.9148702173913,park,Cliff Allison Park
32572514,-38.06911058333333,145.48886183333335,park,Atkins Road Reserve
32618636,-37.880495136363635,147.9642793818182,park,
32656612,-37.811183985714294,144.97530895714286,park,Burston Reserve
32656642,-37.80780819166666,144.97208626666668,park,Burton Reserve
32656690,-37.828687333333335,144.96738916666666,park,Miles and Dodds Reserve
32686320,-38.15082538181819,144.37120141818178,park,Ron Robertson Rose Garden
32708811,-38.13829678181818,145.14965244545454,park,Wingham Park
32709904,-37.98479863333333,145.06342442,park,Mentone Reserve
32709907,-37.98505015714285,145.06432276428572,park,Keith Styles Reserve
32710279,-37.7931508125,144.97417655,park,Neill/Canning Street Reserve
32710367,-37.80724803333333,144.96552456666666,park,Eight Hour Reserve
32720597,-37.837080279310356,145.30745573448277,park,
32720605,-37.83739201666666,145.3084463333333,park,Appletree Hill
32720656,-37.83370948,145.30253367999998,park,
32740536,-37.7983812,144.99805908000002,park,Bath Street Reserve
32741287,-37.803063300000005,144.981350275,park,George Street Reserve
32741371,-37.80006443333333,144.97956428888887,park,Greeves Street Reserve
32741480,-37.78120208888888,144.98693722222222,park,Park Street Reserve
32741613,-37.779999725,144.98387142500002,park,Porter Street Reserve
32741641,-37.780415280952376,144.9822538047619,park,Janet Millman Reserve
32741873,-37.78102008918919,144.98995599189192,park,Thomas Kidney Reserve
32741888,-37.776846979999995,144.98851154999997,park,Ottery Reserve
32741893,-37.78347576666667,144.98346853333334,park,Piedmontes Corner
32746104,-37.76470327142857,144.95198185714284,park,Brunswick Mallet Sports Club
32746116,-37.764773052631575,144.9519442210526,park,Brunswick Park
32773236,-37.84752025,144.958809975,park,Frank & Mary Crean Reserve
32773280,-37.836267680000006,144.95049144,park,Lyell Iffla Reserve
32773304,-37.8363893,144.9646415,park,Ludwig Stamer Reserve
32773563,-37.836337050000004,144.939041775,park,Hester Reserve
32773607,-37.835671160000004,144.93898322,park,Turner Reserve
32773702,-37.834212525,144.942543575,park,Smith Reserve
32773716,-37.833978116666664,144.94169730000002,park,Walter Reserve
32893826,-37.81949885555556,145.01658695555557,park,Creswick Street Reserve
32893857,-37.81923615999999,145.01557228,park,Yarra Bank Reserve
32895668,-37.7913049625,145.04025864375,park,Jack O'Toole Reserve
32895731,-37.82004786666667,145.05298426666664,park,Sir William Angliss Reserve
32895739,-37.81986849545455,145.05467114090905,park,Rathmines Road Reserve
32895781,-37.81713174545455,145.03131497272724,park,L.E. Bray Reserve
32896067,-37.79530443,144.83513797999998,park,J.R. Parsons Reserve
32896991,-37.829289291176465,144.83146802352942,park,G.J. Hosken Reserve
32920620,-37.87307004,145.0038869,park,Greenmeadows Gardens
32920751,-37.792530725,144.92264354999998,park,Peppercorn Park
32979402,-37.746424016666666,144.79813746666665,park,McKechnie Reserve
33042406,-38.07893260000001,145.47252561428573,park,William Bruce Ronald Reserve
33076262,-37.785565545454546,145.0294701727273,park,Alphington Park
33076346,-37.78607630909091,145.02272484545455,park,Coate Park
33079420,-37.70547905,144.9730178,park,RK Evans Reserve
33117835,-37.82153095555556,145.00272207777778,park,Dame Nellie Melba Memorial Park
33150913,-37.695646350000004,144.91141461249998,park,Gervase Avenue Reserve
33153247,-37.68963231764706,144.93601244117647,park,Jack Roper Reserve
33191718,-37.832411275000005,144.944283725,park,Gill Reserve
33191722,-37.83288735,144.94475699999998,park,Howe Reserve
33191725,-37.831932249999994,144.946254775,park,Page Reserve
33191954,-37.83643683333333,144.9586989,park,
33191959,-37.839019612499996,144.9600406875,park,
33197651,-37.83678511666667,145.30482099999998,park,W. (Jacko) Jackson Reserve
33197660,-37.83605481111111,145.30495735555556,park,Grayswood Reserve
33198686,-37.81948515,144.99841295,park,Alexander Reserve
33246762,-37.861436287096765,145.06282907741934,park,Eric Raven Reserve
33270640,-37.840760327272726,144.87815317272728,park,Leo Hoffman Reserve
33270869,-37.845642127272725,144.88094249999997,park,Bryan Martin Oval
33270988,-37.84319538125,144.8821298625,park,Paine Reserve
33272197,-37.8224419375,144.845963575,park,Brooklyn Reserve
33274954,-37.82073275,144.87263935000001,park,Hanks Baseball Park
33297308,-37.789674525,144.89207349999998,park,Heatley Reserve
33297408,-37.80188917647059,144.91475944509807,park,Wildlife Reserve
33297833,-37.791138716666666,144.9238260166667,park,Women's Peace Garden
33406431,-37.7858951125,144.9973824375,park,Coulson Reserve
33406492,-37.78416769444445,145.00167899999997,park,George Knott Reserve
33406511,-37.78743029166666,144.99318728333333,park,Raines Reserve
33426123,-38.10257111111112,145.14239355555554,park,
33426124,-38.1022226037037,145.14952148518518,park,Maple Street Reserve
33426174,-38.10557817894737,145.15765805526314,park,Belvedere Reserve
33434491,-37.81552430000001,144.87548921111107,park,McNish Reserve
33434558,-37.81016330833334,144.87046898333332,park,Bassett Reserve
33434787,-37.78739862,144.87357129999998,park,Rogers Reserve
33435247,-37.7821315,144.87209085,park,Cambridge Street Reserve
33493765,-38.156498575,144.367204475,park,Hopeton Park
33505739,-37.80104755,145.297731,park,
33506039,-37.83576525,145.29803285000003,park,
33506302,-37.83165398333333,145.29989285833332,park,
33506422,-37.83474169090909,145.29653846363638,park,
33539285,-37.73862793636364,144.77834427727274,park,Cyril Clements Reserve
33539389,-37.74559457777778,144.80305684444443,park,Errington Reserve
33539636,-37.7972575,144.8238778,park,Arthur Beachley Reserve
33539934,-37.79437543548388,144.8415102096774,park,Matthews Hill Reserve
33541682,-37.72349888333333,144.8379548,park,Bonfield Reserve
33611419,-37.797199383333336,144.98923198333333,park,McNamara Street Reserve
33615690,-37.876552964285715,145.24675826428572,park,
33654289,-38.14615676666667,145.17768304444445,park,McClelland Sculpture Park
33657110,-37.7739476,144.9356617111111,park,Brisbane Reserve
33657114,-37.773047625,144.93650371249998,park,
33657956,-37.70267132894736,144.76392718157894,park,Overton Lea Reserve
33688923,-37.720561125862076,144.83630698448277,park,Cliff Harvey Lagoon Reserve
33725001,-37.762345493103446,144.90217163448276,park,Aberfeldie Park
33725148,-37.766173797368424,144.9033917210526,park,Maribyrnong Park
33738166,-37.77252024698795,145.07067234457833,park,Yarra Flats
33739269,-37.75757580428571,145.07807310071428,park,Banksia Park
33762345,-37.71638609545454,145.0180633090909,park,T.W. Andrews Reserve
33762375,-37.723851550000006,145.011180625,park,Storey Reserve
33762386,-37.724980550000005,145.00520974285712,park,Gilbert E. Robinson Park
33762399,-37.728016124999996,145.008516375,park,F.G. Pike Reserve
33763153,-37.70373535555555,145.0750701111111,park,Loyola Reserve
33764845,-37.86094697142857,145.25326750000002,park,Chandella Reserve
33765257,-37.86109569090909,145.2599897181818,park,Arthur Kleinert Reserve
33765278,-37.85923696,145.2567582,park,
33765298,-37.85917985454547,145.25885970000002,park,
33765549,-37.86559545555556,145.2555716666667,park,
33766875,-37.852638052173916,145.2567274369565,park,Sasses Avenue Retarding Basin Reserve
33799758,-37.813385,144.8922102875,park,Bellairs Reserve
33800613,-37.78430061428571,144.8496745357143,park,Kinder Smith Reserve
33996433,-37.71388800909091,144.95212520909092,park,Kennan Reserve
33996553,-37.71003524,144.95240582,park,Reddish Reserve
33996905,-37.705299600000004,144.95260417,park,Martin Reserve
33997980,-37.698827349999995,144.94261719999997,park,Bill Allan Reserve
33997989,-37.69670614761905,144.94373744761904,park,Andrew Street Reserve
33998641,-37.695201716666666,144.91336646666664,park,
33998644,-37.695620465000005,144.90581865000001,park,Jacana Wetlands
34060838,-37.83998415000001,144.934677575,park,Park Square Reserve
34159795,-37.8929605,145.1536802,park,
34229596,-37.74916416000001,144.98708707999998,park,H. Swain Reserve
34282366,-37.715330916666666,144.94594551666668,park,Bartlett Family Reseve
34282681,-37.705554660000004,144.9444555,park,Mommsen Reserve
34283055,-37.702394325,144.94412657499998,park,
34283056,-37.698227,144.935404475,park,W. J. Turner Reserve
34283059,-37.69724386,144.9275073,park,Joe Lakerty Reserve
34283487,-37.70422688,144.94795106,park,Glenroy Lions Park
34284271,-37.70020425,144.9553724,park,Spencer Park
34284272,-37.7002971,144.95655745000002,park,LaTrobe Park
34284273,-37.700434220000005,144.95699696000003,park,Lonsdale Park
34284277,-37.70065598750001,144.95647141249998,park,
34284281,-37.7007389,144.955745975,park,Deakin Park
34458325,-37.8440786,145.09901298,park,
34520557,-38.066762266666665,145.47985503333334,park,
34546549,-37.782746043749995,144.9384925,park,Delhi Reserve
34572873,-37.776015683333334,144.93691104166666,park,
34585695,-37.11263723333334,144.05597338333334,park,Newstead Memorial Park
34585790,-37.11847588,144.0586386,park,Newstead Racecourse and Leisure Reserve
34804619,-37.898441749999996,145.15514188333336,park,
34804620,-37.898357025,145.15687045,park,
34861525,-37.90413245,145.17580499999997,park,
34861526,-37.902850405882354,145.17935974117646,park,
34900332,-38.07476955454546,145.48373899090907,park,P.B. Ronald Park
34900336,-38.075194933333336,145.49465888333336,park,
34900337,-38.06951061428571,145.48256395714284,park,
35068249,-37.86980708965517,144.82936680689656,park,Logan Reserve
35602986,-37.817138866666674,144.98825811666666,park,
36071912,-37.8764142875,145.12383962500002,park,
36072026,-36.5062046,142.082756175,park,Wail Nursery
36226571,-36.45486115,142.02460686249998,park,Nine Creeks Reserve
36836620,-38.120577659999995,145.1327122,park,Kananook Reserve
36870931,-37.8576323125,145.089268225,park,
36871664,-37.83333031666667,145.2370298,park,Heathmont Reserve
36899717,-37.99140642105263,145.08966462105263,park,Walter Galt Reserve
36923511,-37.762762484615386,145.1757559230769,park,Schafter Reserve
36927256,-38.33440433,144.96806106999998,park,Dromana Recreation Reserve
36952539,-37.94366040833333,145.23170844166668,park,
36981657,-37.761511546666675,144.9798604066667,park,Jones Park
37319770,-37.84265739600001,145.08760747,park,Lynden Park
37356054,-37.8375274,145.167907525,park,
37356528,-37.84075987142857,145.18836860000002,park,Stephens Reserve
37516281,-37.83962559636364,145.23330853272728,park,
37516294,-37.838788519999994,145.22262745333333,park,
37522397,-37.77933312727273,144.97303826363634,park,Linear Park Reserve
37666459,-37.830601470588235,145.29373616470588,park,Canterbury Gardens
37727022,-38.191587816,144.313137894,park,St. Augustines Water Hole
37813747,-37.81483725714286,144.99608227142858,park,
37815741,-37.68880445999999,144.89955874,park,Jack Ginifer Reserve
37830196,-37.695155945454545,144.89970842272726,park,John Coutts Reserve
37861680,-37.908419493749996,145.3539632875,park,Apex Park
37862056,-38.13604642666666,144.3384296933333,park,Bakers Oval
37866235,-37.6965419,144.89522502000003,park,Vaucluse Avenue Reserve
37866244,-37.70020291428572,144.89059748571427,park,Trentham Drive Reserve
37891004,-37.78573334,145.10361184,park,
37891461,-37.86520385,144.687271025,park,Symons Avenue Park
37891463,-37.86688087142857,144.68283374285713,park,Whitsunday Drive Park
37891619,-37.8661752,144.65929491000003,park,Nottingham Crescent Park
37891805,-37.88541471333334,144.7295698066667,park,Henry Lawson Green
37936327,-37.97827161000001,145.07917887000002,park,Mentone Racecourse Reserve
38132864,-37.75594616,144.98823376,park,Turner Reserve
38256438,-37.83526139999999,145.2552257647059,park,H.E. Parker Reserve
38265749,-37.816445709090914,145.2463531090909,park,AFB Long Reserve
38311058,-37.98133265454545,145.24257188181818,park,Power Reserve
38351924,-36.17507325,147.932776075,park,
38518813,-37.84395067,145.23799934,park,
38607472,-37.810729753846154,145.19137620769231,park,Halliday Park
38664936,-37.760312286666675,144.96450839333332,park,Warr Park
38742822,-37.6924821,144.892528475,park,Harcourt Crescent Reserve
38742832,-37.6940724090909,144.88690162727272,park,Elmhurst Park
38744300,-37.690338940000004,144.8951736,park,Barrington Crescent Reserve
38744919,-37.83883047142858,145.2294003714286,park,Scott Street Reserve
38744946,-37.839513325,145.2513659,park,Suffern Reserve
38750686,-38.16223205925926,144.31438294999998,park,Montpellier Park
38862382,-36.12470348421052,146.8749793631579,park,Les Stone Park
38909887,-35.3513376,143.56432643333335,park,Michael J. Holmes Park
39022721,-36.7114053,142.19735359999999,park,May Park
39089338,-38.20609435,144.32123318333333,park,Coolabah Park
39201101,-37.80718005555556,145.18002916666666,park,R.E.Gray Reserve
39214142,-37.986179506250004,145.12716673749998,park,
39214751,-37.96865541666667,145.10705023333333,park,Heatherton Recreation Reserve
39215761,-37.98357303333333,145.1358183611111,park,Corrigan Oval
39216070,-37.9784441125,145.12805338750002,park,
39242784,-37.785350768181814,145.11949287727273,park,Lawford Street Reserve
39247697,-37.7963207875,144.94545764999998,park,Pleasance Gardens
39335049,-37.90652048666666,145.2696398511111,park,
39335235,-37.906261484313724,145.27650546470588,park,
39337485,-37.8498042,145.312488075,park,
39337559,-37.84696778888889,145.3059034777778,park,Miller Park
39338613,-37.854242115384615,145.30194086923078,park,Batterham Reserve
39338677,-37.8516796,145.3048001,park,Gravenstein Crescent Reserve
39369333,-37.82209467777777,145.30866424444446,park,
39453293,-38.126907913793104,144.3545154,park,Rippleside Park
39560308,-37.984269024999996,145.1256147,park,
39560337,-37.98601442903226,145.12467402258068,park,
39574697,-37.909327725,145.22579862499998,park,
39582074,-38.17729542222222,144.33742763333333,park,
39627058,-36.860236725,143.731782625,park,Rene Fox Memorial Garden
39701302,-38.07207319285715,145.49783115,park,Homegarth Park
39706254,-38.078186587234036,145.49526083404257,park,
39812747,-37.96790115714286,145.12749518571428,park,Swallow Reserve
39812748,-37.9696335,145.127574175,park,Higgins Close Reserve
39889626,-38.0722632,145.49493235,park,
39997470,-37.9868751,145.1313020285714,park,
39997516,-37.97472565,145.13120361666665,park,
40007797,-38.06144906666667,145.4887410166667,park,
40117405,-37.779585999999995,145.15301330625,park,Marsden Crescent Reserve
40337821,-37.817047612500005,144.98923701249998,park,Weedon Reserve
40478565,-37.79626353913043,145.21925818695652,park,Loughies Bushland
40478566,-37.8057084,145.212497775,park,Chaim Court Reserve
40604224,-37.988693222222224,145.13309271111112,park,
40607068,-36.383889999999994,145.29959642,park,Ardmona Reserve
40662386,-37.788761855555556,144.9284687,park,Kensington Hall Reserve
40722837,-36.379582560975614,145.39709281219513,park,Monash Park
40730118,-37.751941342857144,144.7524112142857,park,Carinya Boulevard Reserve
40730128,-37.7483972,144.75240845714285,park,Pilbara Avenue Reserve
40740026,-37.704662899999995,144.92109754999998,park,F.D. Mott Reserve
40951832,-37.977451349999996,145.133247675,park,Coughlan Reserve
41020338,-37.782586275,144.8363069875,park,Sunvale Community Park
41089697,-37.80557637777778,144.98561404999998,park,Cambridge Street Reserve
41097178,-37.76853365714286,144.98391185714286,park,Phillips Reserve
41098268,-37.7701673,144.98339430666664,park,Kirkdale Park
41098463,-37.7736641962963,144.98578387037037,park,Sumner Park
41107786,-38.256182555555554,144.53930034444446,park,Kingston Park
41374335,-37.82341107926829,144.94186086585367,park,Point Park
41379776,-37.79010803333333,144.93108633333333,park,Parsons Reserve
41411230,-37.798103312500004,144.92307925,park,J.J. Holland Park
41499382,-37.78724830357144,144.84414395000002,park,Lowe Crescent Reserve
41566334,-37.873090273636365,145.22538696772727,park,
41566336,-37.87385691538462,145.2254220846154,park,David Cooper Park
41566950,-37.83882729545454,145.10487629090906,park,Wattle Park
41697070,-37.833949641176474,145.0102338470588,park,Winifred Crescent Reserve
41761227,-37.83756146,145.037415468,park,HA Smith Reserve
41761233,-37.839965638461535,145.0406880230769,park,Patterson Reserve
41803096,-38.34371011538461,144.3050936076923,park,
41803097,-38.34406532,144.307425988,park,
41803135,-38.34070713846154,144.3022743769231,park,Torquay Boulevard Park
41803141,-38.315405616,144.286200976,park,Ocean Acres Reserve
41803160,-37.85604994285715,144.99638267142856,park,Chris Gahan Reserve
41803163,-37.85358558333334,144.99666065,park,Harry Gregory Reserve
41803361,-37.85493566206896,144.99020339655172,park,Windsor Siding
41803985,-37.843996872727274,144.99371906818183,park,Grosvenor Reserve
41808035,-38.33497552222223,144.30878575555553,park,Great Ocean Views Reserve
41844101,-37.8438447368421,144.9898534263158,park,Argo Reserve
41901991,-38.329105159090915,144.3252879681818,park,Taylor Park
42062253,-37.82002558378379,145.17412211351353,park,Nunawading Reserve
42118876,-37.84865322,144.98533063999997,park,Connell Reserve
42121594,-37.819650425000006,145.20111225,park,Pipe Track Linear Reserve
42240690,-37.800919028571435,145.1826447,park,
42240849,-37.8010386,145.18026279999998,park,Astelot Drive Reserve
42294588,-37.795206847368426,145.17568770526316,park,Donvale Reserve
42296035,-37.791430016666666,145.16645255,park,Beverly Reserve
42484106,-37.857199503703704,145.21017386296296,park,Wantirna Reserve
42556110,-37.77995611818181,144.94008751818183,park,Galada Avenue Reserve
42705056,-37.820257325,144.9981433,park,Peppercorn Park
42745011,-37.94184864090909,146.45050143636365,park,Ned Stringer's Park
42755196,-37.73241817142857,144.94926521428573,park,Plumridge Park
42787188,-37.84062518333333,144.98833822499998,park,MacFarlan Street Reserve
42787190,-37.83908005,144.98745933333333,park,Caroline Gardens
42850418,-37.8440739,144.98931467692313,park,
42850419,-37.84451786666667,144.99056780416666,park,
42858904,-37.771783058333334,145.17348069583332,park,Landscape Drive Reserve
42911155,-37.84828183142857,144.9915444085714,park,Grattan Gardens
42963959,-37.698106216666666,145.13755093333333,park,Glendale Reserve
43006563,-37.85364405,144.98204637499998,park,F.G. Hughes Reserve
43007582,-37.779089766666665,144.76693535555557,park,
43059992,-37.665970314814814,145.04724820617287,park,Findon Recreation Reserve
43101952,-37.78044466666667,144.7699776722222,park,St Andrews Park
43101953,-37.780010393939385,144.76183552121213,park,Central Park
43595209,-37.40647073529412,144.58077877647057,park,Stanley Park
43625501,-37.823898285714286,145.30310388571428,park,
43681119,-37.79119685,145.260945925,park,Village Green
43689026,-38.21303284,145.4593034,park,
43822613,-37.843147125,144.95221922500002,park,Rats of Tobruk Reserve
43825226,-37.835706685714285,144.97321367142857,park,Bowen Crescent Reserve
43825681,-37.84455285,144.953658275,park,Little Finlay Reserve
43873751,-37.804793149999995,144.9842927625,park,Peel Street Park
43880032,-37.8352563,144.9595363,park,Foundry Site Park
43928915,-38.174186049999996,144.30762824166663,park,Tim Hill Recreational Reserve
43930299,-37.845368324999995,145.008413975,park,Fairbairn Reserve
43982092,-37.761655966666666,144.98191013611114,park,Roberts Reserve
44158378,-37.820034756249996,144.94647594375,park,Docklands Park
44158379,-37.82198931176471,144.94712501176468,park,Docklands Park
44158773,-37.820425449999995,144.94506656250002,park,Victoria Green
44159842,-37.81100275,144.93844665,park,
44165101,-37.8700739625,145.25973979375001,park,
44405238,-36.59710618333333,143.94553811666665,park,Old Chinese Market Gardens
44410315,-36.562101271428574,143.86687015714287,park,Inglewood Botanical Gardens
44546884,-37.84094206666667,144.95540465,park,Broadway Tree Reserve
44618185,-37.79706563333333,144.9386453666667,park,
44705968,-37.798789861904766,144.94412612857144,park,Gardiner Reserve
44707224,-37.795868875,144.93977945,park,
44708016,-37.67959264705882,145.05098450882352,park,Silkyoak Park
44708020,-37.68300274782609,145.04936620869566,park,Satin Park
44754099,-38.158193123529415,145.9344109235294,park,Civic Park
44775135,-37.73688639126214,145.0348976669903,park,Olympic Park
44809892,-37.758431,144.98046753913042,park,Abrahams Reserve
44810007,-37.75531762631579,144.97933537894738,park,Beau Monde Reserve
44998297,-38.058862290625,145.38530689062497,park,
44998733,-38.06089875714286,145.38729839285716,park,
44998754,-38.05958502333333,145.38146305666666,park,
45005363,-37.859098857142854,145.14915905714287,park,Highbury Park
45019688,-37.877557234782614,144.97636063043478,park,
45029162,-37.867171516666666,144.97402087499998,park,
45030241,-37.86618589545454,144.97313792727275,park,
45030797,-37.86835481538462,144.97559816923078,park,
45031440,-37.872087827777776,144.97521535555558,park,Marina Reserve
45032252,-37.881232525,144.97689376388888,park,Point Ormond Reserve
45033602,-37.863969850000004,144.98195755,park,
45033801,-37.86232628333334,144.9774146,park,
45054648,-37.844715475,144.9973219,park,Dyeworks Park
45054816,-37.86170762,144.97303218,park,Cleve Gardens
45064411,-37.809608653846155,145.11010248461542,park,
45064638,-37.86244260833333,144.9788097916667,park,
45105177,-37.829026988888884,145.15426913333332,park,Naughton Patch
45172118,-37.79614365,144.9638058,park,
45303415,-37.8525106,145.00019475000002,park,Lumley Playground
45311883,-37.865971707407404,144.97333041851854,park,
45311884,-37.86603695,144.97438310714284,park,Lower Esplanade Reserve
45366911,-37.85455482,144.99401874,park,James Street Reserve
45414952,-37.82323716,144.98872024000002,park,
45514245,-37.93720508571429,145.09667295714286,park,
45515190,-37.799608,144.9426002,park,North Melbourne Recreation Reserve
45657073,-37.68431451428571,144.8909697,park,Fairbank Avenue Reserve
45736893,-37.8048833375,145.109663025,park,
45736894,-37.80387465,145.1118526,park,
45736927,-37.80284357142857,145.11330067142856,park,
45736928,-37.80461905,145.11058155,park,
45737311,-37.801590261538465,145.12965136153846,park,Tassells Park
45761246,-37.88520438333333,145.1802654833333,park,
45761253,-37.88333195,145.18433182,park,
45761255,-37.88116158,145.18247386000002,park,
45761260,-37.889490820000006,145.1719376,park,
45763324,-37.70146951666667,144.87692445,park,Dalkeith Avenue Reserve
45764990,-37.79671956666667,144.9507917,park,
45775872,-37.8382389,144.9420457,park,Olives Corner
45775906,-37.834728899999995,144.94601250000002,park,Crockford Street Reserve
45791886,-37.86133029999999,144.983023625,park,Waterloo Reserve
45791911,-37.859108325,144.987785025,park,Crimea Street Reserve
45792499,-37.70771064117647,144.77410827058821,park,Rose Hedge Reserve
45792516,-37.892777720000005,145.13718898,park,
45792681,-37.79489068636364,144.91560972727277,park,Riverside Reserve
45792852,-37.79679423103448,144.9114237,park,Newell's Paddocks Wetlands Park
45792871,-37.7943416680851,144.90796633723403,park,Footscray Park
45801488,-37.82785601,145.21099244,park,Heatherdale Reserve
45801622,-37.87834813333333,145.148746275,park,
45814200,-37.81131274,144.8979528,park,Cuming Reserve
45814279,-37.80763395,144.9034147,park,
45842709,-37.77618372162162,144.89563184324322,park,Pipemaker's Park
45842874,-37.76901008,144.902802316,park,Maribyrnong Park
45843920,-37.892794025,145.14756327499998,park,
45843921,-37.89300597272727,145.15026425454545,park,
45845574,-37.83455605263158,144.95990195789477,park,Town Hall Reserve
45885772,-37.69271476666667,144.78964288333333,park,Salamander Drive Reserve
45885856,-37.69820297826087,144.7972393217391,park,Verona Drive Reserve
45974069,-37.85363312380953,145.36995468095236,park,Olinda Recreation Reserve
45979060,-37.7821876,145.10089495,park,Willow Bend Reserve
46056073,-37.79815141666667,144.97458698333332,park,
46061369,-37.70428662758621,144.78936734137932,park,Queen Victoria Crescent Reserve
46099560,-37.770735566666666,144.87552533333334,park,Deighton Park
46111679,-37.788581288,145.17172621199998,park,
46129024,-37.918303619999996,145.12672197333333,park,Fregon Reserve
46142201,-37.812476967857144,144.97393992857144,park,Gordon Reserve
46146359,-37.803003600000004,145.32699075,park,Balmoral Reserve
46149945,-38.15372719047619,145.921410752381,park,Western Park
46150312,-37.771996771428576,144.87510734285718,park,Village Green
46150410,-37.77747949230769,144.87373994615385,park,Ulmara Park
46190071,-37.76453501428572,145.32871133571425,park,
46267167,-37.80456218333334,144.88919083333334,park,Bristow Reserve
46330961,-37.818706088,144.97349818,park,Birrarung Marr
46332577,-38.04055862727272,145.2539832,park,
46334731,-38.02390739545454,145.12272961363635,park,
46334798,-38.0256785,145.12568526666666,park,
46335594,-38.014968418604646,145.1093166348837,park,
46337830,-37.90734192857143,145.1760189,park,
46337859,-37.914995999999995,145.18092171428572,park,
46337923,-37.90656745555556,145.17023991111108,park,Jacranda Reserve
46338023,-37.8945812125,145.171558975,park,
46342685,-37.88344132666667,145.07364774,park,
46342820,-37.89046391111111,145.07226073333334,park,Springthorpe Gardens
46418652,-38.12246740909091,145.31092411818182,park,Casey Fields
46423649,-37.865481100000004,145.1856352083333,park,
46426687,-37.90423112857143,145.19655637142856,park,
46426736,-37.90502478571428,145.19450557142855,park,
46426844,-37.90881936153847,145.19709388461536,park,
46426869,-37.91091478,145.19645133,park,
46426924,-37.910884393333326,145.20048042000002,park,
46426938,-37.91248003333334,145.19887441111112,park,
46426986,-37.913808499999995,145.19705626666666,park,
46427000,-37.912285133333334,145.19390701666669,park,
46483480,-37.9960540452381,145.26195961190476,park,
46494569,-38.03703253636363,145.3146496909091,park,
46494687,-38.03595182307692,145.31695656153846,park,
46494763,-38.03679900909091,145.31905143636365,park,
46494764,-38.037245544444445,145.32020607777778,park,
46494765,-38.03504977083333,145.31772738333333,park,
46497874,-38.0294413,145.31585239999998,park,
46497875,-38.029619839999995,145.31986418,park,
46504881,-37.871413672727265,145.1898699818182,park,Bushy Park Wetlands
46504957,-37.871113162499995,145.17351003750002,park,
46504997,-37.865340474999996,145.171491725,park,
46505018,-37.87120206666667,145.1773743166667,park,
46505301,-37.85102355555556,145.1608551,park,
46593542,-37.8951085625,145.12181164999998,park,
46593570,-37.8952091,145.13065915,park,Melbourne Water Pipe Reserve
46593571,-37.894021375,145.131991475,park,Melbourne Water Pipe Reserve
46593572,-37.891428775,145.13489385,park,Melbourne Water Pipe Reserve
46593573,-37.892005525,145.13424485,park,Melbourne Water Pipe Reserve
46593574,-37.892579925,145.13360785,park,Melbourne Water Pipe Reserve
46593575,-37.889929124999995,145.13657895,park,Melbourne Water Pipe Reserve
46593576,-37.8851553,145.14209776,park,Melbourne Water Pipe Reserve
46593577,-37.885798225,145.1413621,park,Melbourne Water Pipe Reserve
46593578,-37.886706875,145.1402708,park,Melbourne Water Pipe Reserve
46593579,-37.88833635,145.138372125,park,Melbourne Water Pipe Reserve
46593580,-37.882496599999996,145.1452976,park,Melbourne Water Pipe Reserve
46593961,-37.862494057142854,145.12165175714287,park,
46593972,-37.87150813333334,145.12676389166666,park,
46594080,-37.8749827,145.1410676857143,park,
46594082,-37.87038053333333,145.13039683333335,park,
46598260,-37.8770153,144.686262125,park,Geddes Crescent Park
46603970,-37.644816150000004,142.35011905,park,Dunkeld Arboretum
46639045,-37.861884744444446,145.1836632222222,park,
46656540,-37.85336922133334,145.064480488,park,Back Creek Reserve
46656594,-37.85405149333333,145.05910895666668,park,Nettleton Park
46656696,-37.85609054705883,145.0600169529412,park,
46656744,-37.857062424137936,145.0593636965517,park,Glenburn Bend
46656759,-37.85070083076923,145.05359279615385,park,
46703687,-37.84173832692308,144.65689014230767,park,Moorookyle Country Club
46703731,-37.842170142499995,144.65685958,park,Moorookyle Avenue Park
46705457,-37.84076885454545,144.6534018,park,The Ruins
46705566,-37.840870875,144.658916175,park,Edmund Drive Park
46706929,-38.390258200000005,142.23033831428572,park,Russell Clark Reserve
46706931,-38.3919981090909,142.2404404909091,park,George Dodds Reserve
46751574,-37.894567519999995,145.1571594,park,
46751575,-37.89471052857143,145.15799289999998,park,
46751845,-37.84672961016949,144.65350723728812,park,Butterfly Boulevard Park
46752664,-37.89158637142858,145.10394446190475,park,
46795069,-37.88360179166667,145.08942718333333,park,
46795186,-37.88109601333334,145.08634256000002,park,
46795210,-37.8796938,145.08405437500002,park,
46795227,-37.8789555875,145.08285771250002,park,
46796991,-37.88968970555556,145.09300677222225,park,Scotchman's Creek Linear Park
46797062,-37.887597628571434,145.09048120476194,park,Scotchman's Creek Linear Park
46797107,-37.89107815,145.09529796666666,park,Scotchman's Creek Linear Park
46807966,-37.925334525000004,145.19747821666667,park,
46808003,-37.92329445833334,145.18775025833335,park,
46808844,-37.92936577647059,145.20443080588234,park,
46817587,-37.70498272142857,144.73831130714285,park,
46817671,-37.68398822857143,144.7451596857143,park,The Outlook
46817967,-37.68501062,144.75166911000002,park,Berthon Crescent Reserve
46817971,-37.68473263333333,144.74741298888887,park,
46817985,-37.68487371666666,144.7393301333333,park,
46825186,-37.27501795,143.515910275,park,Toll Bar Park
46832458,-37.6792025,143.063413625,park,Simpson Park
46851922,-38.078769391176465,145.2900201764706,park,Conway Street Reserve
46869910,-37.6991103936937,145.09991876306307,park,Kalparrin Gardens
46873698,-37.81757233333334,145.03925375000003,park,Hull Street Reserve
46873935,-37.8149941,145.04181095,park,Edgevale Reserve
46927559,-37.95988526830601,145.2427577010929,park,Dandenong Police Paddocks Reserve
46946149,-38.049472699999995,141.00659464444445,park,
46977606,-37.74502284615385,145.01777620769232,park,Lahinch Reserve
46978008,-37.78255005,145.02058018333332,park,Broomfield Reserve
46978214,-37.700879871428576,145.05050148571428,park,Mount Cooper Reserve
46978401,-37.772282825,145.00505692500002,park,Derby Reserve
46978800,-37.8645611923077,144.78390977692305,park,A.B.Shaw Reserve
46980714,-37.723808733333335,144.81416357499998,park,Tarella Drive Reserve
46980919,-37.68702621818181,144.77366133801652,park,Transmission Line Linear Reserve
46985236,-37.75035851578948,145.0052012,park,Florence Adams Reserve
46986884,-37.76253375,145.0191579,park,Andrew Boyd Reserve
46986925,-37.760568639999995,145.01209628,park,Clyde Jones Reserve
47059166,-37.6716649262295,145.12473348688528,park,Plenty War Memorial Park
47161081,-37.88022919090909,145.17916149090908,park,
47161218,-37.867143712499995,145.1778004625,park,
47161231,-37.86644218,145.17982872000002,park,
47172000,-37.981864259999995,145.0263552,park,Donald Macdonald Reserve
47296686,-37.8564551,145.19591396666667,park,
47344429,-36.734191550000006,147.17839683333332,park,North Mt Beauty Park
47353273,-37.77765383846154,145.2794788,park,Tadji Close Reserve
47353483,-37.79097815,145.27162375,park,Alto Reserve
47354547,-37.756718533333334,145.1711544888889,park,
47354749,-37.7607612375,145.1641813,park,Matisse Drive Reserve
47354824,-37.76758865,145.16780215000003,park,
47354840,-37.770051099999996,145.16788726,park,Huntingfield Drive Reserve
47354868,-37.77208907142857,145.1710432142857,park,
47356343,-37.78326419166666,145.25152709166665,park,Godbehear Reserve
47358709,-37.78699023846154,145.26679289230768,park,Highland Avenue Reserve
47420148,-37.71781334285714,144.7903560857143,park,Copernicus Way Reserve
47439317,-38.184390635294115,145.0868244117647,park,J. T. Smith Reserve
47470710,-37.86968006122449,145.06565511428573,park,Darling Park
47558713,-37.680123353846156,144.7291721846154,park,
47560773,-37.68989803333333,144.73438235,park,
47569309,-37.908720195238104,145.14363674285715,park,
47570165,-37.900533625,145.14768717500002,park,
47641115,-38.055965785714285,145.13640939523808,park,Wannarkladdin Wetlands
47653246,-38.036975322857145,145.13319132285713,park,
47653259,-38.0456427875,145.13725919166666,park,Heights Park
47662506,-37.8376266902439,145.2519442756098,park,
47769727,-38.183318029999995,145.1229035,park,Overport Park
47785847,-38.162261720000004,145.12628839,park,Delacombe Park
47792144,-38.11208868,145.13381898,park,Retarding Basin Reserve
47792157,-38.10824074,145.13695146,park,
47792183,-38.10209140476191,145.12921834285714,park,Seaford North Reserve
47805793,-37.754648342857145,144.7795120857143,park,
47805794,-37.756662340000005,144.77888337999997,park,Stockton Run Reserve
47867731,-37.879375022413804,145.2165231913793,park,
47877833,-38.165601192857146,144.37557790714285,park,Thomson Recreation Reserve
47880785,-37.892516143478254,145.2256751434783,park,
47893596,-37.88557047741936,144.75863449999997,park,Homestead Run Reserve
47913126,-37.977280275,145.055642175,park,
47968100,-37.80992965,144.964249575,park,
47968101,-37.810239990909096,144.96438415909088,park,
47968103,-37.8097172,144.96434816000001,park,
47968104,-37.810283180000006,144.96460592,park,
48029034,-37.868503705555554,145.2631635462963,park,Fairpark Reserve
48029046,-37.811643975,145.00894535,park,Williams Reserve
48029233,-37.86941690909091,145.27340680481282,park,
48031317,-37.87971748571429,145.12733615714285,park,
48101289,-38.20883851666667,144.3343001,park,John Croft Reserve
48118986,-37.72565626666667,145.11245318571432,park,Alma Play Park
48121016,-37.93381758181818,145.4403184909091,park,Puffing Billy Park
48121736,-37.67338,145.02744301666667,park,Lorne Park
48122011,-37.661894825000005,145.02363933750001,park,Partridge Street Reserve
48122094,-37.66594048571428,145.02279830714286,park,Lalor Recreation Reserve
48153675,-37.964525316129034,145.19422619193548,park,Oakwood Park
48154629,-37.71754994385965,145.14337685263158,park,Alistair Knox Park West
48162558,-37.888437975,145.15447502499998,park,
48162561,-38.05632761904762,145.14231625238094,park,Harbour TownPark
48162872,-38.077297853846154,145.13253916923077,park,Roy Dore Reserve
48162907,-38.082396666666675,145.13380046666666,park,
48163024,-38.057531969230766,145.1455778,park,
48207773,-37.888306975,145.136104275,park,Melbourne Water Pipeline
48209877,-37.98458794166666,145.19551673333333,park,Greaves Reserve
48210071,-37.975742659999995,145.19991538,park,Gardiner Reserve
48210161,-37.95015475555555,145.20721268888892,park,
48210169,-37.95077976111111,145.21061259444443,park,
48210173,-37.955769954545445,145.2143636181818,park,
48210306,-37.961237749999995,145.213681525,park,Pittman Street Reserve
48257747,-37.91880661818182,145.19775136363634,park,
48258512,-37.92937758867925,145.24931880943396,park,
48263008,-37.932477139999996,145.23322222,park,Streeton Reserve
48271521,-37.90175514,145.15764036000002,park,
48277245,-37.67071730384616,145.06457148846155,park,Doctor Harry Jenkins Reserve
48277247,-37.67069746666666,145.05944186666667,park,Betula Park
48330437,-37.955247183333334,145.17754879999998,park,
48333767,-37.93125743076923,145.11986783076924,park,
48383464,-37.84529261333333,145.07389190666666,park,Fordham Gardens
48383503,-37.84341550588235,145.07214494117648,park,
48383580,-37.84188493571429,145.07156961428572,park,
48383843,-37.84712474,145.07365631,park,
48384665,-37.873118444444444,145.06914955555555,park,
48390272,-37.908026925,145.35506853750002,park,
48438217,-37.909595180000004,145.07085308,park,Annie and Arthur Abrahams Reserve
48480395,-37.91678029999999,145.19073611666667,park,
48482185,-37.9177488875,145.18458446250003,park,
48482939,-37.918851366666665,145.17961400833335,park,
48486357,-37.95904889807693,145.026792225,park,Merindah Park
48486426,-37.950159735294115,145.02430863529412,park,Ashwood Avenue Park
48486518,-37.953475833333336,145.01575853333333,park,John Batman Reserve
48486576,-37.942250449999996,145.0335067,park,Spring Road Park
48486578,-37.941116061538466,145.03102836153846,park,GL Basterfield Park
48486602,-37.937645659375,145.031902578125,park,Curley Rourke Reserve
48486613,-37.936037799999994,145.02581550000002,park,Wishart Reserve
48488313,-38.16521589756097,144.33902643414635,park,Barwon Valley Park
48488581,-38.191166815,144.345198745,park,
48528949,-37.807978066666664,144.89060506666667,park,
48529092,-37.808137125,144.89913685000002,park,Manallack Reserve
